{"type": "FeatureCollection", "features": [{"geometry": {"type": "LineString", "coordinates": [[-86.3137359103028, 12.1578535233303], [-86.3135265130101, 12.157938090803], [-86.3133596958618, 12.1573911679809], [-86.3132128213129, 12.1569093164509], [-86.3130449261863, 12.1563585275566], [-86.3128856548864, 12.1558361903512], [-86.3127254852712, 12.1553109541412], [-86.31253028136, 12.1545722319383], [-86.3125263287727, 12.1545233174262], [-86.3121281954388, 12.1546366023688], [-86.3118826858717, 12.1547065053015], [-86.3116802954382, 12.1547535756077], [-86.3115291988074, 12.1547779011172], [-86.3111145364722, 12.1547940595771], [-86.3104061250392, 12.1546782279867], [-86.3104258879754, 12.1543287131021], [-86.3104280439321, 12.154292532138], [-86.3104223845458, 12.1541822328581], [-86.3104173539802, 12.1540826473224], [-86.3103476447142, 12.1538256918792], [-86.3102509859896, 12.1536107132452], [-86.3100437446535, 12.1531254299548], [-86.3098418033777, 12.1526527038139], [-86.3098165607182, 12.152593426373], [-86.30970382215, 12.1524465060812], [-86.3095697036781, 12.1523625515923], [-86.309403425519, 12.1523153930445], [-86.3091754330999, 12.1523234723494], [-86.3090689827388, 12.1523784467434], [-86.3089475305123, 12.1524413247903], [-86.3087782879128, 12.1526710578633], [-86.3084854371302, 12.1526586754665], [-86.3079716007877, 12.1525995736638], [-86.3077782833385, 12.1526353157659], [-86.3071721001848, 12.1527820603168], [-86.307343498741, 12.1533786977108], [-86.3067929213034, 12.1535321160297], [-86.3063959557793, 12.1536354779496], [-86.3060174057186, 12.1537443723673], [-86.3053126773782, 12.1539366938509], [-86.3054882980162, 12.1544989918935], [-86.3056686797253, 12.1550764811963], [-86.3058444800264, 12.1556393915517], [-86.3056309504834, 12.1556933114515], [-86.30537214585, 12.1557584719672], [-86.3051736181722, 12.1558003608618], [-86.3049458952477, 12.1558234568322], [-86.304361990313, 12.1557973750707], [-86.3043707938028, 12.1556168224699], [-86.3043908262336, 12.1552060121558], [-86.304412655295, 12.1547587568536], [-86.3039543348371, 12.1547380318695], [-86.3038845357395, 12.1547347826134], [-86.3034578359796, 12.1547143210806], [-86.3025183778554, 12.1546690949403], [-86.3025411950636, 12.1542278981706], [-86.3025651800817, 12.1536318774076], [-86.302507418409, 12.1533677204379], [-86.3024651077591, 12.1531739056328], [-86.3018621585404, 12.1533118680663], [-86.3016914786364, 12.1533572700737], [-86.3009210834487, 12.1535601300119], [-86.3007769038456, 12.1535980674378], [-86.3002700743623, 12.1537145142249], [-86.2998431949393, 12.1538169100756], [-86.2989550306179, 12.1540386505263], [-86.2984244856111, 12.1541702896212], [-86.2981186092568, 12.1542461642934], [-86.2980150335046, 12.1542718949355], [-86.2979132543829, 12.1542545069934], [-86.2974381354291, 12.1543352994421], [-86.2971937936719, 12.1544369046933], [-86.2971157300737, 12.1544866095817], [-86.2962235233335, 12.1546794574353], [-86.2961283917449, 12.1546972844384], [-86.29529232971, 12.1548802087409], [-86.2944816899976, 12.1550391587048], [-86.2943715565438, 12.1550750761144], [-86.2931970093098, 12.1552063634262], [-86.2931462544962, 12.1552119837511], [-86.293069897697, 12.1552220827722], [-86.2929723406572, 12.1552349919551], [-86.2929094585873, 12.1552432468065], [-86.2924636247118, 12.1553083196149], [-86.2917062550958, 12.1554089585019], [-86.2915417735672, 12.1554308250613], [-86.2912057138195, 12.1554792125016], [-86.2910845310876, 12.1554980054434], [-86.2908807931812, 12.1555297075525], [-86.2907128980546, 12.1555575456895], [-86.2905239823503, 12.1555824858476], [-86.2901896294016, 12.1556264823884], [-86.2897533176681, 12.1556747819757], [-86.2891599804229, 12.155663277893], [-86.2886053605665, 12.1556524763492], [-86.28862907609, 12.1547905468685], [-86.2886395863788, 12.1544106471602], [-86.2886825258494, 12.1535715463675], [-86.288730226391, 12.1524178772522], [-86.2877650764497, 12.152372387266], [-86.287606344139, 12.1523651861478], [-86.2864831805393, 12.1523125828515], [-86.2863623571336, 12.1523068746467], [-86.286229136977, 12.1523007273492], [-86.2861976061105, 12.1522991466155], [-86.2854779657364, 12.1522655121134], [-86.2853840917892, 12.1522611211859], [-86.2853691797555, 12.1522604186375], [-86.2849606259642, 12.1522412741928], [-86.2843539936529, 12.1522128209788], [-86.2836083021355, 12.1521778691872], [-86.2835011331221, 12.1521728635282], [-86.2830472144091, 12.1521516114311], [-86.28292854696, 12.1521459910415], [-86.2826436013519, 12.1521327304343], [-86.2826777373327, 12.1518164954939], [-86.2827476262618, 12.15147435363], [-86.2826988477419, 12.1513478066946], [-86.282664352435, 12.1512468149959], [-86.2825808989451, 12.1511338798857], [-86.2825010387163, 12.1510300778991], [-86.2822539121817, 12.1508117598833], [-86.2820737101357, 12.1506019601411], [-86.2819621393774, 12.1503502704873], [-86.2819448917239, 12.1502605192692], [-86.2819381543593, 12.1500877788259], [-86.2819606122414, 12.149843904608], [-86.2820340944316, 12.1490452742581], [-86.2822026183789, 12.1474862959469], [-86.2822651411227, 12.1469079997891], [-86.282351559053, 12.1459002597465], [-86.2821444973801, 12.1458771629148], [-86.2812456431068, 12.1457769595265], [-86.2803567601331, 12.1456928272922], [-86.2793659183748, 12.1456007911642], [-86.2791427768582, 12.1455437076719], [-86.2788079747518, 12.1454580824104], [-86.2780098216218, 12.1453153735802], [-86.2772741912357, 12.1451773191805], [-86.2765695527268, 12.1450457634582], [-86.2761262341341, 12.1449600502156], [-86.2756960309445, 12.1448768837541], [-86.2755498750478, 12.1457358594404], [-86.2754837590429, 12.1457571120498], [-86.2753830578996, 12.1458129660069], [-86.2752626836515, 12.1458609160928], [-86.2751104192108, 12.1458732109852], [-86.2750195097041, 12.145839048747], [-86.2749061423152, 12.1457737979816], [-86.2748752402694, 12.1457378793166], [-86.2748335584402, 12.1457029266746], [-86.2747223470081, 12.1456531323249], [-86.2746361087408, 12.1456456675627], [-86.2745870607263, 12.1456500585993], [-86.274440635335, 12.1457190856855], [-86.2742924133131, 12.1457033657782], [-86.2741896460446, 12.1456720137813], [-86.2741054739025, 12.1456051822016], [-86.2739726130719, 12.1454877658375], [-86.2738375064532, 12.1453928315517], [-86.2736018783542, 12.1452964920984], [-86.2732118298578, 12.1452253572017], [-86.2728665174626, 12.1452199123076], [-86.2727448855731, 12.1452609246525], [-86.2724457465835, 12.1454291015465], [-86.272300309339, 12.1455644333721], [-86.2721212751029, 12.1456371489514], [-86.2716224406256, 12.1456697304425], [-86.2713108150536, 12.1456051822016], [-86.2708365944151, 12.1453896700023], [-86.2706332158348, 12.1452335245427], [-86.2704014504915, 12.1449481943859], [-86.2701863938125, 12.1448002160216], [-86.2701287219712, 12.1447745722848], [-86.2700418548832, 12.1447361066751], [-86.2692119912238, 12.1445883038351], [-86.2684273128231, 12.1444447163273], [-86.2678954203434, 12.1443526797678], [-86.2672873507275, 12.1442474699977], [-86.267129157406, 12.1442200697836], [-86.266746654758, 12.144153852588], [-86.2664875806301, 12.1441090637593], [-86.2656265454303, 12.1439724138747], [-86.2654440975961, 12.1439840941054], [-86.2652515886307, 12.1439999897568], [-86.2648837285218, 12.1440255457469], [-86.264742154033, 12.144042495251], [-86.2644362776788, 12.144077799396], [-86.2640987806266, 12.1441210074477], [-86.2638890240077, 12.1441110836479], [-86.2635961732251, 12.1440639236381], [-86.2631401883869, 12.1439580111836], [-86.2629665440424, 12.1439476482712], [-86.2627003732238, 12.143930698761], [-86.2624363583618, 12.1439495803396], [-86.2619863024044, 12.1440632210681], [-86.2618713180481, 12.1441209196265], [-86.2616170049911, 12.144271093898], [-86.2613597274938, 12.1444924910174], [-86.2610304949421, 12.1447873063325], [-86.2607818412715, 12.1449878894583], [-86.2606050528236, 12.1451463184053], [-86.2604532375405, 12.1452821772998], [-86.260310854568, 12.1449473161762], [-86.2602240773116, 12.1446936012916], [-86.2601091827867, 12.1442990210338], [-86.2599436232799, 12.1436363216044], [-86.2596416995129, 12.1435780081911], [-86.2596116957824, 12.1435723876204], [-86.2592874039648, 12.1435116151929], [-86.2589630223157, 12.14345075493], [-86.2583280930729, 12.1433245554661], [-86.257643846321, 12.1431929110068], [-86.2575171838659, 12.143240422457], [-86.2570548209892, 12.1429008163972], [-86.2567040288707, 12.1426470117408], [-86.2563710233949, 12.1424346587317], [-86.2561964807352, 12.1422798288668], [-86.2558506293508, 12.1419735939229], [-86.2556253318776, 12.1419158948992], [-86.2555502327198, 12.1420103034931], [-86.2554805234538, 12.1422568195428], [-86.2554616588328, 12.1425215144701], [-86.2548754182784, 12.142473475961], [-86.2545948744152, 12.1424504666538], [-86.2542825301909, 12.1424223636804], [-86.2537115609963, 12.1423704609937], [-86.2532882748344, 12.142340865041], [-86.2530699842204, 12.1423255840433], [-86.2528794515486, 12.1423119716595], [-86.2524549975768, 12.1422822878784], [-86.252025602871, 12.1422521649847], [-86.2518497127384, 12.1422398699251], [-86.2511351029299, 12.142172949662], [-86.251053176576, 12.1430317584281], [-86.2510208372258, 12.1433281561475], [-86.2509987386698, 12.1435340096584], [-86.2509548110524, 12.1439435206704], [-86.2509356769368, 12.1441627225316], [-86.250928400583, 12.1442467674282], [-86.2509204954085, 12.1443379258126], [-86.250884203471, 12.1447152930894], [-86.2508709982364, 12.1448525573397], [-86.2508352452881, 12.1451608088531], [-86.2508234773578, 12.1452617150402], [-86.2507831430016, 12.1456003520605], [-86.2507782920991, 12.1456407496016], [-86.250757541016, 12.1458704007241], [-86.2507180151435, 12.1465537323954], [-86.2506687874659, 12.146794887197], [-86.2506571991987, 12.1468297518753], [-86.2506007849989, 12.1469995085434], [-86.2505746440241, 12.1470488635399], [-86.250479242941, 12.1472290706736], [-86.2504053115931, 12.1473861809845], [-86.2502872729648, 12.1475324893292], [-86.2502027414965, 12.1476200459652], [-86.2500162512435, 12.1478134257152], [-86.2497674179098, 12.148055457575], [-86.2496496487761, 12.1481850797722], [-86.249453277055, 12.1484297458885], [-86.2493527555747, 12.1485863285721], [-86.2493428741065, 12.1486090738897], [-86.2492315728428, 12.1488665612885], [-86.2491568330112, 12.1491224676856], [-86.2491367107488, 12.1493311269404], [-86.2491391362001, 12.1501683969014], [-86.2491113782578, 12.1507629324989], [-86.2491113782578, 12.1516515719296], [-86.2491113782578, 12.151670277323], [-86.2491113782578, 12.1517078637434], [-86.2491113782578, 12.1518114020094], [-86.2491060781977, 12.1519750960136], [-86.2490829914949, 12.1526868651775], [-86.248285197691, 12.1526088824181], [-86.2478989221188, 12.1525712083066], [-86.2472753116486, 12.1525207126942], [-86.2461393919719, 12.1524285911088], [-86.246068694559, 12.1524220047216], [-86.2453239911885, 12.1523529793738], [-86.2446984044246, 12.1523025715385], [-86.2444914325831, 12.152285886016], [-86.2436807030392, 12.1522038634849], [-86.2428606310163, 12.1521180647289], [-86.2427279498489, 12.1521063848552], [-86.2423635033381, 12.1520741554265], [-86.2412815724099, 12.1519795747645], [-86.2397469804101, 12.1518453878437], [-86.2396713422631, 12.1518390648981], [-86.2391642432852, 12.1517987561165], [-86.2387791355229, 12.1517681952061], [-86.2385003882903, 12.1517321017126], [-86.2378739032112, 12.1516733509791], [-86.2369555554962, 12.151589484065], [-86.2369730726442, 12.1514105093474], [-86.2370379310077, 12.1507504621942], [-86.2371252472533, 12.149861205019], [-86.2372149889502, 12.1489462137178], [-86.2372871236676, 12.1482119526589], [-86.2373014068806, 12.1480659959674], [-86.2373808179517, 12.1472000900024], [-86.2374550187942, 12.1463952164655], [-86.2374594205391, 12.1463338299387], [-86.2374842140409, 12.1459834258884], [-86.2374920293839, 12.1458741770124], [-86.2375180805271, 12.1455063838434], [-86.2375228415981, 12.14544043043], [-86.2375498808882, 12.1450580583883], [-86.2375534741493, 12.1450076491714], [-86.237603240816, 12.1443079787938], [-86.2376051272781, 12.1442804907648], [-86.2376389937643, 12.1438031822045], [-86.2377449051363, 12.1423116203722], [-86.2377545171099, 12.1421757599621], [-86.237756403572, 12.142148974288], [-86.2377592781809, 12.1421077858201], [-86.2377891920798, 12.1416873820525], [-86.2378544097695, 12.140768498476], [-86.2378942949681, 12.1401217739662], [-86.237919447796, 12.1396681700834], [-86.2379223224049, 12.1396152129873], [-86.2379261851607, 12.1395452182687], [-86.2379294190957, 12.1395052589167], [-86.2379391209008, 12.1393865225211], [-86.2380081115146, 12.1385384164163], [-86.2380504221645, 12.137975909014], [-86.2381078245111, 12.1374833078794], [-86.23820708835, 12.1365963776353], [-86.2382649398543, 12.1360797980298], [-86.2382825468339, 12.1359225054008], [-86.2383051843791, 12.1357197198477], [-86.2384198094093, 12.1348362967048], [-86.2384670607933, 12.1342965280265], [-86.2384737981579, 12.1341941246687], [-86.2383797445476, 12.1341472263768], [-86.2382791332358, 12.1340928629906], [-86.2378206331148, 12.1338452854906], [-86.2372042091668, 12.1335043500822], [-86.2367431039315, 12.1332193586604], [-86.2362604391293, 12.1328820232739], [-86.2358409258917, 12.1325975581369], [-86.2353834139175, 12.1322775235166], [-86.2350637035078, 12.132066391795], [-86.2350204945427, 12.1320378486001], [-86.234760611931, 12.131888545685], [-86.2344161080195, 12.1317059568887], [-86.2341975479109, 12.131652471258], [-86.2341750900288, 12.1314547763295], [-86.2342677063346, 12.130966905721], [-86.2342956439399, 12.1308196221953], [-86.2339880607866, 12.1307730746121], [-86.2339044276337, 12.1307273174516], [-86.2338825087407, 12.1306942950047], [-86.2338531338309, 12.1306498552159], [-86.2339547332896, 12.129872596842], [-86.2340422291983, 12.1290809327065], [-86.2340516615087, 12.1289959169373], [-86.2340532784763, 12.1289809864792], [-86.2341162503777, 12.1284621964532], [-86.2341246047098, 12.128313594147], [-86.2342603401492, 12.1272308675152], [-86.2343578971891, 12.1263382822201], [-86.2344142215574, 12.1258916810568], [-86.2344718933986, 12.1254911006947], [-86.2334971314839, 12.125352509059], [-86.2333234871394, 12.1253278295523], [-86.2325024269697, 12.1252110190448], [-86.2321487602424, 12.1251606939006], [-86.2319864346705, 12.1251375952711], [-86.2317075077748, 12.1250978972414], [-86.2310185897834, 12.1249998817271], [-86.2310936889412, 12.1246536653475], [-86.2311180332854, 12.1245799779373], [-86.2311725610231, 12.1244147740271], [-86.231246492371, 12.1241881783856], [-86.2313210525396, 12.1238470549717], [-86.231339827329, 12.1237866293575], [-86.2315300905062, 12.1231664755697], [-86.2315814741405, 12.1230115466827], [-86.2316160592789, 12.1229050988918], [-86.2317033755245, 12.1226357295812], [-86.2317137959818, 12.1226037600721], [-86.2318259955608, 12.1222305772496], [-86.2319561614455, 12.122009249464], [-86.232136453323, 12.1217155507223], [-86.232429034611, 12.1213473728954], [-86.2329432302797, 12.1207001621204], [-86.2326166926739, 12.1204493225106], [-86.2319727802782, 12.1199544054319], [-86.2319316374382, 12.1199148822894], [-86.231842344899, 12.1198290731352], [-86.2317486506148, 12.1197697883913], [-86.2317074179433, 12.1198085210921], [-86.2309253446569, 12.1207453940277], [-86.2301566562683, 12.1217364539329], [-86.2301651902635, 12.1218624879621], [-86.2297929284098, 12.1218165536155], [-86.2295377170376, 12.1217902050383], [-86.2294127613815, 12.1218060141849], [-86.2292334576508, 12.1219264271542], [-86.2291045494076, 12.1219634029712], [-86.2288638009114, 12.1219365274373], [-86.2285559482635, 12.1218694264191], [-86.2281837762413, 12.1217882728092], [-86.2275452537374, 12.121649064449], [-86.2273203155902, 12.1215916245114], [-86.2261489124597, 12.1212744750307], [-86.2256735240114, 12.1210831839127], [-86.2256367829163, 12.1210684286693], [-86.225351298319, 12.1209705873319], [-86.225269192302, 12.1209424820937], [-86.2248747420608, 12.1208608012284], [-86.2245349093888, 12.1207903624406], [-86.2245360771986, 12.1211617907019], [-86.2245081395933, 12.1213055664116], [-86.2244136368254, 12.1216105076727], [-86.2243702481972, 12.1217644712588], [-86.224326859569, 12.1219670039412], [-86.2242522994004, 12.122315068205], [-86.2241764815904, 12.1226691921677], [-86.2241383930224, 12.1228471322552], [-86.2241127910368, 12.122964382939], [-86.2240981484976, 12.1230317471663], [-86.2240282595685, 12.1233711150614], [-86.2239856794241, 12.1235609114626], [-86.2239717555372, 12.1236233571717], [-86.223944356921, 12.1237511468684], [-86.2238880325527, 12.1240134009958], [-86.2238013451278, 12.1244169697203], [-86.2237952365838, 12.1244449867647], [-86.2237028897726, 12.1247949800022], [-86.223697859207, 12.1248214161101], [-86.2236923794838, 12.1248490818017], [-86.2236639028893, 12.1249972469009], [-86.2236336296642, 12.125154985114], [-86.2235532304463, 12.1255213133104], [-86.2234766939841, 12.1258556718842], [-86.2234260290021, 12.1260777869225], [-86.2233939591464, 12.1262097911459], [-86.2233049361018, 12.1265757665852], [-86.22329307834, 12.1266289019264], [-86.223229657281, 12.1269148664899], [-86.223174590554, 12.1271626260803], [-86.2231336273771, 12.1272847931669], [-86.2225971534894, 12.1271895889145], [-86.2225647243076, 12.1273390701148], [-86.2223273894096, 12.1283938675071], [-86.2222725921772, 12.1286576101163], [-86.2222048592048, 12.1290162047938], [-86.222109008964, 12.1290070708673], [-86.2219139847158, 12.1289874856199], [-86.2218502941622, 12.1289826551775], [-86.2215534907923, 12.1289557803509], [-86.2211122383247, 12.1289270611705], [-86.2209633874822, 12.1289174002835], [-86.2206825741244, 12.1288991324233], [-86.2201222948816, 12.1288625966993], [-86.2195619258074, 12.1287689738836], [-86.2194162190683, 12.128745699914], [-86.2191872385024, 12.1287125015689], [-86.2185048782126, 12.1285952534124], [-86.2184377740609, 12.1285835725071], [-86.2182463430738, 12.1285518671901], [-86.2177802971044, 12.1284746678013], [-86.2175132279705, 12.1284304911217], [-86.2174056996309, 12.1284126623603], [-86.2171198557076, 12.128365323919], [-86.2169765744197, 12.1283439820958], [-86.2163967119038, 12.1282518521479], [-86.2156927022157, 12.1281833474949], [-86.2150460050426, 12.1281114175903], [-86.2149011067873, 12.1280904270528], [-86.2142774963171, 12.1280277189101], [-86.214269321648, 12.1280269284712], [-86.2141638594336, 12.1280176188577], [-86.2132783900581, 12.127927157502], [-86.2130530027533, 12.1278975599449], [-86.2123559999243, 12.1278061324557], [-86.2119668497432, 12.1277552808415], [-86.2118731554591, 12.1277430729396], [-86.2114020789241, 12.1276835264747], [-86.2105787729662, 12.1275360654817], [-86.2102859221836, 12.1274815250937], [-86.2101857600294, 12.1274651014965], [-86.2101119185131, 12.1274528935813], [-86.2097241158049, 12.1273899218084], [-86.2096243129769, 12.1273765721419], [-86.2095423866229, 12.127365681624], [-86.2088855384872, 12.1272651199662], [-86.2087747762127, 12.1272481693948], [-86.2084015262121, 12.1271909941435], [-86.2081500877641, 12.1271525259952], [-86.2077586917948, 12.1270684757066], [-86.2075677997969, 12.1270275483882], [-86.2074182303021, 12.1269954915786], [-86.2073000120107, 12.1269701096089], [-86.2069206534662, 12.1268356466078], [-86.2064854197111, 12.1266815102951], [-86.2052291257862, 12.1262163781813], [-86.2048529113452, 12.1260512631119], [-86.2046647142932, 12.1259687933661], [-86.2045048141727, 12.125898619409], [-86.2043844399246, 12.1258457474041], [-86.2042292110435, 12.126074186008], [-86.2039132735581, 12.1265604846835], [-86.2033758115236, 12.1273879896198], [-86.2031507835449, 12.1277344659293], [-86.2028945840259, 12.1281288950658], [-86.2026251792722, 12.1285436115113], [-86.2018299905827, 12.1297678204833], [-86.2017869612805, 12.1298342169065], [-86.201502285167, 12.1302775619114], [-86.2013803837829, 12.130467616874], [-86.201288755624, 12.1306136710345], [-86.2001455595934, 12.1322292196849], [-86.2000069495451, 12.1324320957193], [-86.1996355860066, 12.1330167467], [-86.1992073591107, 12.1336909775816], [-86.1990963273416, 12.1338596887285], [-86.198900045452, 12.1341566236007], [-86.1987615252352, 12.1342426037933], [-86.1986190524311, 12.134276064923], [-86.1984798135621, 12.1342593782709], [-86.1983898922021, 12.1342508592955], [-86.1983226083874, 12.1342082644143], [-86.1982202902765, 12.1341547792858], [-86.1979120783025, 12.1339935334146], [-86.1978501843794, 12.1339720163928], [-86.1976281208412, 12.1338920960111], [-86.197219746713, 12.1337786265926], [-86.196286936122, 12.1336630493335], [-86.1959781851589, 12.1336326619911], [-86.195469559045, 12.1335826019108], [-86.1946472412339, 12.1335030327112], [-86.1944523068172, 12.1334826573715], [-86.1944488033876, 12.1336149214023], [-86.1944207759508, 12.1346662688109], [-86.1944130504393, 12.1349568794379]]}, "type": "Feature", "properties": {"name": "101"}}, {"geometry": {"type": "Point", "coordinates": [-86.1944131402709, 12.1349568794379]}, "type": "Feature", "properties": {"name": null, "popupContent": "This is where the Rockies play!"}}, {"geometry": {"type": "Point", "coordinates": [-86.1943968807642, 12.1349561768438]}, "type": "Feature", "properties": {"name": "Mercado Mayoreo", "popupContent": "This is where the Rockies play!"}}, {"geometry": {"type": "Point", "coordinates": [-86.1978502742109, 12.1339720163928]}, "type": "Feature", "properties": {"name": null, "popupContent": "This is where the Rockies play!"}}, {"geometry": {"type": "Point", "coordinates": [-86.1978660845599, 12.133912120021]}, "type": "Feature", "properties": {"name": "Parque Concepci\u00f3n de Mar\u00eda", "popupContent": "This is where the Rockies play!"}}, {"geometry": {"type": "Point", "coordinates": [-86.1996356758381, 12.1330167467]}, "type": "Feature", "properties": {"name": null, "popupContent": "This is where the Rockies play!"}}, {"geometry": {"type": "Point", "coordinates": [-86.1995643496046, 12.1329838123616]}, "type": "Feature", "properties": {"name": "Durman Esquivel", "popupContent": "This is where the Rockies play!"}}, {"geometry": {"type": "Point", "coordinates": [-86.2018300804142, 12.1297678204833]}, "type": "Feature", "properties": {"name": null, "popupContent": "This is where the Rockies play!"}}, {"geometry": {"type": "Point", "coordinates": [-86.2017680966596, 12.1297163544614]}, "type": "Feature", "properties": {"name": "Entrada a Laureles Norte", "popupContent": "This is where the Rockies play!"}}, {"geometry": {"type": "Point", "coordinates": [-86.2039133633896, 12.1265604846835]}, "type": "Feature", "properties": {"name": null, "popupContent": "This is where the Rockies play!"}}, {"geometry": {"type": "Point", "coordinates": [-86.2038353896229, 12.1265252660445]}, "type": "Feature", "properties": {"name": "Petrogas", "popupContent": "This is where the Rockies play!"}}, {"geometry": {"type": "Point", "coordinates": [-86.2075678896285, 12.1270275483882]}, "type": "Feature", "properties": {"name": null, "popupContent": "This is where the Rockies play!"}}, {"geometry": {"type": "Point", "coordinates": [-86.2075934017825, 12.1269305875059]}, "type": "Feature", "properties": {"name": "El Madro\u00f1o", "popupContent": "This is where the Rockies play!"}}, {"geometry": {"type": "Point", "coordinates": [-86.2096244028084, 12.1273765721419]}, "type": "Feature", "properties": {"name": null, "popupContent": "This is where the Rockies play!"}}, {"geometry": {"type": "Point", "coordinates": [-86.2096188332536, 12.1273063107285]}, "type": "Feature", "properties": {"name": "Colegio Inmaculada Concepci\u00f3n", "popupContent": "This is where the Rockies play!"}}, {"geometry": {"type": "Point", "coordinates": [-86.2141639492651, 12.1280176188577]}, "type": "Feature", "properties": {"name": null, "popupContent": "This is where the Rockies play!"}}, {"geometry": {"type": "Point", "coordinates": [-86.2141772443314, 12.1278806972404]}, "type": "Feature", "properties": {"name": "Mercado Iv\u00e1n Montenegro Sureste", "popupContent": "This is where the Rockies play!"}}, {"geometry": {"type": "Point", "coordinates": [-86.2195620156389, 12.1287689738836]}, "type": "Feature", "properties": {"name": null, "popupContent": "This is where the Rockies play!"}}, {"geometry": {"type": "Point", "coordinates": [-86.2196043262888, 12.1286691153657]}, "type": "Feature", "properties": {"name": "Frente a Telerepuestos Electr\u00f3nicos", "popupContent": "This is where the Rockies play!"}}, {"geometry": {"type": "Point", "coordinates": [-86.2219140745474, 12.1289874856199]}, "type": "Feature", "properties": {"name": null, "popupContent": "This is where the Rockies play!"}}, {"geometry": {"type": "Point", "coordinates": [-86.2219242255101, 12.1288759462914]}, "type": "Feature", "properties": {"name": "Primero de Mayo", "popupContent": "This is where the Rockies play!"}}, {"geometry": {"type": "Point", "coordinates": [-86.2236979490386, 12.1248214161101]}, "type": "Feature", "properties": {"name": null, "popupContent": "This is where the Rockies play!"}}, {"geometry": {"type": "Point", "coordinates": [-86.2236701012648, 12.1248146533851]}, "type": "Feature", "properties": {"name": "Iglesia San Jos\u00e9 Obrero", "popupContent": "This is where the Rockies play!"}}, {"geometry": {"type": "Point", "coordinates": [-86.2241128808683, 12.122964382939]}, "type": "Feature", "properties": {"name": null, "popupContent": "This is where the Rockies play!"}}, {"geometry": {"type": "Point", "coordinates": [-86.2240942857419, 12.1229586741054]}, "type": "Feature", "properties": {"name": "Colegio Primero de Mayo", "popupContent": "This is where the Rockies play!"}}, {"geometry": {"type": "Point", "coordinates": [-86.2253513881505, 12.1209705873319]}, "type": "Feature", "properties": {"name": null, "popupContent": "This is where the Rockies play!"}}, {"geometry": {"type": "Point", "coordinates": [-86.2253588441674, 12.120928078158]}, "type": "Feature", "properties": {"name": "Barber\u00eda", "popupContent": "This is where the Rockies play!"}}, {"geometry": {"type": "Point", "coordinates": [-86.2281838660729, 12.1217882728092]}, "type": "Feature", "properties": {"name": null, "popupContent": "This is where the Rockies play!"}}, {"geometry": {"type": "Point", "coordinates": [-86.2281988679381, 12.1217403183918]}, "type": "Feature", "properties": {"name": "Miscel\u00e1nea La Principal", "popupContent": "This is where the Rockies play!"}}, {"geometry": {"type": "Point", "coordinates": [-86.2319317272698, 12.1199148822894]}, "type": "Feature", "properties": {"name": null, "popupContent": "This is where the Rockies play!"}}, {"geometry": {"type": "Point", "coordinates": [-86.2319780803384, 12.1198731634103]}, "type": "Feature", "properties": {"name": "Tanque", "popupContent": "This is where the Rockies play!"}}, {"geometry": {"type": "Point", "coordinates": [-86.2316161491104, 12.1229050988918]}, "type": "Feature", "properties": {"name": null, "popupContent": "This is where the Rockies play!"}}, {"geometry": {"type": "Point", "coordinates": [-86.2316788515173, 12.1229095781314]}, "type": "Feature", "properties": {"name": "Mifamilia", "popupContent": "This is where the Rockies play!"}}, {"geometry": {"type": "Point", "coordinates": [-86.233323576971, 12.1253278295523]}, "type": "Feature", "properties": {"name": null, "popupContent": "This is where the Rockies play!"}}, {"geometry": {"type": "Point", "coordinates": [-86.2333309431563, 12.125284969763]}, "type": "Feature", "properties": {"name": "Colegio 14 de Septiembre", "popupContent": "This is where the Rockies play!"}}, {"geometry": {"type": "Point", "coordinates": [-86.2340423190298, 12.1290809327065]}, "type": "Feature", "properties": {"name": null, "popupContent": "This is where the Rockies play!"}}, {"geometry": {"type": "Point", "coordinates": [-86.2340625311237, 12.1290827770565]}, "type": "Feature", "properties": {"name": "Colonia Nicarao", "popupContent": "This is where the Rockies play!"}}, {"geometry": {"type": "Point", "coordinates": [-86.2382792230673, 12.1340928629906]}, "type": "Feature", "properties": {"name": null, "popupContent": "This is where the Rockies play!"}}, {"geometry": {"type": "Point", "coordinates": [-86.2383081488195, 12.1340124156976]}, "type": "Feature", "properties": {"name": "Hospital Japon\u00e9s", "popupContent": "This is where the Rockies play!"}}, {"geometry": {"type": "Point", "coordinates": [-86.2382650296858, 12.1360797980298]}, "type": "Feature", "properties": {"name": null, "popupContent": "This is where the Rockies play!"}}, {"geometry": {"type": "Point", "coordinates": [-86.238354142562, 12.1360895464811]}, "type": "Feature", "properties": {"name": "Comedor Jenny", "popupContent": "This is where the Rockies play!"}}, {"geometry": {"type": "Point", "coordinates": [-86.2379195376276, 12.1396681700834]}, "type": "Feature", "properties": {"name": null, "popupContent": "This is where the Rockies play!"}}, {"geometry": {"type": "Point", "coordinates": [-86.2379860129586, 12.1396746689635]}, "type": "Feature", "properties": {"name": "Cementerio Oriental", "popupContent": "This is where the Rockies play!"}}, {"geometry": {"type": "Point", "coordinates": [-86.2377449949679, 12.1423116203722]}, "type": "Feature", "properties": {"name": null, "popupContent": "This is where the Rockies play!"}}, {"geometry": {"type": "Point", "coordinates": [-86.2377982650642, 12.1423089857172]}, "type": "Feature", "properties": {"name": "\u00d3ptica Cristal", "popupContent": "This is where the Rockies play!"}}, {"geometry": {"type": "Point", "coordinates": [-86.2374843038724, 12.1459834258884]}, "type": "Feature", "properties": {"name": null, "popupContent": "This is where the Rockies play!"}}, {"geometry": {"type": "Point", "coordinates": [-86.2375372146427, 12.1459814938347]}, "type": "Feature", "properties": {"name": "Parque Maestro Gabriel", "popupContent": "This is where the Rockies play!"}}, {"geometry": {"type": "Point", "coordinates": [-86.2372872134991, 12.1482119526589]}, "type": "Feature", "properties": {"name": null, "popupContent": "This is where the Rockies play!"}}, {"geometry": {"type": "Point", "coordinates": [-86.2373476701177, 12.1482206468275]}, "type": "Feature", "properties": {"name": "Colonial Norte", "popupContent": "This is where the Rockies play!"}}, {"geometry": {"type": "Point", "coordinates": [-86.2369731624757, 12.1514105093474]}, "type": "Feature", "properties": {"name": null, "popupContent": "This is where the Rockies play!"}}, {"geometry": {"type": "Point", "coordinates": [-86.2370196053759, 12.1514163053902]}, "type": "Feature", "properties": {"name": "Distribuidora La Universal", "popupContent": "This is where the Rockies play!"}}, {"geometry": {"type": "Point", "coordinates": [-86.2412816622414, 12.1519795747645]}, "type": "Feature", "properties": {"name": null, "popupContent": "This is where the Rockies play!"}}, {"geometry": {"type": "Point", "coordinates": [-86.2412830097144, 12.15194997988]}, "type": "Feature", "properties": {"name": "Pal\u00ed", "popupContent": "This is where the Rockies play!"}}, {"geometry": {"type": "Point", "coordinates": [-86.2427280396804, 12.1521063848552]}, "type": "Feature", "properties": {"name": null, "popupContent": "This is where the Rockies play!"}}, {"geometry": {"type": "Point", "coordinates": [-86.2427232786094, 12.1520704670448]}, "type": "Feature", "properties": {"name": "L\u00e1cteos Calibri", "popupContent": "This is where the Rockies play!"}}, {"geometry": {"type": "Point", "coordinates": [-86.2460687843905, 12.1524220047216]}, "type": "Feature", "properties": {"name": null, "popupContent": "This is where the Rockies play!"}}, {"geometry": {"type": "Point", "coordinates": [-86.2460688742221, 12.1523703674402]}, "type": "Feature", "properties": {"name": "S\u00faper de los Militares", "popupContent": "This is where the Rockies play!"}}, {"geometry": {"type": "Point", "coordinates": [-86.2482852875225, 12.1526088824181]}, "type": "Feature", "properties": {"name": null, "popupContent": "This is where the Rockies play!"}}, {"geometry": {"type": "Point", "coordinates": [-86.2482878926369, 12.1525680468424]}, "type": "Feature", "properties": {"name": "Ajax Delgado", "popupContent": "This is where the Rockies play!"}}, {"geometry": {"type": "Point", "coordinates": [-86.2491061680292, 12.1519750960136]}, "type": "Feature", "properties": {"name": null, "popupContent": "This is where the Rockies play!"}}, {"geometry": {"type": "Point", "coordinates": [-86.2490226247077, 12.1519679827033]}, "type": "Feature", "properties": {"name": "Internet Cafe", "popupContent": "This is where the Rockies play!"}}, {"geometry": {"type": "Point", "coordinates": [-86.2493429639381, 12.1486090738897]}, "type": "Feature", "properties": {"name": null, "popupContent": "This is where the Rockies play!"}}, {"geometry": {"type": "Point", "coordinates": [-86.2492519645998, 12.1486222468528]}, "type": "Feature", "properties": {"name": "INETER", "popupContent": "This is where the Rockies play!"}}, {"geometry": {"type": "Point", "coordinates": [-86.2509988285013, 12.1435340096584]}, "type": "Feature", "properties": {"name": null, "popupContent": "This is where the Rockies play!"}}, {"geometry": {"type": "Point", "coordinates": [-86.2509682857816, 12.1435328679798]}, "type": "Feature", "properties": {"name": "Cerrajer\u00eda Tender\u00ed", "popupContent": "This is where the Rockies play!"}}, {"geometry": {"type": "Point", "coordinates": [-86.2532883646659, 12.142340865041]}, "type": "Feature", "properties": {"name": null, "popupContent": "This is where the Rockies play!"}}, {"geometry": {"type": "Point", "coordinates": [-86.2532898019704, 12.1423045068037]}, "type": "Feature", "properties": {"name": "Casa del Adulto Mayor", "popupContent": "This is where the Rockies play!"}}, {"geometry": {"type": "Point", "coordinates": [-86.2567041187023, 12.1426470117408]}, "type": "Feature", "properties": {"name": null, "popupContent": "This is where the Rockies play!"}}, {"geometry": {"type": "Point", "coordinates": [-86.256719030736, 12.1426300621478]}, "type": "Feature", "properties": {"name": "Autoservicios Mayorga", "popupContent": "This is where the Rockies play!"}}, {"geometry": {"type": "Point", "coordinates": [-86.2592874937964, 12.1435116151929]}, "type": "Feature", "properties": {"name": null, "popupContent": "This is where the Rockies play!"}}, {"geometry": {"type": "Point", "coordinates": [-86.2592912667205, 12.1434856200462]}, "type": "Feature", "properties": {"name": "Taller Lacayo", "popupContent": "This is where the Rockies play!"}}, {"geometry": {"type": "Point", "coordinates": [-86.2616170948226, 12.144271093898]}, "type": "Feature", "properties": {"name": null, "popupContent": "This is where the Rockies play!"}}, {"geometry": {"type": "Point", "coordinates": [-86.2615674179874, 12.144194425991]}, "type": "Feature", "properties": {"name": "Funeraria La Cat\u00f3lica y La Auxiliadora", "popupContent": "This is where the Rockies play!"}}, {"geometry": {"type": "Point", "coordinates": [-86.2671292472375, 12.1442200697836]}, "type": "Feature", "properties": {"name": null, "popupContent": "This is where the Rockies play!"}}, {"geometry": {"type": "Point", "coordinates": [-86.2671395778633, 12.1441498128116]}, "type": "Feature", "properties": {"name": "El Redentor", "popupContent": "This is where the Rockies play!"}}, {"geometry": {"type": "Point", "coordinates": [-86.2738375962847, 12.1453928315517]}, "type": "Feature", "properties": {"name": null, "popupContent": "This is where the Rockies play!"}}, {"geometry": {"type": "Point", "coordinates": [-86.2738747865375, 12.1453368896856]}, "type": "Feature", "properties": {"name": "Plaza Inter", "popupContent": "This is where the Rockies play!"}}, {"geometry": {"type": "Point", "coordinates": [-86.2761263239656, 12.1449600502156]}, "type": "Feature", "properties": {"name": null, "popupContent": "This is where the Rockies play!"}}, {"geometry": {"type": "Point", "coordinates": [-86.2761378224013, 12.1449178083308]}, "type": "Feature", "properties": {"name": "Central Line", "popupContent": "This is where the Rockies play!"}}, {"geometry": {"type": "Point", "coordinates": [-86.2791428666897, 12.1455437076719]}, "type": "Feature", "properties": {"name": null, "popupContent": "This is where the Rockies play!"}}, {"geometry": {"type": "Point", "coordinates": [-86.2791598448486, 12.1454899613572]}, "type": "Feature", "properties": {"name": "Mangueras", "popupContent": "This is where the Rockies play!"}}, {"geometry": {"type": "Point", "coordinates": [-86.2821445872116, 12.1458771629148]}, "type": "Feature", "properties": {"name": null, "popupContent": "This is where the Rockies play!"}}, {"geometry": {"type": "Point", "coordinates": [-86.2821415329396, 12.1458234166674]}, "type": "Feature", "properties": {"name": "Foto Estudio Antanares", "popupContent": "This is where the Rockies play!"}}, {"geometry": {"type": "Point", "coordinates": [-86.2819607020729, 12.149843904608]}, "type": "Feature", "properties": {"name": null, "popupContent": "This is where the Rockies play!"}}, {"geometry": {"type": "Point", "coordinates": [-86.2820456826988, 12.1498446949821]}, "type": "Feature", "properties": {"name": "Estadio Nacional", "popupContent": "This is where the Rockies play!"}}, {"geometry": {"type": "Point", "coordinates": [-86.2835012229537, 12.1521728635282]}, "type": "Feature", "properties": {"name": null, "popupContent": "This is where the Rockies play!"}}, {"geometry": {"type": "Point", "coordinates": [-86.2835041873941, 12.1521569683648]}, "type": "Feature", "properties": {"name": "MTI", "popupContent": "This is where the Rockies play!"}}, {"geometry": {"type": "Point", "coordinates": [-86.285369269587, 12.1522604186375]}, "type": "Feature", "properties": {"name": null, "popupContent": "This is where the Rockies play!"}}, {"geometry": {"type": "Point", "coordinates": [-86.2853892121863, 12.1522118549746]}, "type": "Feature", "properties": {"name": "Ministerio de Hacienda y Cr\u00e9dito P\u00fablico", "popupContent": "This is where the Rockies play!"}}, {"geometry": {"type": "Point", "coordinates": [-86.2886291659215, 12.1547905468685]}, "type": "Feature", "properties": {"name": null, "popupContent": "This is where the Rockies play!"}}, {"geometry": {"type": "Point", "coordinates": [-86.2886805495558, 12.1547922154051]}, "type": "Feature", "properties": {"name": "Partido Camino Cristiano Nicarag\u00fcense", "popupContent": "This is where the Rockies play!"}}, {"geometry": {"type": "Point", "coordinates": [-86.2910846209192, 12.1554980054434]}, "type": "Feature", "properties": {"name": null, "popupContent": "This is where the Rockies play!"}}, {"geometry": {"type": "Point", "coordinates": [-86.2910824649625, 12.1554299468862]}, "type": "Feature", "properties": {"name": "ALKE", "popupContent": "This is where the Rockies play!"}}, {"geometry": {"type": "Point", "coordinates": [-86.2961284815764, 12.1546972844384]}, "type": "Feature", "properties": {"name": null, "popupContent": "This is where the Rockies play!"}}, {"geometry": {"type": "Point", "coordinates": [-86.2961231815162, 12.1546699731179]}, "type": "Feature", "properties": {"name": "Leche Agria El Ternero", "popupContent": "This is where the Rockies play!"}}, {"geometry": {"type": "Point", "coordinates": [-86.2984245754426, 12.1541702896212]}, "type": "Feature", "properties": {"name": null, "popupContent": "This is where the Rockies play!"}}, {"geometry": {"type": "Point", "coordinates": [-86.2984102023981, 12.154120233402]}, "type": "Feature", "properties": {"name": "Sem\u00e1foro Ceibita", "popupContent": "This is where the Rockies play!"}}, {"geometry": {"type": "Point", "coordinates": [-86.3025075082405, 12.1533677204379]}, "type": "Feature", "properties": {"name": null, "popupContent": "This is where the Rockies play!"}}, {"geometry": {"type": "Point", "coordinates": [-86.3025499985534, 12.153358323892]}, "type": "Feature", "properties": {"name": "Divisi\u00f3n Comercial Moraz\u00e1n", "popupContent": "This is where the Rockies play!"}}, {"geometry": {"type": "Point", "coordinates": [-86.3039544246686, 12.1547380318695]}, "type": "Feature", "properties": {"name": null, "popupContent": "This is where the Rockies play!"}}, {"geometry": {"type": "Point", "coordinates": [-86.3039566704568, 12.1547024656853]}, "type": "Feature", "properties": {"name": "Agencia Z Gas", "popupContent": "This is where the Rockies play!"}}]}