{"type": "FeatureCollection", "features": [{"geometry": {"type": "MultiLineString", "coordinates": [[[-86.2828690784882, 12.1165029590677], [-86.2827742163942, 12.1164397212188], [-86.282748344914, 12.1163658558791], [-86.2827699044809, 12.1161569951529], [-86.2829339368517, 12.115629572785], [-86.2829878357688, 12.1153681008932], [-86.2829702287892, 12.1151398287837], [-86.2829574727122, 12.1149028612238], [-86.2829508251791, 12.1147768239073], [-86.2828908177181, 12.1144914611501], [-86.2828537172969, 12.1141468999259], [-86.2828598258408, 12.1139711498158], [-86.2828650360694, 12.1138201679947], [-86.2828869549624, 12.1134482903585], [-86.2828252407024, 12.1129104985196], [-86.2827903860693, 12.1125302756104], [-86.2827792469598, 12.1124486800021], [-86.2827240005699, 12.112045005345], [-86.2825834142279, 12.1114731318693], [-86.2823857848654, 12.1108734143668], [-86.2822625360084, 12.1103973634864], [-86.2821249141069, 12.1098425259925], [-86.2820616727109, 12.1093478527448], [-86.2820242129635, 12.1091367028764], [-86.282006785647, 12.1090258579119]], [[-86.2820242129635, 12.1091367028764], [-86.2829771458169, 12.109077679256], [-86.2832884120629, 12.1090585317097], [-86.2833803097164, 12.1090528225786], [-86.2840932127259, 12.1089988932424], [-86.2845193734967, 12.1089736852265], [-86.2846233085751, 12.1089745635546], [-86.2849670938343, 12.1089777255358], [-86.2853466320418, 12.1090002107345], [-86.2858524733783, 12.1090198852817], [-86.2863183396847, 12.1090528225786], [-86.2865836121881, 12.1090625720177], [-86.2867598616468, 12.1090677541519], [-86.2868266963039, 12.1091056979108], [-86.2869318890237, 12.1091264264434], [-86.2869871354137, 12.1091635796992], [-86.287022888362, 12.1092131173655], [-86.2870711278928, 12.1094391108934], [-86.2870252239817, 12.1097313299908], [-86.2869683606243, 12.1100580669257], [-86.2869618927542, 12.1100829235095], [-86.2868756544869, 12.1104161596073], [-86.2867424343303, 12.1109607195469], [-86.286706861045, 12.1111098585108], [-86.286686289625, 12.1119171222106], [-86.2866938354734, 12.1122234795071], [-86.2867021898056, 12.1125641786222], [-86.2866964405877, 12.1127964931858], [-86.2866861997935, 12.1132088620172], [-86.2866836845107, 12.1133088141536], [-86.2866889845709, 12.1135252306016], [-86.2865931343301, 12.1139783519715], [-86.2864406902264, 12.1145209723635], [-86.2863895760867, 12.1146580764997], [-86.2863429535235, 12.114783411225], [-86.2862201538241, 12.1150391746865], [-86.2860335737396, 12.1154237855567], [-86.2858495987694, 12.1157212679393], [-86.2856310386608, 12.1158263133072], [-86.2853946919095, 12.1158639926139], [-86.285001050152, 12.1158219217793], [-86.2848282142914, 12.1158440550793], [-86.2846825973838, 12.1159218729371], [-86.2845483890804, 12.1160775964151], [-86.2842875183218, 12.1165939512795], [-86.2841558253012, 12.1169157613241], [-86.284115850271, 12.1170136041482], [-86.2840214373347, 12.1172654131188], [-86.2839989794526, 12.1174368573883], [-86.2839636756619, 12.1178341123088], [-86.2839357380566, 12.1180606255174], [-86.2839150768051, 12.1181282544722], [-86.2838874985258, 12.1182264481709], [-86.2838292876954, 12.11836153032], [-86.2837423307759, 12.118523224792], [-86.2835703932305, 12.1189585082832], [-86.2834564868525, 12.119330905218], [-86.2834414849873, 12.1193798261918], [-86.283334854963, 12.1198165135535], [-86.2833207514131, 12.1198930128146], [-86.2832060365513, 12.1205129985543], [-86.2832060365513, 12.1207311657393], [-86.2832403521952, 12.1209073505418], [-86.2833004494877, 12.1211760189674], [-86.2835064331823, 12.1217213474111], [-86.2835496421475, 12.1218150605295], [-86.2835836882967, 12.121889275675], [-86.2837295746989, 12.1223508143703], [-86.2837638903427, 12.1225522048391], [-86.2837553563476, 12.1227368199543], [-86.2837185254209, 12.1230423743766], [-86.2836144106795, 12.1233330855025], [-86.2835298792112, 12.1236210736439], [-86.2835146976829, 12.123970014028], [-86.2835036484049, 12.1242236608166], [-86.283502300932, 12.1243153530174], [-86.2834959228935, 12.1245284230864], [-86.2834929584531, 12.1246266144293], [-86.2834138168765, 12.1248801727659], [-86.2832125044213, 12.1250358910152], [-86.2829855001491, 12.1251399666134], [-86.2828368289695, 12.1252177817598], [-86.2827827503894, 12.1253370514323], [-86.2827715214484, 12.1255068217946], [-86.2828601851669, 12.1256261791651], [-86.2828356611597, 12.1258059616526], [-86.2827616399803, 12.1260013772624], [-86.2826321927478, 12.1261688636958], [-86.2825247542398, 12.1263079818698], [-86.2821262615798, 12.1268507528399], [-86.2818864113989, 12.1271773809866], [-86.2817689117598, 12.1273134246974], [-86.2815238513503, 12.1276573541305], [-86.2813321508686, 12.1279385749563], [-86.2811658727095, 12.1282112763171], [-86.28098252656, 12.1286497057462], [-86.2809034748151, 12.1288235140082], [-86.2807871429857, 12.129115272746], [-86.2807009047185, 12.129423191164], [-86.2806584144056, 12.1296239615097], [-86.2805447775221, 12.1303067200753], [-86.2805029160299, 12.1306027806489], [-86.2804474899768, 12.130994746426], [-86.280443447558, 12.1311140135143], [-86.2804351830574, 12.1312987105272], [-86.2804776733704, 12.1315275835859], [-86.2805092042368, 12.1316868987916], [-86.2806132291468, 12.1320042115389], [-86.280740610254, 12.1322010278082], [-86.2808967374504, 12.1324352574225], [-86.2809442583289, 12.1325239607472], [-86.2810829582088, 12.1327833080215], [-86.2811444928058, 12.1330041877394], [-86.281183120363, 12.133279694312], [-86.2811622794484, 12.1337030095617], [-86.2810951752967, 12.1340871543953], [-86.2810403780643, 12.1344071868424], [-86.2810048047791, 12.1346053187027], [-86.2809685128416, 12.1346893666148], [-86.2809034748151, 12.1347872907424], [-86.2808129246344, 12.1349385241674], [-86.2807450119989, 12.1350544521702], [-86.2806373938279, 12.1351229550573], [-86.2805001312525, 12.135206914982], [-86.2802855237311, 12.1352571504055], [-86.2795123437661, 12.135403728886], [-86.2793940356432, 12.1354261240332], [-86.2792149115755, 12.1354587067734], [-86.2791783501434, 12.1354669622379], [-86.279056718254, 12.1354912016855], [-86.2782340411168, 12.1356552570193], [-86.277902922103, 12.1357350890483], [-86.2774384032696, 12.1358330127916], [-86.2768854003807, 12.1359434953215], [-86.2764922976124, 12.1360220977294], [-86.2760473620522, 12.1361117659229], [-86.2756880359385, 12.1361895778665], [-86.2753461371414, 12.1362572900473], [-86.2752096830497, 12.1362839006662], [-86.2748994049506, 12.1363350141246], [-86.2748230481514, 12.1363482755186], [-86.2746000862979, 12.1363870058112], [-86.2745248973086, 12.136400091555], [-86.2744488100041, 12.136413265122], [-86.2728260034433, 12.1366106050772], [-86.2722858464629, 12.1366649679497], [-86.2716419340673, 12.1366971992436], [-86.2713531257035, 12.1367116023274], [-86.271109951756, 12.1367237219949], [-86.270135818662, 12.1367763283712], [-86.2698519510322, 12.1367605201123], [-86.2695821869524, 12.1366986044226], [-86.2694455531976, 12.136669183487], [-86.269321855183, 12.136621583041], [-86.2691845027761, 12.1366229882203], [-86.269030980694, 12.136651530924], [-86.268770199767, 12.1367384763719], [-86.2686398542193, 12.136835784981], [-86.2685396920651, 12.136958123281], [-86.2684662997064, 12.1371120780038], [-86.2683458356268, 12.1375176468363], [-86.2681611420044, 12.1381276675684], [-86.2680164234121, 12.1385025845985], [-86.2679888451329, 12.1385754777522], [-86.2678713454937, 12.1390075668807], [-86.2678306518114, 12.1393693092522], [-86.267829573833, 12.1397319293593], [-86.2678271483818, 12.1398776271515], [-86.2678206805117, 12.1402466576101], [-86.2678147516309, 12.1405904825298], [-86.2678401739534, 12.1409866490835], [-86.2678505045791, 12.1411462221], [-86.2678715251568, 12.1412830490792], [-86.2677963361675, 12.141505326904], [-86.2676685957341, 12.1420171536038], [-86.267552802894, 12.1427581061963], [-86.2674201217265, 12.1435057311565], [-86.2672873507275, 12.1442474699977], [-86.267129157406, 12.1442200697836], [-86.266746654758, 12.144153852588], [-86.2664875806301, 12.1441090637593], [-86.2656265454303, 12.1439724138747], [-86.2654440975961, 12.1439840941054], [-86.2652515886307, 12.1439999897568], [-86.2648837285218, 12.1440255457469], [-86.264742154033, 12.144042495251], [-86.2644362776788, 12.144077799396], [-86.2640987806266, 12.1441210074477], [-86.2638890240077, 12.1441110836479], [-86.2635961732251, 12.1440639236381], [-86.2631401883869, 12.1439580111836], [-86.2629665440424, 12.1439476482712], [-86.2627003732238, 12.143930698761], [-86.2624363583618, 12.1439495803396], [-86.2619863024044, 12.1440632210681], [-86.2618713180481, 12.1441209196265], [-86.2616170049911, 12.144271093898], [-86.2613597274938, 12.1444924910174], [-86.2610304949421, 12.1447873063325], [-86.2607818412715, 12.1449878894583], [-86.2606050528236, 12.1451463184053], [-86.2604532375405, 12.1452821772998], [-86.260310854568, 12.1449473161762], [-86.2602240773116, 12.1446936012916], [-86.2601091827867, 12.1442990210338], [-86.2599436232799, 12.1436363216044], [-86.2599301485506, 12.1435552624436], [-86.2597869570943, 12.1429239134871], [-86.2597818366972, 12.1422991496717], [-86.2597756383217, 12.1421515211228], [-86.2597304530629, 12.1415722473348], [-86.2596875135924, 12.1411084585439], [-86.2596153788751, 12.1407508461847], [-86.2595663308605, 12.1404193166163], [-86.2595355186463, 12.1402116164248], [-86.2595021911492, 12.1400397476872], [-86.259370228634, 12.139496388818], [-86.2592118556494, 12.1389639188847], [-86.25915840589, 12.1387701814158], [-86.2590796236396, 12.1384843173953], [-86.2590780965036, 12.1384296914247], [-86.2590400079356, 12.1382794260362], [-86.2589567341087, 12.1379786315352], [-86.2588951995118, 12.1378786008214], [-86.2587812931337, 12.1374638989018], [-86.2587608115453, 12.1373839795673], [-86.2587095177425, 12.1371851471851], [-86.2586415152755, 12.1369200078368], [-86.2585232071526, 12.1364585821874], [-86.2584807168397, 12.1362935612862], [-86.2583532459009, 12.1357984979696], [-86.2581862490895, 12.1352123600808], [-86.2579755941554, 12.1344729673389], [-86.2578766896426, 12.134125972841], [-86.2578187483068, 12.1339140521623], [-86.2578095854909, 12.1338805909871], [-86.2578050939145, 12.1337776605215], [-86.2577303540828, 12.1332954149526], [-86.2577281981262, 12.1332099614034], [-86.2577357439745, 12.1331375059061], [-86.2577421220131, 12.1330848109865], [-86.2577582018567, 12.1330205231706], [-86.2577773359722, 12.1329437642006], [-86.2578137177412, 12.1328208092827], [-86.2578677963213, 12.1327407129057], [-86.2579083103406, 12.1326470036271], [-86.257919090124, 12.1325445996354], [-86.2578996865139, 12.13245853107], [-86.2578085973441, 12.1323420749872], [-86.2576732212308, 12.1322945615933], [-86.2574561882581, 12.1321623847324], [-86.2573188358512, 12.1319274522762], [-86.2572203804961, 12.131542426076], [-86.2571987310977, 12.1314575867427], [-86.2570118815186, 12.1310619329734], [-86.25688971064, 12.1308030231524], [-86.2567779602186, 12.130603307603], [-86.2565254437923, 12.1301244814988], [-86.2564559141893, 12.1299902835662], [-86.2563539554045, 12.1298408916783], [-86.2562821800133, 12.129698350134], [-86.2562443609398, 12.129545796345], [-86.2561938756209, 12.1293510859417], [-86.2561694414452, 12.1291829867241], [-86.2561838144897, 12.1287673051839], [-86.2562255861504, 12.1283906179295], [-86.2562346591348, 12.1283090271717], [-86.2562390608797, 12.1281412786031], [-86.2562468762227, 12.1278404726595], [-86.2561096136472, 12.1273117559887], [-86.2560738606989, 12.1272170787067], [-86.2558521564868, 12.1266908199553], [-86.255691537714, 12.126474414186], [-86.2556259606983, 12.1264075777908], [-86.2555695464984, 12.1263128123607], [-86.2555088203852, 12.1262415845685], [-86.2552455241754, 12.1260491552593], [-86.2547764239341, 12.1257591497122], [-86.2545893946919, 12.125681422551], [-86.2542011428261, 12.1254341007214], [-86.2536997032345, 12.1250949989337], [-86.2535160875905, 12.124921276069], [-86.2534044270006, 12.1247754822731], [-86.2532526117176, 12.1245087496823], [-86.2530785182156, 12.1239167025013], [-86.252940716651, 12.1233592582711], [-86.2527601552789, 12.1226411749368], [-86.2527021241115, 12.122411064653], [-86.2525822888526, 12.1219962508423], [-86.252562975074, 12.121900254245], [-86.25252982724, 12.1214860544409], [-86.2525225508862, 12.1211749650218], [-86.2525280306095, 12.1208398101203], [-86.2525300967346, 12.1204865620194], [-86.252539349382, 12.1195253594487], [-86.2525562377094, 12.1189452460243], [-86.2525477935457, 12.1185891848663], [-86.2524911996828, 12.1184172143589], [-86.2523530387921, 12.1182242524267], [-86.2520545286232, 12.1178213769734], [-86.2518141394531, 12.1175046621612], [-86.2516982567815, 12.117347622065], [-86.251522725975, 12.1171306817354], [-86.2514330741096, 12.1170282717858], [-86.2512835046148, 12.1168543680076], [-86.2512583517869, 12.1167864752393], [-86.2512174784414, 12.1167381686018], [-86.2511801983572, 12.1167018068726], [-86.2511416606315, 12.1167235887786], [-86.2510896481765, 12.1167541537083], [-86.2510612614135, 12.1167790096686], [-86.2510229033509, 12.1168124729896], [-86.2509847249513, 12.1168411056441], [-86.2504769073212, 12.1172222007138], [-86.2502957171284, 12.1173801191843], [-86.2500435600282, 12.1175693050375], [-86.2497992182709, 12.1177677128983], [-86.2495793106893, 12.1179290564107], [-86.2491762366214, 12.1182274142984], [-86.2484900135758, 12.1187353333616], [-86.2484215619511, 12.1187845179333], [-86.2483083742254, 12.1188693612983], [-86.2468796935975, 12.1199263000867], [-86.2459490389632, 12.1206116305203], [-86.2451780149548, 12.1211756676522], [-86.2441630983468, 12.1219504921758], [-86.244076949911, 12.1220162757457], [-86.2439096836051, 12.1221445053548], [-86.243090420066, 12.1228488888201], [-86.24249762181, 12.1233505632912], [-86.2422620835425, 12.1235461563562], [-86.2415558280662, 12.1241328468626], [-86.2410761277044, 12.1245379084771], [-86.2406469126617, 12.1248906242474], [-86.2400031799291, 12.1254187309269], [-86.239811748942, 12.1255791037111], [-86.2385494363048, 12.1266065060401], [-86.2382878468941, 12.1268139533543], [-86.2379829586866, 12.1270177117785], [-86.237585723668, 12.127230955342], [-86.2370029865432, 12.127428214269], [-86.2365103504414, 12.1275920989121], [-86.2363562893701, 12.1276416331574], [-86.235949622041, 12.1277578278138], [-86.2348949998975, 12.1280749695848], [-86.2346441004386, 12.1281505003858], [-86.2341246047098, 12.128313594147], [-86.2337497377417, 12.1284353215741], [-86.2329968597021, 12.1286966928317], [-86.2329775459235, 12.1287030163267], [-86.2326414861757, 12.1288126235494], [-86.2323445929743, 12.1289245142094], [-86.2323161163798, 12.1289440116352], [-86.2322022100018, 12.1290122526141], [-86.2319626293155, 12.1291605910524], [-86.2317839544055, 12.1293654015964], [-86.2316251322633, 12.1295566867738], [-86.2314626270284, 12.1297964517472], [-86.2313009302772, 12.1300768798839], [-86.2311537862337, 12.13041298926], [-86.2309273209506, 12.1309896525433], [-86.2307106473041, 12.1314819143804], [-86.2306748943557, 12.131538298283], [-86.2303185326825, 12.13237509723], [-86.2302465776283, 12.1325460926613], [-86.2299494149323, 12.1332429835387], [-86.2297633738369, 12.133680262971], [-86.2295586477837, 12.1341619808965], [-86.229422014029, 12.1344831549711], [-86.2292326491671, 12.1349286878497], [-86.2289766293111, 12.1355338841857], [-86.2288231970606, 12.1358964216895], [-86.2285527143285, 12.1365356914398], [-86.2285196563261, 12.1365989245231], [-86.2284715066268, 12.1366908759383], [-86.2279925249174, 12.1377487979605], [-86.2278111550615, 12.1380329063053], [-86.2275933136051, 12.1382026685812], [-86.2274247896578, 12.1382861884197], [-86.2273309157106, 12.1383436247602], [-86.227302259453, 12.138337916256], [-86.2272362332796, 12.1383320321053], [-86.2270753450123, 12.1383159604693], [-86.2269122109567, 12.1383029626427], [-86.2266276246746, 12.1382870666513], [-86.2250795579455, 12.138257118952], [-86.2242734996411, 12.1382701167809], [-86.2240620362232, 12.1383340520377], [-86.2238782409161, 12.1383897319054], [-86.223860544105, 12.1383949134698], [-86.2234269273173, 12.1384945048742], [-86.2229059044526, 12.1384860738572], [-86.2209936607073, 12.1383964064629], [-86.2206348735828, 12.138364526667], [-86.2204828786367, 12.1383555687072], [-86.2197548839305, 12.1382974297839], [-86.2197095190086, 12.1382926873334], [-86.2196038771312, 12.1382817972616], [-86.2192962041464, 12.1382503565679], [-86.2191980182858, 12.1382379735004], [-86.2187510166005, 12.1380609219185], [-86.2177766140118, 12.1374950762181], [-86.2174260015564, 12.1372915014504], [-86.2173040103408, 12.137219398357], [-86.2169833117843, 12.1370298751509], [-86.2168689562487, 12.136991320599], [-86.2168376948768, 12.1370852918206], [-86.2167364547443, 12.1372267755319], [-86.2161456327819, 12.1381072925823], [-86.2159052436119, 12.1384883572577], [-86.2156565001097, 12.1389633041241], [-86.2155864315175, 12.1393861712299], [-86.2154883354885, 12.1399247879025], [-86.2153959886773, 12.140413695979], [-86.2153787410239, 12.1405051191429], [-86.2153496356087, 12.1406666245401], [-86.2153275370527, 12.1407892245478], [-86.2152916942728, 12.1410375859952], [-86.2152736381356, 12.1411523696551], [-86.215265373635, 12.1412040969348], [-86.2152067136469, 12.1415765506165], [-86.2151033175578, 12.1422093957391], [-86.2149179951146, 12.1427418591839], [-86.214294833802, 12.1436526563835], [-86.2139945270026, 12.1440604986092], [-86.2139613791686, 12.1441054630885], [-86.2139493417438, 12.1441225004087], [-86.2137595277242, 12.1443765671222], [-86.2135495016108, 12.1447772069154], [-86.2135295590115, 12.1449328257168], [-86.2135625271824, 12.1458642532779], [-86.2135687255579, 12.1460875811254], [-86.2135980106361, 12.1463711536512], [-86.2136079819358, 12.1464674927156], [-86.2136674504076, 12.1466385669208], [-86.2137466818157, 12.1468611915561], [-86.2138491795896, 12.1471534574613], [-86.2139753030555, 12.1475132567243], [-86.214114631756, 12.1479109059175], [-86.2142619554626, 12.1483312120382], [-86.2143124407816, 12.1484732166932], [-86.2145632504089, 12.1491784965756], [-86.2145111481225, 12.1493956742778], [-86.2144000265218, 12.1494710233947], [-86.2141994327189, 12.1494864796212], [-86.2141324183987, 12.1495023749441], [-86.2130183277833, 12.1493920736785], [-86.2127128107552, 12.1493618637697], [-86.2123763018498, 12.1493298974672], [-86.2115410482986, 12.1492148538741], [-86.2106398584055, 12.14904711847], [-86.2097815181516, 12.1488373173366], [-86.2097152224836, 12.1488255494991], [-86.2094553398719, 12.1487952517064], [-86.2091292514238, 12.148778565964], [-86.209000433012, 12.148786996655], [-86.208820230966, 12.1488036823969], [-86.2085900825902, 12.1488507537473], [-86.2085558567779, 12.1488577793213], [-86.2081851220602, 12.1489127544312], [-86.2074126607473, 12.1488875501889], [-86.2062453000356, 12.148778565964], [-86.2058245291565, 12.1487415060482], [-86.2055270071344, 12.1487596847279], [-86.2051623809606, 12.1488094784965], [-86.2051348026814, 12.1488070195452], [-86.2048978271094, 12.1487870844747], [-86.2044634916696, 12.1487504636586], [-86.2035566423903, 12.1486743239601], [-86.2033751827029, 12.1486589555062], [-86.2030609520165, 12.1486289211538], [-86.2028391579728, 12.1486047707217], [-86.2023431981045, 12.1485547134555], [-86.2022566005111, 12.148545931478], [-86.2020707390788, 12.1485341636277], [-86.2015232159131, 12.1484806813762], [-86.2005298588719, 12.1484021704652], [-86.1999478403994, 12.1483401696624], [-86.1996976595927, 12.1483135602483], [-86.1991796909999, 12.1482620099895], [-86.1989198083882, 12.1482361909465], [-86.1972899051367, 12.1480725824624], [-86.1971305440053, 12.1480575652535], [-86.1956584747492, 12.147918985356], [-86.1955718771558, 12.1478812227606], [-86.1955000119331, 12.1478399473594], [-86.1954515927393, 12.1478027994929], [-86.1953774817283, 12.1477322800062], [-86.195300406277, 12.1475997595255], [-86.195281541656, 12.1473978610654], [-86.1952348292612, 12.1472104527882], [-86.1952345597666, 12.1471187684659], [-86.1952286308858, 12.1470161065771], [-86.1952021305849, 12.1465442477884], [-86.1951839846162, 12.1447801928301], [-86.1952098560963, 12.143748118218], [-86.1952641143395, 12.1432986481227], [-86.1952881891891, 12.1430992054048], [-86.1953727206573, 12.1426344532342], [-86.1955314529681, 12.1417679148498], [-86.1955372920174, 12.1417401630925], [-86.1955515752304, 12.1416772825178], [-86.1955941553749, 12.1414865329742], [-86.1956646731247, 12.1411300628115], [-86.19568614286, 12.1410468951538], [-86.1958245732453, 12.1405081051054], [-86.195958152728, 12.13998898623], [-86.1960423248701, 12.1396616712032], [-86.1960791557968, 12.1395567230481], [-86.1961072730652, 12.1394763652277], [-86.196239684738, 12.1390995174645], [-86.1962699579631, 12.1389987845883], [-86.1962803784204, 12.1389719107718], [-86.196364281068, 12.1387568323193], [-86.1964445904544, 12.1385524681082], [-86.1966233551959, 12.1381081708145], [-86.196655155557, 12.1380222796926], [-86.1967413938242, 12.1378387290427], [-86.1968490119953, 12.1375795623357], [-86.1969785490592, 12.1373288264303], [-86.197086796051, 12.137119016064], [-86.1971962108526, 12.1369242233701], [-86.1972307061595, 12.1368643276619], [-86.1973411989395, 12.1366495988027], [-86.1976014408772, 12.1361802685382], [-86.19781083817, 12.1358026256966], [-86.1978652760762, 12.1357197198477], [-86.1979450464734, 12.1355835926033], [-86.1983920481588, 12.1349567037893], [-86.1984557387124, 12.1348565841168], [-86.1986254304696, 12.1345841530278], [-86.1987059195191, 12.134450659936], [-86.1983898922021, 12.1342508592955], [-86.1983226083874, 12.1342082644143], [-86.1982202902765, 12.1341547792858], [-86.1979120783025, 12.1339935334146], [-86.1978501843794, 12.1339720163928], [-86.1976281208412, 12.1338920960111], [-86.197219746713, 12.1337786265926], [-86.196286936122, 12.1336630493335], [-86.1959781851589, 12.1336326619911], [-86.195469559045, 12.1335826019108], [-86.1946472412339, 12.1335030327112], [-86.1944523068172, 12.1334826573715], [-86.1944488033876, 12.1336149214023], [-86.1944207759508, 12.1346662688109], [-86.1944130504393, 12.1349568794379]]]}, "type": "Feature", "properties": {"name": "104"}}, {"geometry": {"type": "Point", "coordinates": [-86.1944131402709, 12.1349568794379]}, "type": "Feature", "properties": {"name": null, "popupContent": "This is where the Rockies play!"}}, {"geometry": {"type": "Point", "coordinates": [-86.1943968807642, 12.1349561768438]}, "type": "Feature", "properties": {"name": "Mercado Mayoreo", "popupContent": "This is where the Rockies play!"}}, {"geometry": {"type": "Point", "coordinates": [-86.1978502742109, 12.1339720163928]}, "type": "Feature", "properties": {"name": null, "popupContent": "This is where the Rockies play!"}}, {"geometry": {"type": "Point", "coordinates": [-86.1978660845599, 12.133912120021]}, "type": "Feature", "properties": {"name": "Parque Concepci\u00f3n de Mar\u00eda", "popupContent": "This is where the Rockies play!"}}, {"geometry": {"type": "Point", "coordinates": [-86.1971963006841, 12.1369242233701]}, "type": "Feature", "properties": {"name": null, "popupContent": "This is where the Rockies play!"}}, {"geometry": {"type": "Point", "coordinates": [-86.1972627760151, 12.1369632170497]}, "type": "Feature", "properties": {"name": "Taller Leonidas", "popupContent": "This is where the Rockies play!"}}, {"geometry": {"type": "Point", "coordinates": [-86.1960792456283, 12.1395567230481]}, "type": "Feature", "properties": {"name": null, "popupContent": "This is where the Rockies play!"}}, {"geometry": {"type": "Point", "coordinates": [-86.1961735687331, 12.1395808743008]}, "type": "Feature", "properties": {"name": "Farmacia Reconciliaci\u00f3n", "popupContent": "This is where the Rockies play!"}}, {"geometry": {"type": "Point", "coordinates": [-86.1955373818489, 12.1417401630925]}, "type": "Feature", "properties": {"name": null, "popupContent": "This is where the Rockies play!"}}, {"geometry": {"type": "Point", "coordinates": [-86.1955706195144, 12.1417657192995]}, "type": "Feature", "properties": {"name": "Los Rieles", "popupContent": "This is where the Rockies play!"}}, {"geometry": {"type": "Point", "coordinates": [-86.1952287207173, 12.1470161065771]}, "type": "Feature", "properties": {"name": null, "popupContent": "This is where the Rockies play!"}}, {"geometry": {"type": "Point", "coordinates": [-86.1952929502601, 12.1470176873421]}, "type": "Feature", "properties": {"name": "Polic\u00eda Estaci\u00f3n VI", "popupContent": "This is where the Rockies play!"}}, {"geometry": {"type": "Point", "coordinates": [-86.1999479302309, 12.1483401696624]}, "type": "Feature", "properties": {"name": null, "popupContent": "This is where the Rockies play!"}}, {"geometry": {"type": "Point", "coordinates": [-86.1999443369698, 12.1483019680274]}, "type": "Feature", "properties": {"name": "La Rocargo", "popupContent": "This is where the Rockies play!"}}, {"geometry": {"type": "Point", "coordinates": [-86.203061041848, 12.1486289211538]}, "type": "Feature", "properties": {"name": null, "popupContent": "This is where the Rockies play!"}}, {"geometry": {"type": "Point", "coordinates": [-86.2030648147722, 12.1485686767991]}, "type": "Feature", "properties": {"name": "Entrada Bo. Hugo Ch\u00e1vez", "popupContent": "This is where the Rockies play!"}}, {"geometry": {"type": "Point", "coordinates": [-86.2085901724218, 12.1488507537473]}, "type": "Feature", "properties": {"name": null, "popupContent": "This is where the Rockies play!"}}, {"geometry": {"type": "Point", "coordinates": [-86.2085784943231, 12.1488075464633]}, "type": "Feature", "properties": {"name": "Gasolinera UNO", "popupContent": "This is where the Rockies play!"}}, {"geometry": {"type": "Point", "coordinates": [-86.2130184176148, 12.1493920736785]}, "type": "Feature", "properties": {"name": null, "popupContent": "This is where the Rockies play!"}}, {"geometry": {"type": "Point", "coordinates": [-86.2130195854247, 12.1493611612137]}, "type": "Feature", "properties": {"name": "AGCO", "popupContent": "This is where the Rockies play!"}}, {"geometry": {"type": "Point", "coordinates": [-86.2143125306131, 12.1484732166932]}, "type": "Feature", "properties": {"name": null, "popupContent": "This is where the Rockies play!"}}, {"geometry": {"type": "Point", "coordinates": [-86.2142771369909, 12.1484858627442]}, "type": "Feature", "properties": {"name": "Pollo Estrella", "popupContent": "This is where the Rockies play!"}}, {"geometry": {"type": "Point", "coordinates": [-86.2136675402391, 12.1466385669208]}, "type": "Feature", "properties": {"name": null, "popupContent": "This is where the Rockies play!"}}, {"geometry": {"type": "Point", "coordinates": [-86.2136255889154, 12.1466486662673]}, "type": "Feature", "properties": {"name": "Taller Conrado", "popupContent": "This is where the Rockies play!"}}, {"geometry": {"type": "Point", "coordinates": [-86.2152654634665, 12.1412040969348]}, "type": "Feature", "properties": {"name": null, "popupContent": "This is where the Rockies play!"}}, {"geometry": {"type": "Point", "coordinates": [-86.2152095882559, 12.1412004084025]}, "type": "Feature", "properties": {"name": "Miguel Gutierrez", "popupContent": "This is where the Rockies play!"}}, {"geometry": {"type": "Point", "coordinates": [-86.2167365445758, 12.1372267755319]}, "type": "Feature", "properties": {"name": null, "popupContent": "This is where the Rockies play!"}}, {"geometry": {"type": "Point", "coordinates": [-86.2166786930715, 12.1372036779479]}, "type": "Feature", "properties": {"name": "Rafaela Herrera", "popupContent": "This is where the Rockies play!"}}, {"geometry": {"type": "Point", "coordinates": [-86.2196039669627, 12.1382817972616]}, "type": "Feature", "properties": {"name": null, "popupContent": "This is where the Rockies play!"}}, {"geometry": {"type": "Point", "coordinates": [-86.2196061229194, 12.1382405203724]}, "type": "Feature", "properties": {"name": "UPOLI Norte", "popupContent": "This is where the Rockies play!"}}, {"geometry": {"type": "Point", "coordinates": [-86.2240621260547, 12.1383340520377]}, "type": "Feature", "properties": {"name": null, "popupContent": "This is where the Rockies play!"}}, {"geometry": {"type": "Point", "coordinates": [-86.224056736163, 12.1383219324435]}, "type": "Feature", "properties": {"name": "RUPAP", "popupContent": "This is where the Rockies play!"}}, {"geometry": {"type": "Point", "coordinates": [-86.2270754348438, 12.1383159604693]}, "type": "Feature", "properties": {"name": null, "popupContent": "This is where the Rockies play!"}}, {"geometry": {"type": "Point", "coordinates": [-86.2270836993444, 12.1382618614032]}, "type": "Feature", "properties": {"name": "Sem\u00e1foros Villa Reconciliaci\u00f3n", "popupContent": "This is where the Rockies play!"}}, {"geometry": {"type": "Point", "coordinates": [-86.2289767191426, 12.1355338841857]}, "type": "Feature", "properties": {"name": null, "popupContent": "This is where the Rockies play!"}}, {"geometry": {"type": "Point", "coordinates": [-86.2289125794314, 12.1355296686305]}, "type": "Feature", "properties": {"name": "UCyT", "popupContent": "This is where the Rockies play!"}}, {"geometry": {"type": "Point", "coordinates": [-86.2302466674598, 12.1325460926613]}, "type": "Feature", "properties": {"name": null, "popupContent": "This is where the Rockies play!"}}, {"geometry": {"type": "Point", "coordinates": [-86.2301701309976, 12.1325174616928]}, "type": "Feature", "properties": {"name": "Hotel Estrella", "popupContent": "This is where the Rockies play!"}}, {"geometry": {"type": "Point", "coordinates": [-86.234895089729, 12.1280749695848]}, "type": "Feature", "properties": {"name": null, "popupContent": "This is where the Rockies play!"}}, {"geometry": {"type": "Point", "coordinates": [-86.2348892506797, 12.1280422102889]}, "type": "Feature", "properties": {"name": "Colonia Nicarao", "popupContent": "This is where the Rockies play!"}}, {"geometry": {"type": "Point", "coordinates": [-86.2398118387736, 12.1255791037111]}, "type": "Feature", "properties": {"name": null, "popupContent": "This is where the Rockies play!"}}, {"geometry": {"type": "Point", "coordinates": [-86.2397519211441, 12.1255050652471]}, "type": "Feature", "properties": {"name": "Ferreter\u00eda Jenny", "popupContent": "This is where the Rockies play!"}}, {"geometry": {"type": "Point", "coordinates": [-86.2430905098976, 12.1228488888201]}, "type": "Feature", "properties": {"name": null, "popupContent": "This is where the Rockies play!"}}, {"geometry": {"type": "Point", "coordinates": [-86.2430505348674, 12.1227913613126]}, "type": "Feature", "properties": {"name": "Mercado Roberto Huembes", "popupContent": "This is where the Rockies play!"}}, {"geometry": {"type": "Point", "coordinates": [-86.2459491287947, 12.1206116305203]}, "type": "Feature", "properties": {"name": null, "popupContent": "This is where the Rockies play!"}}, {"geometry": {"type": "Point", "coordinates": [-86.2459134656779, 12.1205461979201]}, "type": "Feature", "properties": {"name": "Hospital Roberto Calder\u00f3n", "popupContent": "This is where the Rockies play!"}}, {"geometry": {"type": "Point", "coordinates": [-86.2500436498597, 12.1175693050375]}, "type": "Feature", "properties": {"name": null, "popupContent": "This is where the Rockies play!"}}, {"geometry": {"type": "Point", "coordinates": [-86.2500152630967, 12.1175347000215]}, "type": "Feature", "properties": {"name": "Polic\u00eda Distrito V", "popupContent": "This is where the Rockies play!"}}, {"geometry": {"type": "Point", "coordinates": [-86.2518142292847, 12.1175046621612]}, "type": "Feature", "properties": {"name": null, "popupContent": "This is where the Rockies play!"}}, {"geometry": {"type": "Point", "coordinates": [-86.2519281356627, 12.1175125668616]}, "type": "Feature", "properties": {"name": "Tip Top", "popupContent": "This is where the Rockies play!"}}, {"geometry": {"type": "Point", "coordinates": [-86.2525226407178, 12.1211749650218]}, "type": "Feature", "properties": {"name": null, "popupContent": "This is where the Rockies play!"}}, {"geometry": {"type": "Point", "coordinates": [-86.2526236113557, 12.1211836600726]}, "type": "Feature", "properties": {"name": "Centro M\u00e9dico Trinidad", "popupContent": "This is where the Rockies play!"}}, {"geometry": {"type": "Point", "coordinates": [-86.2542012326576, 12.1254341007214]}, "type": "Feature", "properties": {"name": null, "popupContent": "This is where the Rockies play!"}}, {"geometry": {"type": "Point", "coordinates": [-86.2542826200224, 12.1253553195365]}, "type": "Feature", "properties": {"name": "La Voz", "popupContent": "This is where the Rockies play!"}}, {"geometry": {"type": "Point", "coordinates": [-86.2562391507112, 12.1281412786031]}, "type": "Feature", "properties": {"name": null, "popupContent": "This is where the Rockies play!"}}, {"geometry": {"type": "Point", "coordinates": [-86.2563323060062, 12.1281476899378]}, "type": "Feature", "properties": {"name": "Llantasa", "popupContent": "This is where the Rockies play!"}}, {"geometry": {"type": "Point", "coordinates": [-86.2573189256827, 12.1319274522762]}, "type": "Feature", "properties": {"name": null, "popupContent": "This is where the Rockies play!"}}, {"geometry": {"type": "Point", "coordinates": [-86.2573855806768, 12.1318805535854]}, "type": "Feature", "properties": {"name": "Rotonda Santo Domingo", "popupContent": "This is where the Rockies play!"}}, {"geometry": {"type": "Point", "coordinates": [-86.2579756839869, 12.1344729673389]}, "type": "Feature", "properties": {"name": null, "popupContent": "This is where the Rockies play!"}}, {"geometry": {"type": "Point", "coordinates": [-86.2580436864539, 12.1344474104323]}, "type": "Feature", "properties": {"name": "Rotonda Cristo Rey", "popupContent": "This is where the Rockies play!"}}, {"geometry": {"type": "Point", "coordinates": [-86.2586416051071, 12.1369200078368]}, "type": "Feature", "properties": {"name": null, "popupContent": "This is where the Rockies play!"}}, {"geometry": {"type": "Point", "coordinates": [-86.2587208365151, 12.1368968224026]}, "type": "Feature", "properties": {"name": "Colegio Cristo Rey", "popupContent": "This is where the Rockies play!"}}, {"geometry": {"type": "Point", "coordinates": [-86.2595664206921, 12.1404193166163]}, "type": "Feature", "properties": {"name": null, "popupContent": "This is where the Rockies play!"}}, {"geometry": {"type": "Point", "coordinates": [-86.2596441249641, 12.1404057041352]}, "type": "Feature", "properties": {"name": "Disco Bar Santo Domingo", "popupContent": "This is where the Rockies play!"}}, {"geometry": {"type": "Point", "coordinates": [-86.2616170948226, 12.144271093898]}, "type": "Feature", "properties": {"name": null, "popupContent": "This is where the Rockies play!"}}, {"geometry": {"type": "Point", "coordinates": [-86.2615674179874, 12.144194425991]}, "type": "Feature", "properties": {"name": "Funeraria La Cat\u00f3lica y La Auxiliadora", "popupContent": "This is where the Rockies play!"}}, {"geometry": {"type": "Point", "coordinates": [-86.2671292472375, 12.1442200697836]}, "type": "Feature", "properties": {"name": null, "popupContent": "This is where the Rockies play!"}}, {"geometry": {"type": "Point", "coordinates": [-86.2671395778633, 12.1441498128116]}, "type": "Feature", "properties": {"name": "El Redentor", "popupContent": "This is where the Rockies play!"}}, {"geometry": {"type": "Point", "coordinates": [-86.2678148414624, 12.1405904825298]}, "type": "Feature", "properties": {"name": null, "popupContent": "This is where the Rockies play!"}}, {"geometry": {"type": "Point", "coordinates": [-86.2677496237727, 12.140593819781]}, "type": "Feature", "properties": {"name": "Mirador Tiscapa", "popupContent": "This is where the Rockies play!"}}, {"geometry": {"type": "Point", "coordinates": [-86.2768854902123, 12.1359434953215]}, "type": "Feature", "properties": {"name": null, "popupContent": "This is where the Rockies play!"}}, {"geometry": {"type": "Point", "coordinates": [-86.2768629424986, 12.1358868488791]}, "type": "Feature", "properties": {"name": "Comercial Mabale", "popupContent": "This is where the Rockies play!"}}, {"geometry": {"type": "Point", "coordinates": [-86.2795124335976, 12.135403728886]}, "type": "Feature", "properties": {"name": null, "popupContent": "This is where the Rockies play!"}}, {"geometry": {"type": "Point", "coordinates": [-86.2795036301078, 12.1353627150233]}, "type": "Feature", "properties": {"name": "PriceSmart", "popupContent": "This is where the Rockies play!"}}, {"geometry": {"type": "Point", "coordinates": [-86.2805030058614, 12.1306027806489]}, "type": "Feature", "properties": {"name": null, "popupContent": "This is where the Rockies play!"}}, {"geometry": {"type": "Point", "coordinates": [-86.2804568324558, 12.1305982137128]}, "type": "Feature", "properties": {"name": "Naciones Unidas", "popupContent": "This is where the Rockies play!"}}, {"geometry": {"type": "Point", "coordinates": [-86.2821263514113, 12.1268507528399]}, "type": "Feature", "properties": {"name": null, "popupContent": "This is where the Rockies play!"}}, {"geometry": {"type": "Point", "coordinates": [-86.282066793108, 12.1268182568744]}, "type": "Feature", "properties": {"name": "Autoservicios Plaza Espa\u00f1a", "popupContent": "This is where the Rockies play!"}}, {"geometry": {"type": "Point", "coordinates": [-86.2835147875144, 12.123970014028]}, "type": "Feature", "properties": {"name": null, "popupContent": "This is where the Rockies play!"}}, {"geometry": {"type": "Point", "coordinates": [-86.2834519054446, 12.1239638660766]}, "type": "Feature", "properties": {"name": "Univalle", "popupContent": "This is where the Rockies play!"}}, {"geometry": {"type": "Point", "coordinates": [-86.283456576684, 12.119330905218]}, "type": "Feature", "properties": {"name": null, "popupContent": "This is where the Rockies play!"}}, {"geometry": {"type": "Point", "coordinates": [-86.2834127388982, 12.1193146567777]}, "type": "Feature", "properties": {"name": "Farmacia El Valle", "popupContent": "This is where the Rockies play!"}}, {"geometry": {"type": "Point", "coordinates": [-86.2841559151327, 12.1169157613241]}, "type": "Feature", "properties": {"name": null, "popupContent": "This is where the Rockies play!"}}, {"geometry": {"type": "Point", "coordinates": [-86.2841242046032, 12.1169049582093]}, "type": "Feature", "properties": {"name": "Hospedaje San Francisco", "popupContent": "This is where the Rockies play!"}}, {"geometry": {"type": "Point", "coordinates": [-86.286686289625, 12.1132088620172]}, "type": "Feature", "properties": {"name": null, "popupContent": "This is where the Rockies play!"}}, {"geometry": {"type": "Point", "coordinates": [-86.2866393975672, 12.1131992883924]}, "type": "Feature", "properties": {"name": "Esquina Suroeste Centro de Convenciones C\u00e9sar A. Silva", "popupContent": "This is where the Rockies play!"}}, {"geometry": {"type": "Point", "coordinates": [-86.2868757443185, 12.1104161596073]}, "type": "Feature", "properties": {"name": null, "popupContent": "This is where the Rockies play!"}}, {"geometry": {"type": "Point", "coordinates": [-86.2868399015386, 12.1104102748406]}, "type": "Feature", "properties": {"name": "Variedades Flor", "popupContent": "This is where the Rockies play!"}}, {"geometry": {"type": "Point", "coordinates": [-86.2832885018944, 12.1090585317097]}, "type": "Feature", "properties": {"name": null, "popupContent": "This is where the Rockies play!"}}, {"geometry": {"type": "Point", "coordinates": [-86.2832943409437, 12.1091216834742]}, "type": "Feature", "properties": {"name": "Pulper\u00eda La Pista", "popupContent": "This is where the Rockies play!"}}, {"geometry": {"type": "Point", "coordinates": [-86.2827793367914, 12.1124486800021]}, "type": "Feature", "properties": {"name": null, "popupContent": "This is where the Rockies play!"}}, {"geometry": {"type": "Point", "coordinates": [-86.2828270373329, 12.1124442005869]}, "type": "Feature", "properties": {"name": "Centro Escolar Aut\u00f3nomo Benito Ju\u00e1rez", "popupContent": "This is where the Rockies play!"}}, {"geometry": {"type": "Point", "coordinates": [-86.2829575625437, 12.1149028612238]}, "type": "Feature", "properties": {"name": null, "popupContent": "This is where the Rockies play!"}}, {"geometry": {"type": "Point", "coordinates": [-86.2830118207869, 12.1148957469239]}, "type": "Feature", "properties": {"name": "Escuela Cristiana Rosa de Saron", "popupContent": "This is where the Rockies play!"}}, {"geometry": {"type": "Point", "coordinates": [-86.2828691683198, 12.1165029590677]}, "type": "Feature", "properties": {"name": null, "popupContent": "This is where the Rockies play!"}}, {"geometry": {"type": "Point", "coordinates": [-86.2828868651308, 12.1164740628858]}, "type": "Feature", "properties": {"name": "Terminal 104", "popupContent": "This is where the Rockies play!"}}]}