{"type": "FeatureCollection", "features": [{"geometry": {"type": "MultiLineString", "coordinates": [[[-86.3071613204014, 12.0946966949475], [-86.3071022112557, 12.0947052151854], [-86.306937011075, 12.0948085120682], [-86.3067578870073, 12.0950399636974], [-86.3065092333367, 12.0955487173902], [-86.3064577598709, 12.0957416957045], [-86.3065563948891, 12.096185624352], [-86.3065863986196, 12.0963208054855], [-86.3068996411591, 12.0971063303685], [-86.3069812081869, 12.0973110776693], [-86.3074705205222, 12.098368628798], [-86.3078396382724, 12.0992413688374], [-86.3077696595118, 12.1002572782206], [-86.3077279776826, 12.1008610599896], [-86.3078739539163, 12.1015744588028], [-86.3080656543979, 12.1021798186265], [-86.3083048757581, 12.1029350232861], [-86.3083216742539, 12.102987987664], [-86.3083630865885, 12.1031185979506], [-86.3085175968174, 12.1036390182638], [-86.3086253048199, 12.1038776646743], [-86.3087600521125, 12.1041532891555], [-86.3088345224496, 12.104370767035], [-86.3089417812945, 12.1045857853782], [-86.3090168804523, 12.1047693589085], [-86.3090658386352, 12.10491384612], [-86.3090550588518, 12.1050345302112], [-86.3090818286473, 12.1051761187552], [-86.309140937793, 12.1053545096738], [-86.3092320269628, 12.1055589871533], [-86.3092530475405, 12.1056347878286], [-86.3094246257597, 12.1059599487667], [-86.3094700805131, 12.1060337291513], [-86.3095962938105, 12.1062380304435], [-86.3096439045206, 12.1063178712757], [-86.3097623923066, 12.1065165509989], [-86.3098919293705, 12.1067338512873], [-86.3099701726318, 12.1068214213212], [-86.3100769823191, 12.1069407870484], [-86.3103259054843, 12.107218867704], [-86.3106584618025, 12.1076857017608], [-86.3109326276272, 12.1079874965889], [-86.3111114822002, 12.1082064645088], [-86.3111572962797, 12.1082625898312], [-86.3112057154736, 12.1083290794389], [-86.3112276343665, 12.1083703609571], [-86.3112866536807, 12.1085224876884], [-86.3113056979647, 12.1091582219014], [-86.3113295033197, 12.1099491546585], [-86.3113146811175, 12.1107125935831], [-86.3113081234159, 12.11105592959], [-86.3113032725134, 12.1114837595399], [-86.3113030030188, 12.1122823267687], [-86.3113141421283, 12.112533788876], [-86.3113401034401, 12.1131226115497], [-86.3115765400228, 12.1131128622588], [-86.3121379870754, 12.1130897625863], [-86.3129228451391, 12.1130700005074], [-86.313739683227, 12.1130478669774], [-86.3139523144548, 12.1130252064566], [-86.3139952539253, 12.1130205513882], [-86.3140045964043, 12.1130195852419], [-86.3141415894851, 12.1130055322045], [-86.3142766062723, 12.1130364488858], [-86.3144475556709, 12.1131104908097], [-86.3146715955027, 12.1131644193155], [-86.3150363115081, 12.1132011328523], [-86.315619407959, 12.1132265161319], [-86.3157926031458, 12.1132340696334], [-86.315748945023, 12.1137707190144], [-86.3157278346138, 12.1140294697052], [-86.3157187616294, 12.1141600745921], [-86.3156752831697, 12.1147834990559], [-86.3155856313043, 12.115376883964], [-86.3155217610876, 12.1157340912055], [-86.3155160118698, 12.1157658858765], [-86.3154036326278, 12.1162563313723], [-86.3153836900285, 12.1163431078097], [-86.3153243113882, 12.1166026464796], [-86.3152923313641, 12.1167422966239], [-86.3152828990536, 12.1167834011808], [-86.3151954929764, 12.1171390255975], [-86.31521157282, 12.1172526777563], [-86.3149384849737, 12.1180961965932], [-86.3148601518809, 12.1183119065215], [-86.3148487432768, 12.1183345665935], [-86.3143232288356, 12.1198202023817], [-86.31429762685, 12.1198923980101], [-86.3142835233, 12.1199321846436], [-86.3142662756465, 12.1199809298488], [-86.3142141733601, 12.120144204264], [-86.3140562495331, 12.1206253318413], [-86.3135840950198, 12.1219648960563], [-86.3132171332262, 12.1230648583904], [-86.3131155337676, 12.123130378201], [-86.3130404346098, 12.1231828116036], [-86.312838493334, 12.1232322588398], [-86.312761148388, 12.1232026607616], [-86.3122695902645, 12.1230183094535], [-86.3122011386399, 12.1229925757924], [-86.3120429453184, 12.122931096046], [-86.3118385785912, 12.1228656640147], [-86.31158812829, 12.1228209594363], [-86.3108767524165, 12.1227127550036], [-86.3106029459179, 12.1226997564162], [-86.3103319241967, 12.1227007225275], [-86.3102215212483, 12.1227010738407], [-86.3095659307539, 12.1227524533883], [-86.309287812342, 12.1227998806542], [-86.3088827619804, 12.122891046375], [-86.3085291850845, 12.1230077700704], [-86.3083048757581, 12.1230804918051], [-86.3067595938063, 12.123564161099], [-86.3058517563802, 12.1238403800499], [-86.3057454856821, 12.1238690119502], [-86.3051357990987, 12.1240335135757], [-86.3043849871843, 12.124236132363], [-86.304308091396, 12.1242571232039], [-86.3037285882062, 12.1244176723422], [-86.3025125388061, 12.1246974035146], [-86.3009527041467, 12.1250115627893], [-86.3009363548085, 12.1251234550444], [-86.3009806417521, 12.1254225953324], [-86.3010085793574, 12.1256115998276], [-86.3011298519208, 12.1263377552575], [-86.3012681924745, 12.1269672991484], [-86.3013444594421, 12.1275428281377], [-86.3013997956636, 12.1279578089745], [-86.3014333028237, 12.1282082023902], [-86.3015128935579, 12.1287791617338], [-86.3015251106458, 12.1290237578482], [-86.3015229546891, 12.1291720084539], [-86.3014921424748, 12.1294598146373], [-86.3014032092617, 12.1297435805152], [-86.301288674063, 12.129954450599], [-86.3012314513794, 12.1300730155457], [-86.3012141138944, 12.1301446814435], [-86.3011868051098, 12.1301871891483], [-86.3008723947603, 12.1299967826823], [-86.3008086143752, 12.1299582271129], [-86.3007868751453, 12.1299449654009], [-86.30055205553, 12.1298040047795], [-86.3004206320039, 12.1297759004722], [-86.300343287058, 12.1297593891903], [-86.3000658872982, 12.129760355276], [-86.2993621471047, 12.1297772178617], [-86.2992054809191, 12.1297649222264], [-86.2987507537223, 12.1297290892288], [-86.2978171346475, 12.1296177258626], [-86.2976256138289, 12.1295991945724], [-86.2971300132867, 12.129552471124], [-86.2969331025764, 12.1295337641771], [-86.2970263477029, 12.1287590495119], [-86.2970413495681, 12.1286345117896], [-86.2971515728535, 12.1277177788677], [-86.2972554181003, 12.1268552320132], [-86.2972591910245, 12.1268233508368], [-86.2972678148513, 12.1264205761975], [-86.2972421230342, 12.1260764695148], [-86.2972043937922, 12.1258786826243], [-86.2971697188222, 12.1256916983465], [-86.2971655865719, 12.1256698293454], [-86.2971468117825, 12.1255865690356]], [[-86.2974822427096, 12.1396729125095], [-86.2971448354889, 12.1399285642752], [-86.2968250352477, 12.1401711302376], [-86.2963523417452, 12.1405257574128], [-86.2956162622014, 12.1411125861887], [-86.2954979540785, 12.1412019892021], [-86.2952288188194, 12.1414054731589], [-86.2949086592521, 12.1416490916408], [-86.2945402601541, 12.1419313515644], [-86.2942108479394, 12.1421837517528], [-86.2936853334982, 12.1425864147455], [-86.2932527048574, 12.1426779249852], [-86.2931050218247, 12.1427281589998], [-86.2926414911381, 12.1429798558601], [-86.2924743146637, 12.1431050894501]], [[-86.2971359421676, 12.1255050652471], [-86.2969421755608, 12.1255265829523], [-86.296435256246, 12.1255868325176], [-86.2963779437308, 12.1256801929687], [-86.2958699464377, 12.1257266536137], [-86.2958192814556, 12.1258093869162], [-86.2957547824182, 12.1259159213751], [-86.2957237905409, 12.1259825822391], [-86.2956996258598, 12.1260558301259], [-86.2956433014915, 12.1262264783019], [-86.2955509546803, 12.1265078762909], [-86.2955145729113, 12.1268666495135], [-86.2954137819364, 12.1275552117022], [-86.2953765916836, 12.1278539101293], [-86.2953362573274, 12.1281784292114], [-86.2952508275438, 12.1288456462295], [-86.2952078880733, 12.1292317302386], [-86.2951734825979, 12.1296092945648], [-86.2950019043786, 12.131136584673], [-86.2949568089513, 12.1316870744423], [-86.2949367765205, 12.1319308774612], [-86.2949300391559, 12.1319929699091], [-86.2948764097334, 12.1320296808546], [-86.2948173904193, 12.1320506710819], [-86.294618952573, 12.1320296808546], [-86.2940148355444, 12.1319504624923], [-86.2931486799475, 12.1318803779349], [-86.2930752875887, 12.1326686964059], [-86.2930685502241, 12.1327415911556], [-86.2930294735093, 12.1330996533899], [-86.2929806051578, 12.1335494041681], [-86.2929338029315, 12.1336147457529], [-86.2927974386714, 12.1336445183245], [-86.2920655812094, 12.1335732924913], [-86.291975749681, 12.1344372227988], [-86.2918786417988, 12.1353700922496], [-86.2917876424605, 12.1362438530011], [-86.2916941278394, 12.1371428162436], [-86.2916026793435, 12.1380206988741]], [[-86.29149667814, 12.1400343026871], [-86.2914647879474, 12.1407057933166], [-86.2914528403541, 12.1409443187461], [-86.2914219383083, 12.1415617086854], [-86.2913789090062, 12.1424930602171], [-86.291346749319, 12.1433711008564], [-86.2913445933624, 12.1436343017123], [-86.2913249202576, 12.1439228826653], [-86.2912791960097, 12.144036786869], [-86.291232842941, 12.1440720910147], [-86.290208404191, 12.1448514156667], [-86.289874859726, 12.1451052182219], [-86.2896913339135, 12.1452447656137], [-86.2895480526257, 12.1453537512854], [-86.2891198257297, 12.1456794785428], [-86.2889834614696, 12.1457832826161], [-86.2888571583406, 12.1458793584312], [-86.2882363326478, 12.1463515696804], [-86.2878940745245, 12.1466118695162], [-86.2877626509985, 12.1465157061449], [-86.2876632074965, 12.1464728497637], [-86.2875647521414, 12.146430432478], [-86.2873751177849, 12.1463502523729], [-86.2871553000349, 12.1463050248111], [-86.2868601136325, 12.1462662959609], [-86.2855410274693, 12.1461588036123], [-86.2854953930529, 12.1461573106627], [-86.2853702577338, 12.1461508119409], [-86.2851234006937, 12.1461244657696], [-86.2842250854096, 12.1460565804563], [-86.2838537218712, 12.1460365573593], [-86.2832763746381, 12.1459938765422], [-86.282351559053, 12.1459002597465], [-86.2821444973801, 12.1458771629148], [-86.2812456431068, 12.1457769595265], [-86.2803567601331, 12.1456928272922], [-86.2793659183748, 12.1456007911642], [-86.2791427768582, 12.1455437076719], [-86.2788079747518, 12.1454580824104], [-86.2780098216218, 12.1453153735802], [-86.2772741912357, 12.1451773191805], [-86.2765695527268, 12.1450457634582], [-86.2761262341341, 12.1449600502156], [-86.2756960309445, 12.1448768837541], [-86.2755498750478, 12.1457358594404], [-86.2754837590429, 12.1457571120498], [-86.2753830578996, 12.1458129660069], [-86.2752626836515, 12.1458609160928], [-86.2751104192108, 12.1458732109852], [-86.2750195097041, 12.145839048747], [-86.2749061423152, 12.1457737979816], [-86.2748752402694, 12.1457378793166], [-86.2748335584402, 12.1457029266746], [-86.2747223470081, 12.1456531323249], [-86.2746361087408, 12.1456456675627], [-86.2745870607263, 12.1456500585993], [-86.274440635335, 12.1457190856855], [-86.2742924133131, 12.1457033657782], [-86.2741896460446, 12.1456720137813], [-86.2741054739025, 12.1456051822016], [-86.2739726130719, 12.1454877658375], [-86.2738375064532, 12.1453928315517], [-86.2736018783542, 12.1452964920984], [-86.2732118298578, 12.1452253572017], [-86.2728665174626, 12.1452199123076], [-86.2727448855731, 12.1452609246525], [-86.2724457465835, 12.1454291015465], [-86.272300309339, 12.1455644333721], [-86.2721212751029, 12.1456371489514], [-86.2716224406256, 12.1456697304425], [-86.2713108150536, 12.1456051822016], [-86.2708365944151, 12.1453896700023], [-86.2706332158348, 12.1452335245427], [-86.2704014504915, 12.1449481943859], [-86.2701863938125, 12.1448002160216], [-86.2701287219712, 12.1447745722848], [-86.2700418548832, 12.1447361066751], [-86.2692119912238, 12.1445883038351], [-86.2684273128231, 12.1444447163273], [-86.2678954203434, 12.1443526797678], [-86.2672873507275, 12.1442474699977], [-86.267129157406, 12.1442200697836], [-86.266746654758, 12.144153852588], [-86.2664875806301, 12.1441090637593], [-86.2656265454303, 12.1439724138747], [-86.2654440975961, 12.1439840941054], [-86.2652515886307, 12.1439999897568], [-86.2648837285218, 12.1440255457469], [-86.264742154033, 12.144042495251], [-86.2644362776788, 12.144077799396], [-86.2640987806266, 12.1441210074477], [-86.2638890240077, 12.1441110836479], [-86.2635961732251, 12.1440639236381], [-86.2631401883869, 12.1439580111836], [-86.2629665440424, 12.1439476482712], [-86.2627003732238, 12.143930698761], [-86.2624363583618, 12.1439495803396], [-86.2619863024044, 12.1440632210681], [-86.2618713180481, 12.1441209196265], [-86.2616170049911, 12.144271093898], [-86.2613597274938, 12.1444924910174], [-86.2610304949421, 12.1447873063325], [-86.2607818412715, 12.1449878894583], [-86.2606050528236, 12.1451463184053], [-86.2604532375405, 12.1452821772998], [-86.260310854568, 12.1449473161762], [-86.2602240773116, 12.1446936012916], [-86.2601091827867, 12.1442990210338], [-86.2599436232799, 12.1436363216044], [-86.2596416995129, 12.1435780081911], [-86.2596116957824, 12.1435723876204], [-86.2592874039648, 12.1435116151929], [-86.2589630223157, 12.14345075493], [-86.2583280930729, 12.1433245554661], [-86.257643846321, 12.1431929110068], [-86.2575171838659, 12.143240422457], [-86.2570548209892, 12.1429008163972], [-86.2567040288707, 12.1426470117408], [-86.2563710233949, 12.1424346587317], [-86.2561964807352, 12.1422798288668], [-86.2558506293508, 12.1419735939229], [-86.2556253318776, 12.1419158948992], [-86.2546862330796, 12.1418205202299], [-86.2538608609965, 12.1417452567697], [-86.252932901308, 12.1416697298221], [-86.2521026783224, 12.1415734768439], [-86.2519258898745, 12.1415488866614], [-86.2516362730269, 12.1415086641437], [-86.2514178027498, 12.1414438514277], [-86.2512295158663, 12.1413171240798], [-86.2511351029299, 12.142172949662], [-86.251053176576, 12.1430317584281], [-86.2510208372258, 12.1433281561475], [-86.2509987386698, 12.1435340096584], [-86.2509548110524, 12.1439435206704], [-86.2509356769368, 12.1441627225316], [-86.250928400583, 12.1442467674282], [-86.2509204954085, 12.1443379258126], [-86.250884203471, 12.1447152930894], [-86.2508709982364, 12.1448525573397], [-86.2508352452881, 12.1451608088531], [-86.2508234773578, 12.1452617150402], [-86.2507831430016, 12.1456003520605], [-86.2507782920991, 12.1456407496016], [-86.250757541016, 12.1458704007241], [-86.2507180151435, 12.1465537323954], [-86.2506687874659, 12.146794887197], [-86.2506571991987, 12.1468297518753], [-86.2506007849989, 12.1469995085434], [-86.2505746440241, 12.1470488635399], [-86.250479242941, 12.1472290706736], [-86.2504053115931, 12.1473861809845], [-86.2502872729648, 12.1475324893292], [-86.2502027414965, 12.1476200459652], [-86.2500162512435, 12.1478134257152], [-86.2497674179098, 12.148055457575], [-86.2496496487761, 12.1481850797722], [-86.249453277055, 12.1484297458885], [-86.2493527555747, 12.1485863285721], [-86.2493428741065, 12.1486090738897], [-86.2492315728428, 12.1488665612885], [-86.2491568330112, 12.1491224676856], [-86.2491367107488, 12.1493311269404], [-86.2491391362001, 12.1501683969014], [-86.2491113782578, 12.1507629324989], [-86.2489348593045, 12.1507782130123], [-86.2489071013622, 12.1507805841263], [-86.2485569380645, 12.1508151848254], [-86.2479989944415, 12.1508257231085], [-86.2475806490137, 12.1508257231085], [-86.2470656448613, 12.1508151848254], [-86.246647209602, 12.1506788018407], [-86.2462154792764, 12.1505789515364], [-86.2461391224773, 12.1505757900486], [-86.2459447270498, 12.1505674472333], [-86.2454259499732, 12.1505454924551], [-86.2445933015364, 12.1505202883674], [-86.2439189362526, 12.1504999143297], [-86.2437608327625, 12.1504950842774], [-86.2438209300551, 12.1495804464333], [-86.2438895613428, 12.1486995282226], [-86.2439324109818, 12.1474995567856], [-86.2439465145318, 12.1472088720243], [-86.2439912506329, 12.1462887780152], [-86.2439968201877, 12.1462186094097], [-86.2431549191034, 12.1461753138778], [-86.2429664525568, 12.1461668831041], [-86.242344099728, 12.1461393074464], [-86.2421034410633, 12.1461249926931], [-86.2420061535181, 12.146119196535], [-86.241902937092, 12.146112961274], [-86.2416218542395, 12.1460961875429], [-86.2415596009903, 12.1461278029514], [-86.2414583608578, 12.1461236753844], [-86.2413579292091, 12.1461169132], [-86.241253185647, 12.1461128734534], [-86.2411383809536, 12.1460694022632], [-86.2408976324575, 12.1460721247016], [-86.2408126518316, 12.1460742323958], [-86.2405804373307, 12.1460985586987], [-86.240273303335, 12.1461890138846], [-86.2400136902179, 12.1462951010927], [-86.2396654133823, 12.1464342087584], [-86.2394769468357, 12.1464805779641], [-86.2392454509869, 12.1465185163992], [-86.2389239439467, 12.1465171990925], [-86.2386420526106, 12.1464854959097], [-86.2383917819724, 12.1464514215706], [-86.2381862474354, 12.14642340684], [-86.2378516249921, 12.1463821312128], [-86.2374594205391, 12.1463338299387], [-86.23605535375, 12.1461658292574], [-86.2358653600674, 12.1461796170852], [-86.2357058192729, 12.1461603843825], [-86.2352052779966, 12.1460967144664], [-86.2350796036884, 12.14607484714], [-86.2350609187304, 12.1460716855986], [-86.2348635588625, 12.1460391041568], [-86.2346922501378, 12.1460027464245], [-86.2346394291991, 12.1459901002555], [-86.2345053107272, 12.1459468925072], [-86.2342888167437, 12.1458336038654], [-86.2341573932177, 12.1456873824077], [-86.2340990925557, 12.1456029866829], [-86.2340307307626, 12.1455594275887], [-86.2339722504376, 12.1455432685681], [-86.2338905935783, 12.1455457275495], [-86.2338464862978, 12.1455591641264], [-86.2337780346732, 12.1456027232207], [-86.2337295256478, 12.145665075944], [-86.2336165175851, 12.1456663932549], [-86.2333701097027, 12.1456193213414], [-86.2331571191488, 12.1455951706363], [-86.2330587536252, 12.1455840174008], [-86.2328426189679, 12.1455595154095], [-86.2327778504359, 12.1455522262861], [-86.232098544418, 12.1454777542678], [-86.2319447528414, 12.1454589606184], [-86.2315934217337, 12.1454224271653], [-86.230407016738, 12.1453315326146], [-86.2301930380373, 12.1453090504795], [-86.2299313587951, 12.1452850753879], [-86.2298134998298, 12.1452736586769], [-86.2297472041618, 12.1452661060832], [-86.2296297045227, 12.1452526694915], [-86.2293436809362, 12.1452242155304], [-86.2289917210079, 12.1451918974475], [-86.2288451159535, 12.145169766584], [-86.2287113568077, 12.145160896674], [-86.2285746332215, 12.1451282272997], [-86.2285296276257, 12.1451174253283], [-86.2282692958564, 12.1450622737927], [-86.227874486289, 12.1449142076709], [-86.2276112799108, 12.1447642094042], [-86.2273614584303, 12.1445845275285], [-86.2272006599944, 12.1444473509612], [-86.2268505865282, 12.1441304921411], [-86.2265807326168, 12.1438861733587], [-86.2263052193192, 12.1436943715408], [-86.2261067814729, 12.1435753735486], [-86.2258791483799, 12.1434276578857], [-86.2256524136022, 12.1433105040259], [-86.2255385970557, 12.1432419154229], [-86.2254285534334, 12.1430869103843], [-86.2253044062612, 12.1429176781512], [-86.225284822988, 12.1428670928858], [-86.2252247256954, 12.1427159517838], [-86.2251389365858, 12.1425817601931], [-86.2250678798468, 12.1425202849654], [-86.2248670165493, 12.1424575802185], [-86.2245839574033, 12.1424552090303], [-86.2244192962117, 12.1425190554607], [-86.2243248832753, 12.1425959873152], [-86.2241519575832, 12.1426479777797], [-86.2240368833953, 12.1426502611445], [-86.223885696933, 12.1426278666046], [-86.2236546502419, 12.1425404839704], [-86.2233944083041, 12.1424410697224], [-86.2232274114927, 12.142370812281], [-86.2228291883273, 12.1422245010997], [-86.2221096377847, 12.1419579616164], [-86.2216960534279, 12.1418509944604], [-86.2214606948235, 12.1418291267853], [-86.2212786961469, 12.1418126162503], [-86.2211894934392, 12.1418065565324], [-86.2210097405508, 12.1417962813583], [-86.2209013138961, 12.1417975986883], [-86.2200707315843, 12.1418073469304], [-86.219469040007, 12.1418108598103], [-86.2187547895247, 12.1418098059463], [-86.2186623528819, 12.1418084886164], [-86.218616808297, 12.1418077860404], [-86.2184100161186, 12.1417745893227], [-86.218237359921, 12.141730590492], [-86.2179583431937, 12.1415993843551], [-86.2175692828442, 12.1414305902874], [-86.2173518905454, 12.1413312634473], [-86.2171384508339, 12.1412294775489], [-86.2169185432524, 12.141136210367], [-86.2160714319394, 12.1407510218294], [-86.2154896829614, 12.1405392820654], [-86.2155069306149, 12.1404410087623], [-86.2156416779075, 12.1396723855732], [-86.2157549554648, 12.1390271513916], [-86.2158907807358, 12.1387390920717], [-86.2159902242378, 12.1385283167622], [-86.2163462265848, 12.1379911902613], [-86.2165704460798, 12.1376528948588], [-86.2169833117843, 12.1370298751509], [-86.217032898788, 12.1366489840368], [-86.2170445768867, 12.1365589647292], [-86.2170863485474, 12.1358154479972], [-86.2171145556474, 12.1354119843522], [-86.2171274913875, 12.1351052145677], [-86.2171534526992, 12.1346498456563], [-86.2171606392214, 12.1345241689692], [-86.2171803123262, 12.1341786675547], [-86.2171830971035, 12.134128783226], [-86.2172057346487, 12.1337341873181], [-86.2172168737582, 12.1335371087068], [-86.2172216348292, 12.1334554316996], [-86.2172385231566, 12.1331584082213], [-86.217255591147, 12.1328591009632], [-86.2172808338065, 12.1324170776285], [-86.2172996984274, 12.1320843959624], [-86.2173058968029, 12.1319770735412], [-86.2173217969834, 12.1316971743556], [-86.2173248512554, 12.1316457087062], [-86.217336349691, 12.1314440616291], [-86.2173522498715, 12.1311651279643], [-86.2173735399438, 12.1307921327745], [-86.2173906977657, 12.1304890463529], [-86.2174090233975, 12.1301689213752], [-86.217426450714, 12.129863199467], [-86.2174418119054, 12.1295940128369], [-86.2174622934939, 12.1292341015445], [-86.2174798106419, 12.1289266220393], [-86.2174867276696, 12.128824392271], [-86.2175132279705, 12.1284304911217], [-86.2174056996309, 12.1284126623603], [-86.2171198557076, 12.128365323919], [-86.2169765744197, 12.1283439820958], [-86.2163967119038, 12.1282518521479], [-86.2156927022157, 12.1281833474949], [-86.2150460050426, 12.1281114175903], [-86.2149011067873, 12.1280904270528], [-86.2142774963171, 12.1280277189101], [-86.214269321648, 12.1280269284712], [-86.2141638594336, 12.1280176188577]], [[-86.2147368049218, 12.149324277018], [-86.2146071780263, 12.1489506925196], [-86.2138542101552, 12.1468782287], [-86.2137375189998, 12.1465232587032], [-86.2137047304919, 12.1463497254499], [-86.2136604435484, 12.1454212854948], [-86.2136380754978, 12.1449532880017], [-86.2137038321766, 12.1447246021195], [-86.2138593305523, 12.1444410278399], [-86.2139328127425, 12.1443409117322], [-86.2140230934286, 12.1442153274386], [-86.2144330845243, 12.1436450159224], [-86.2146317918651, 12.1433566981327], [-86.2149130543806, 12.1429361206935], [-86.215066127305, 12.1426672985578], [-86.2152032102173, 12.1421724227307]], [[-86.2132783900581, 12.127927157502], [-86.2131797550399, 12.1284190736884], [-86.2130535417424, 12.1290501057107], [-86.2128808855448, 12.129978602722], [-86.2128842093114, 12.1300826763909], [-86.2129001993235, 12.1305878502807], [-86.2129359522718, 12.1310930232132], [-86.2129152910202, 12.1312048250906], [-86.2128741481802, 12.1314287800064], [-86.2126911613568, 12.1317576860024], [-86.212525781513, 12.131997800297], [-86.2122744328965, 12.1323544583287], [-86.2122200848218, 12.1324502755122], [-86.2121609756761, 12.1326477062272], [-86.2120630593102, 12.1329826706378], [-86.2120569507662, 12.1330249144153], [-86.2120202096711, 12.1332763569692], [-86.2120169757361, 12.1334082698033], [-86.2120227249539, 12.1334733479485], [-86.2120631491417, 12.1336069293545], [-86.2121122869877, 12.1337694050047], [-86.2123441421626, 12.1339203755335], [-86.2125274883121, 12.133975968499]], [[-86.2110588326541, 12.1395780639733], [-86.2109649587069, 12.1395641001582], [-86.2102654405951, 12.1394584493824], [-86.2091160461891, 12.1393214458202], [-86.2090268434814, 12.1393109070818]]]}, "type": "Feature", "properties": {"name": "154"}}, {"geometry": {"type": "Point", "coordinates": [-86.3071614102329, 12.0946966949475]}, "type": "Feature", "properties": {"name": null, "popupContent": "This is where the Rockies play!"}}, {"geometry": {"type": "Point", "coordinates": [-86.3071858444087, 12.0947301610349]}, "type": "Feature", "properties": {"name": "Plazoleta Camilo Ortega", "popupContent": "This is where the Rockies play!"}}, {"geometry": {"type": "Point", "coordinates": [-86.308228878285, 12.1029039297658]}, "type": "Feature", "properties": {"name": "Pre-escolar Hossana", "popupContent": "This is where the Rockies play!"}}, {"geometry": {"type": "Point", "coordinates": [-86.3083049655896, 12.1029350232861]}, "type": "Feature", "properties": {"name": null, "popupContent": "This is where the Rockies play!"}}, {"geometry": {"type": "Point", "coordinates": [-86.3077697493433, 12.1002572782206]}, "type": "Feature", "properties": {"name": null, "popupContent": "This is where the Rockies play!"}}, {"geometry": {"type": "Point", "coordinates": [-86.3077269895358, 12.1002542918076]}, "type": "Feature", "properties": {"name": "La Cooperativa", "popupContent": "This is where the Rockies play!"}}, {"geometry": {"type": "Point", "coordinates": [-86.3094701703446, 12.1060337291513]}, "type": "Feature", "properties": {"name": null, "popupContent": "This is where the Rockies play!"}}, {"geometry": {"type": "Point", "coordinates": [-86.3094521142074, 12.106047255553]}, "type": "Feature", "properties": {"name": "Campo de b\u00e9isbol", "popupContent": "This is where the Rockies play!"}}, {"geometry": {"type": "Point", "coordinates": [-86.3113142319599, 12.112533788876]}, "type": "Feature", "properties": {"name": null, "popupContent": "This is where the Rockies play!"}}, {"geometry": {"type": "Point", "coordinates": [-86.311254404162, 12.112536248162]}, "type": "Feature", "properties": {"name": "Centro Kairos", "popupContent": "This is where the Rockies play!"}}, {"geometry": {"type": "Point", "coordinates": [-86.3156147367195, 12.1133024024623]}, "type": "Feature", "properties": {"name": "Entrada a San Patricio", "popupContent": "This is where the Rockies play!"}}, {"geometry": {"type": "Point", "coordinates": [-86.3156194977905, 12.1132265161319]}, "type": "Feature", "properties": {"name": null, "popupContent": "This is where the Rockies play!"}}, {"geometry": {"type": "Point", "coordinates": [-86.3120430351499, 12.122931096046]}, "type": "Feature", "properties": {"name": null, "popupContent": "This is where the Rockies play!"}}, {"geometry": {"type": "Point", "coordinates": [-86.3120521979658, 12.1228336945331]}, "type": "Feature", "properties": {"name": "7 Sur", "popupContent": "This is where the Rockies play!"}}, {"geometry": {"type": "Point", "coordinates": [-86.3043081812275, 12.1242571232039]}, "type": "Feature", "properties": {"name": null, "popupContent": "This is where the Rockies play!"}}, {"geometry": {"type": "Point", "coordinates": [-86.3042846453671, 12.1241764094595]}, "type": "Feature", "properties": {"name": "Centro Comercial Nejapa", "popupContent": "This is where the Rockies play!"}}, {"geometry": {"type": "Point", "coordinates": [-86.3013998854952, 12.1279578089745]}, "type": "Feature", "properties": {"name": null, "popupContent": "This is where the Rockies play!"}}, {"geometry": {"type": "Point", "coordinates": [-86.3013496696708, 12.1279692264275]}, "type": "Feature", "properties": {"name": "Mercado Israel Lewites Oeste", "popupContent": "This is where the Rockies play!"}}, {"geometry": {"type": "Point", "coordinates": [-86.3142142631916, 12.120144204264]}, "type": "Feature", "properties": {"name": null, "popupContent": "This is where the Rockies play!"}}, {"geometry": {"type": "Point", "coordinates": [-86.3141508421325, 12.1201247061949]}, "type": "Feature", "properties": {"name": "Puente", "popupContent": "This is where the Rockies play!"}}, {"geometry": {"type": "Point", "coordinates": [-86.3004865683458, 12.1297396283463]}, "type": "Feature", "properties": {"name": "Bomberos Palo Alto", "popupContent": "This is where the Rockies play!"}}, {"geometry": {"type": "Point", "coordinates": [-86.3004207218355, 12.1297759004722]}, "type": "Feature", "properties": {"name": null, "popupContent": "This is where the Rockies play!"}}, {"geometry": {"type": "Point", "coordinates": [-86.2976257036605, 12.1295991945724]}, "type": "Feature", "properties": {"name": null, "popupContent": "This is where the Rockies play!"}}, {"geometry": {"type": "Point", "coordinates": [-86.2976376512537, 12.1295495728647]}, "type": "Feature", "properties": {"name": "Colegio Madre del Divino Pastor", "popupContent": "This is where the Rockies play!"}}, {"geometry": {"type": "Point", "coordinates": [-86.2973551310969, 12.1268662103788]}, "type": "Feature", "properties": {"name": "Ferreter\u00eda El Progreso", "popupContent": "This is where the Rockies play!"}}, {"geometry": {"type": "Point", "coordinates": [-86.2972555079319, 12.1268552320132]}, "type": "Feature", "properties": {"name": null, "popupContent": "This is where the Rockies play!"}}, {"geometry": {"type": "Point", "coordinates": [-86.2969422653923, 12.1255265829523]}, "type": "Feature", "properties": {"name": null, "popupContent": "This is where the Rockies play!"}}, {"geometry": {"type": "Point", "coordinates": [-86.2969348093754, 12.1254914520042]}, "type": "Feature", "properties": {"name": "El Zumen Norte", "popupContent": "This is where the Rockies play!"}}, {"geometry": {"type": "Point", "coordinates": [-86.2953766815152, 12.1278539101293]}, "type": "Feature", "properties": {"name": null, "popupContent": "This is where the Rockies play!"}}, {"geometry": {"type": "Point", "coordinates": [-86.2953119129832, 12.1278460057354]}, "type": "Feature", "properties": {"name": "Variedades Antonia", "popupContent": "This is where the Rockies play!"}}, {"geometry": {"type": "Point", "coordinates": [-86.2949568987829, 12.1316870744423]}, "type": "Feature", "properties": {"name": null, "popupContent": "This is where the Rockies play!"}}, {"geometry": {"type": "Point", "coordinates": [-86.2949277035361, 12.1316825075248]}, "type": "Feature", "properties": {"name": "Farmacia Asunci\u00f3n", "popupContent": "This is where the Rockies play!"}}, {"geometry": {"type": "Point", "coordinates": [-86.2930295633408, 12.1330996533899]}, "type": "Feature", "properties": {"name": null, "popupContent": "This is where the Rockies play!"}}, {"geometry": {"type": "Point", "coordinates": [-86.2930162682746, 12.1330977212428]}, "type": "Feature", "properties": {"name": "Libro Caf\u00e9 Rosita", "popupContent": "This is where the Rockies play!"}}, {"geometry": {"type": "Point", "coordinates": [-86.2914529301856, 12.1409443187461]}, "type": "Feature", "properties": {"name": null, "popupContent": "This is where the Rockies play!"}}, {"geometry": {"type": "Point", "coordinates": [-86.2914190636994, 12.1409392250536]}, "type": "Feature", "properties": {"name": "Colegio Mazzarello", "popupContent": "This is where the Rockies play!"}}, {"geometry": {"type": "Point", "coordinates": [-86.2912173919181, 12.1440243162492]}, "type": "Feature", "properties": {"name": "Centro de Documentaci\u00f3n Hist\u00f3rico", "popupContent": "This is where the Rockies play!"}}, {"geometry": {"type": "Point", "coordinates": [-86.2912329327725, 12.1440720910147]}, "type": "Feature", "properties": {"name": null, "popupContent": "This is where the Rockies play!"}}, {"geometry": {"type": "Point", "coordinates": [-86.2895481424572, 12.1453537512854]}, "type": "Feature", "properties": {"name": null, "popupContent": "This is where the Rockies play!"}}, {"geometry": {"type": "Point", "coordinates": [-86.2895061911334, 12.1453373287898]}, "type": "Feature", "properties": {"name": "Budget", "popupContent": "This is where the Rockies play!"}}, {"geometry": {"type": "Point", "coordinates": [-86.2875648419729, 12.146430432478]}, "type": "Feature", "properties": {"name": null, "popupContent": "This is where the Rockies play!"}}, {"geometry": {"type": "Point", "coordinates": [-86.2875703216962, 12.1463952164655]}, "type": "Feature", "properties": {"name": "Restaurante Vegetariano", "popupContent": "This is where the Rockies play!"}}, {"geometry": {"type": "Point", "coordinates": [-86.2821445872116, 12.1458771629148]}, "type": "Feature", "properties": {"name": null, "popupContent": "This is where the Rockies play!"}}, {"geometry": {"type": "Point", "coordinates": [-86.2821415329396, 12.1458234166674]}, "type": "Feature", "properties": {"name": "Foto Estudio Antanares", "popupContent": "This is where the Rockies play!"}}, {"geometry": {"type": "Point", "coordinates": [-86.2791428666897, 12.1455437076719]}, "type": "Feature", "properties": {"name": null, "popupContent": "This is where the Rockies play!"}}, {"geometry": {"type": "Point", "coordinates": [-86.2791598448486, 12.1454899613572]}, "type": "Feature", "properties": {"name": "Mangueras", "popupContent": "This is where the Rockies play!"}}, {"geometry": {"type": "Point", "coordinates": [-86.2761263239656, 12.1449600502156]}, "type": "Feature", "properties": {"name": null, "popupContent": "This is where the Rockies play!"}}, {"geometry": {"type": "Point", "coordinates": [-86.2761378224013, 12.1449178083308]}, "type": "Feature", "properties": {"name": "Central Line", "popupContent": "This is where the Rockies play!"}}, {"geometry": {"type": "Point", "coordinates": [-86.2738375962847, 12.1453928315517]}, "type": "Feature", "properties": {"name": null, "popupContent": "This is where the Rockies play!"}}, {"geometry": {"type": "Point", "coordinates": [-86.2738747865375, 12.1453368896856]}, "type": "Feature", "properties": {"name": "Plaza Inter", "popupContent": "This is where the Rockies play!"}}, {"geometry": {"type": "Point", "coordinates": [-86.2671292472375, 12.1442200697836]}, "type": "Feature", "properties": {"name": null, "popupContent": "This is where the Rockies play!"}}, {"geometry": {"type": "Point", "coordinates": [-86.2671395778633, 12.1441498128116]}, "type": "Feature", "properties": {"name": "El Redentor", "popupContent": "This is where the Rockies play!"}}, {"geometry": {"type": "Point", "coordinates": [-86.2616170948226, 12.144271093898]}, "type": "Feature", "properties": {"name": null, "popupContent": "This is where the Rockies play!"}}, {"geometry": {"type": "Point", "coordinates": [-86.2615674179874, 12.144194425991]}, "type": "Feature", "properties": {"name": "Funeraria La Cat\u00f3lica y La Auxiliadora", "popupContent": "This is where the Rockies play!"}}, {"geometry": {"type": "Point", "coordinates": [-86.2592912667205, 12.1434856200462]}, "type": "Feature", "properties": {"name": "Taller Lacayo", "popupContent": "This is where the Rockies play!"}}, {"geometry": {"type": "Point", "coordinates": [-86.2592874937964, 12.1435116151929]}, "type": "Feature", "properties": {"name": null, "popupContent": "This is where the Rockies play!"}}, {"geometry": {"type": "Point", "coordinates": [-86.251925979706, 12.1415488866614]}, "type": "Feature", "properties": {"name": null, "popupContent": "This is where the Rockies play!"}}, {"geometry": {"type": "Point", "coordinates": [-86.2519421493812, 12.1414942613193]}, "type": "Feature", "properties": {"name": "Gimnasio Alexis Aruello", "popupContent": "This is where the Rockies play!"}}, {"geometry": {"type": "Point", "coordinates": [-86.2509988285013, 12.1435340096584]}, "type": "Feature", "properties": {"name": null, "popupContent": "This is where the Rockies play!"}}, {"geometry": {"type": "Point", "coordinates": [-86.2509682857816, 12.1435328679798]}, "type": "Feature", "properties": {"name": "Cerrajer\u00eda Tender\u00ed", "popupContent": "This is where the Rockies play!"}}, {"geometry": {"type": "Point", "coordinates": [-86.2493429639381, 12.1486090738897]}, "type": "Feature", "properties": {"name": null, "popupContent": "This is where the Rockies play!"}}, {"geometry": {"type": "Point", "coordinates": [-86.2492519645998, 12.1486222468528]}, "type": "Feature", "properties": {"name": "INETER", "popupContent": "This is where the Rockies play!"}}, {"geometry": {"type": "Point", "coordinates": [-86.248934949136, 12.1507782130123]}, "type": "Feature", "properties": {"name": null, "popupContent": "This is where the Rockies play!"}}, {"geometry": {"type": "Point", "coordinates": [-86.2489255168256, 12.1507182326013]}, "type": "Feature", "properties": {"name": "Fotos El Popular", "popupContent": "This is where the Rockies play!"}}, {"geometry": {"type": "Point", "coordinates": [-86.2461513395651, 12.1505433847963]}, "type": "Feature", "properties": {"name": "CECNA", "popupContent": "This is where the Rockies play!"}}, {"geometry": {"type": "Point", "coordinates": [-86.2461392123088, 12.1505757900486]}, "type": "Feature", "properties": {"name": null, "popupContent": "This is where the Rockies play!"}}, {"geometry": {"type": "Point", "coordinates": [-86.2439190260841, 12.1504999143297]}, "type": "Feature", "properties": {"name": null, "popupContent": "This is where the Rockies play!"}}, {"geometry": {"type": "Point", "coordinates": [-86.2439127378771, 12.1504573220474]}, "type": "Feature", "properties": {"name": "Farmacia Potenza", "popupContent": "This is where the Rockies play!"}}, {"geometry": {"type": "Point", "coordinates": [-86.2439924184428, 12.1472145803384]}, "type": "Feature", "properties": {"name": "Auto Servicios Pacheco", "popupContent": "This is where the Rockies play!"}}, {"geometry": {"type": "Point", "coordinates": [-86.2439466043633, 12.1472088720243]}, "type": "Feature", "properties": {"name": null, "popupContent": "This is where the Rockies play!"}}, {"geometry": {"type": "Point", "coordinates": [-86.2429638474425, 12.1461097997331]}, "type": "Feature", "properties": {"name": "Farmacia Luis", "popupContent": "This is where the Rockies play!"}}, {"geometry": {"type": "Point", "coordinates": [-86.2429665423883, 12.1461668831041]}, "type": "Feature", "properties": {"name": null, "popupContent": "This is where the Rockies play!"}}, {"geometry": {"type": "Point", "coordinates": [-86.2383975311903, 12.1463720318562]}, "type": "Feature", "properties": {"name": "Cyber EL Colonial", "popupContent": "This is where the Rockies play!"}}, {"geometry": {"type": "Point", "coordinates": [-86.238391871804, 12.1464514215706]}, "type": "Feature", "properties": {"name": null, "popupContent": "This is where the Rockies play!"}}, {"geometry": {"type": "Point", "coordinates": [-86.2346972807034, 12.1459053533441]}, "type": "Feature", "properties": {"name": "Rotonda Bello Horizonte", "popupContent": "This is where the Rockies play!"}}, {"geometry": {"type": "Point", "coordinates": [-86.2346395190307, 12.1459901002555]}, "type": "Feature", "properties": {"name": null, "popupContent": "This is where the Rockies play!"}}, {"geometry": {"type": "Point", "coordinates": [-86.2319828414094, 12.1453881770484]}, "type": "Feature", "properties": {"name": "\u00d3pticas Matamoros", "popupContent": "This is where the Rockies play!"}}, {"geometry": {"type": "Point", "coordinates": [-86.2319448426729, 12.1454589606184]}, "type": "Feature", "properties": {"name": null, "popupContent": "This is where the Rockies play!"}}, {"geometry": {"type": "Point", "coordinates": [-86.2285966419459, 12.1450528769535]}, "type": "Feature", "properties": {"name": "La Taquiza", "popupContent": "This is where the Rockies play!"}}, {"geometry": {"type": "Point", "coordinates": [-86.228574723053, 12.1451282272997]}, "type": "Feature", "properties": {"name": null, "popupContent": "This is where the Rockies play!"}}, {"geometry": {"type": "Point", "coordinates": [-86.2268506763597, 12.1441304921411]}, "type": "Feature", "properties": {"name": null, "popupContent": "This is where the Rockies play!"}}, {"geometry": {"type": "Point", "coordinates": [-86.2268936158303, 12.1440751647585]}, "type": "Feature", "properties": {"name": "Rancho Cubano", "popupContent": "This is where the Rockies play!"}}, {"geometry": {"type": "Point", "coordinates": [-86.2209014037276, 12.1417975986883]}, "type": "Feature", "properties": {"name": null, "popupContent": "This is where the Rockies play!"}}, {"geometry": {"type": "Point", "coordinates": [-86.2208918815856, 12.1417387579402]}, "type": "Feature", "properties": {"name": null, "popupContent": "This is where the Rockies play!"}}, {"geometry": {"type": "Point", "coordinates": [-86.2186624427134, 12.1418084886164]}, "type": "Feature", "properties": {"name": null, "popupContent": "This is where the Rockies play!"}}, {"geometry": {"type": "Point", "coordinates": [-86.2186668444583, 12.1417471010321]}, "type": "Feature", "properties": {"name": "Farmacia Berm\u00fadez", "popupContent": "This is where the Rockies play!"}}, {"geometry": {"type": "Point", "coordinates": [-86.2166557860318, 12.1376817887457]}, "type": "Feature", "properties": {"name": "Rafaela Herrera", "popupContent": "This is where the Rockies play!"}}, {"geometry": {"type": "Point", "coordinates": [-86.2165705359113, 12.1376528948588]}, "type": "Feature", "properties": {"name": null, "popupContent": "This is where the Rockies play!"}}, {"geometry": {"type": "Point", "coordinates": [-86.2171927090771, 12.1354129504174]}, "type": "Feature", "properties": {"name": "Colegio Miguel Larreynaga", "popupContent": "This is where the Rockies play!"}}, {"geometry": {"type": "Point", "coordinates": [-86.2171146454789, 12.1354119843522]}, "type": "Feature", "properties": {"name": null, "popupContent": "This is where the Rockies play!"}}, {"geometry": {"type": "Point", "coordinates": [-86.2174056097994, 12.1316522077819]}, "type": "Feature", "properties": {"name": "Frente a Fritanga El Contil", "popupContent": "This is where the Rockies play!"}}, {"geometry": {"type": "Point", "coordinates": [-86.2173249410869, 12.1316457087062]}, "type": "Feature", "properties": {"name": null, "popupContent": "This is where the Rockies play!"}}, {"geometry": {"type": "Point", "coordinates": [-86.2141772443314, 12.1278806972404]}, "type": "Feature", "properties": {"name": "Mercado Iv\u00e1n Montenegro Sureste", "popupContent": "This is where the Rockies play!"}}, {"geometry": {"type": "Point", "coordinates": [-86.2141639492651, 12.1280176188577]}, "type": "Feature", "properties": {"name": null, "popupContent": "This is where the Rockies play!"}}]}