{"type": "FeatureCollection", "features": [{"geometry": {"type": "MultiLineString", "coordinates": [[[-86.3071613204014, 12.0946966949475], [-86.3071022112557, 12.0947052151854], [-86.306937011075, 12.0948085120682], [-86.3067578870073, 12.0950399636974], [-86.3065092333367, 12.0955487173902], [-86.3064577598709, 12.0957416957045], [-86.3060971761158, 12.0959012079429], [-86.3060453433239, 12.0959047214272], [-86.3055994196169, 12.0959347617166], [-86.3050930392912, 12.0960355108495], [-86.3048563332139, 12.0960507066614], [-86.3045006901929, 12.0960355108495], [-86.3044049297836, 12.0959929098694], [-86.304330189952, 12.0959597074514], [-86.303745386702, 12.095699797375], [-86.3036019257511, 12.0957112162076], [-86.3033248853175, 12.0957332633368], [-86.3027927233432, 12.0958592218012], [-86.302801526833, 12.0959447751456], [-86.3028464425972, 12.0963807102934], [-86.3028628817669, 12.0965405734981], [-86.3028706971098, 12.0966164645684], [-86.3029042941015, 12.0969418999903], [-86.3028528206357, 12.0975209193348], [-86.3028272186501, 12.0976460864281], [-86.3025731750877, 12.0988879164917], [-86.3022332525842, 12.0987915602418], [-86.3020017567355, 12.0987261222948], [-86.3013230795384, 12.0985340244974], [-86.299377328633, 12.0979832028413], [-86.2993473249025, 12.0980812282741], [-86.299315794036, 12.0985291935039], [-86.2992908208711, 12.0991490531729], [-86.2984826964415, 12.0992657872476], [-86.2983542373559, 12.0992843206438], [-86.2983655561285, 12.0995439637272], [-86.2984301449974, 12.0998713279726], [-86.2984598792333, 12.1000224055143], [-86.2985301274885, 12.1004591245326], [-86.2985688448773, 12.1006755513922], [-86.2985514175608, 12.1007974670948], [-86.2985091967424, 12.1010917158595], [-86.2984846727351, 12.1011633895394], [-86.2983700477049, 12.1015000623398], [-86.2983175860923, 12.1016536861821], [-86.2983175860923, 12.1017538183131], [-86.2983551356712, 12.1020355934418], [-86.2983655561285, 12.1020784569641], [-86.2984095735774, 12.1022536000551], [-86.2984962610023, 12.1025973861097], [-86.2985135984873, 12.1027582996143], [-86.2984946440348, 12.1029295775286], [-86.298485660882, 12.1030101220277], [-86.2984280788722, 12.1032350667872], [-86.298272311002, 12.1038443754013], [-86.2980908513146, 12.1045541650445], [-86.2978570198461, 12.1054216148432], [-86.2977989886788, 12.1056368080085], [-86.2977228115427, 12.1060983748049], [-86.2976587616629, 12.1064944169256], [-86.2975656961995, 12.1073450842548], [-86.297535692469, 12.107737523365], [-86.2974974242379, 12.1082568806832], [-86.2974257386782, 12.108870481652], [-86.2973942078117, 12.1091397770229], [-86.2973666295325, 12.1093738512196], [-86.2973615989669, 12.1094159230703], [-86.2972995253808, 12.110005894442], [-86.2972069989065, 12.1108856230406], [-86.2971167182205, 12.1117435664301], [-86.2970275155128, 12.112591757753], [-86.2969896066078, 12.1129515158351], [-86.2969356178592, 12.11346480265], [-86.2968421032381, 12.1143535664489], [-86.2967493971008, 12.1152348616749], [-86.2966558824797, 12.1161236195802], [-86.2966279448744, 12.11638939442], [-86.2965639848262, 12.1169966529254], [-86.2964781957165, 12.1178610760859], [-86.296375248785, 12.1187506157116], [-86.2963183854275, 12.1193280068477], [-86.2962892800123, 12.1196232891454], [-86.2961949569074, 12.1205044791397], [-86.2960832963176, 12.1213940099527], [-86.2959888833813, 12.1223757576377], [-86.2959030942716, 12.1229800163596], [-86.2957828996866, 12.1239115206555], [-86.2957650232125, 12.1241541890228], [-86.2957314262208, 12.1246079949646], [-86.2956967512509, 12.1250150758907], [-86.2956936071474, 12.1250518756245], [-86.2956799527551, 12.1252121608019], [-86.2956560575685, 12.1254219805406], [-86.2956187774842, 12.1257495765377]], [[-86.2956187774842, 12.1257495765377], [-86.2956076383747, 12.1258287967425], [-86.2958192814556, 12.1258093869162], [-86.2963948320582, 12.1257582714393], [-86.2971655865719, 12.1256698293454]], [[-86.2971655865719, 12.1256698293454], [-86.2978974440339, 12.1255647000258], [-86.2983853190647, 12.1254997956048], [-86.2994448819423, 12.1253588326333], [-86.2997238986696, 12.1253142163003], [-86.2999069753245, 12.1252855845551], [-86.3003640381411, 12.1252154104182], [-86.3005853830271, 12.1251799281192], [-86.3007703461441, 12.1252183965521], [-86.3008943136532, 12.1253182563623], [-86.3009806417521, 12.1254225953324], [-86.3010085793574, 12.1256115998276], [-86.3011298519208, 12.1263377552575], [-86.3012681924745, 12.1269672991484], [-86.3013444594421, 12.1275428281377], [-86.3013997956636, 12.1279578089745], [-86.3014333028237, 12.1282082023902], [-86.3015128935579, 12.1287791617338], [-86.3015251106458, 12.1290237578482], [-86.3015229546891, 12.1291720084539], [-86.3014921424748, 12.1294598146373], [-86.3014032092617, 12.1297435805152], [-86.301288674063, 12.129954450599], [-86.3012314513794, 12.1300730155457], [-86.3012141138944, 12.1301446814435], [-86.3011868051098, 12.1301871891483], [-86.3008723947603, 12.1299967826823], [-86.3008086143752, 12.1299582271129], [-86.3007868751453, 12.1299449654009], [-86.30055205553, 12.1298040047795], [-86.3004206320039, 12.1297759004722], [-86.300343287058, 12.1297593891903], [-86.3000658872982, 12.129760355276], [-86.2993621471047, 12.1297772178617], [-86.2992054809191, 12.1297649222264], [-86.2987507537223, 12.1297290892288], [-86.2978171346475, 12.1296177258626], [-86.2976256138289, 12.1295991945724], [-86.2971300132867, 12.129552471124], [-86.2969331025764, 12.1295337641771], [-86.2970263477029, 12.1287590495119], [-86.2970413495681, 12.1286345117896], [-86.2971515728535, 12.1277177788677], [-86.2972554181003, 12.1268552320132], [-86.2972591910245, 12.1268233508368], [-86.2972678148513, 12.1264205761975], [-86.2972421230342, 12.1260764695148], [-86.2972043937922, 12.1258786826243], [-86.2971697188222, 12.1256916983465], [-86.2971655865719, 12.1256698293454]], [[-86.2971655865719, 12.1256698293454], [-86.2971468117825, 12.1255865690356], [-86.2971359421676, 12.1255050652471], [-86.2969421755608, 12.1255265829523], [-86.296435256246, 12.1255868325176], [-86.2963779437308, 12.1256801929687], [-86.2958699464377, 12.1257266536137], [-86.2956187774842, 12.1257495765377]], [[-86.2956187774842, 12.1257495765377], [-86.2951989049204, 12.1257812821879], [-86.2944658796486, 12.125830289806], [-86.2938279859653, 12.1258711294808], [-86.2931969194782, 12.1258972141731], [-86.2926052890321, 12.1259127595946], [-86.2919206829541, 12.125932432895], [-86.2918311209202, 12.1260324680923], [-86.2917658133991, 12.1264864464919], [-86.2917027516662, 12.1269254057186], [-86.2916624173099, 12.1273309022253], [-86.2915941453483, 12.1278056933226], [-86.2915112308476, 12.1281822057505], [-86.2914399944456, 12.1283833283364], [-86.2913308491385, 12.1286207230538], [-86.2912147868038, 12.1288380053437], [-86.291071505516, 12.1290591518095], [-86.2907790140595, 12.1294215224685], [-86.2906249529883, 12.1296655032115], [-86.2904835581625, 12.1299496201741], [-86.2904698139387, 12.1299881757447], [-86.290398128379, 12.1301896482715], [-86.2903383005811, 12.1304585708229], [-86.2903124291009, 12.1306930654454], [-86.2903037154427, 12.1309448615014], [-86.2903037154427, 12.1310203914892], [-86.2902572725425, 12.1320944958607], [-86.2901902582223, 12.1323568296068], [-86.2900886587636, 12.1326130153426], [-86.2899804117719, 12.1328483863192], [-86.289797335117, 12.1332190073611], [-86.2896498317474, 12.1334500743896], [-86.2896377943225, 12.1334689567111], [-86.2893346129141, 12.1338829622516], [-86.2890878457056, 12.1341845517971], [-86.2887041752478, 12.1345963606164], [-86.2885012458251, 12.1349223645024], [-86.2883982988935, 12.1351740687385], [-86.2883468254277, 12.135417517271], [-86.2883085571966, 12.135664127246], [-86.2883037961256, 12.1356944265327], [-86.2883123301208, 12.1359746728157], [-86.2883198759692, 12.13612915505], [-86.2883169115288, 12.1363148146491], [-86.2883037961256, 12.1366005931737], [-86.2882835840317, 12.1367458535601], [-86.2882451361376, 12.1369410855025], [-86.2881597063541, 12.1370400626854], [-86.2880878411313, 12.1370893317041], [-86.2879863315042, 12.1371047886493], [-86.2878498774126, 12.1370681662266], [-86.287710728375, 12.1369862268309], [-86.2876546735013, 12.1369550494551], [-86.2874346760882, 12.1368302520917], [-86.2873839212747, 12.1367988112267], [-86.2869145515387, 12.1365278751271], [-86.286418861165, 12.136241833053], [-86.2862254538843, 12.1361363566073], [-86.2852413494905, 12.1356001035244], [-86.2851083988285, 12.1355276486769], [-86.2844659237373, 12.135158962978], [-86.2842805114626, 12.1350663084404], [-86.2841569032796, 12.1350079053267], [-86.2840093999099, 12.1349646079724], [-86.2838061111611, 12.1349180611132], [-86.2835348199453, 12.1348991788943], [-86.2833109597765, 12.1349004084342], [-86.2832123247583, 12.134904799648], [-86.2830321227123, 12.1348795940799], [-86.2828283848059, 12.134884600064], [-86.2826197061653, 12.1348896938723], [-86.2825504460569, 12.1348913625336], [-86.2820725423258, 12.134971721737], [-86.2818745536372, 12.1350093983387], [-86.2816159286669, 12.1350557695336], [-86.2815303192203, 12.1350547156429], [-86.2814527946113, 12.1350390829303], [-86.2813236168734, 12.1349750590586], [-86.2812649568854, 12.1349101569287], [-86.2811979425652, 12.1348582527783], [-86.2810710106155, 12.1348341889217], [-86.2809827960546, 12.1348413026898], [-86.2808815559221, 12.1348820531599], [-86.2808129246344, 12.1349385241674], [-86.2807450119989, 12.1350544521702], [-86.2806373938279, 12.1351229550573], [-86.2805001312525, 12.135206914982], [-86.2802855237311, 12.1352571504055], [-86.2795123437661, 12.135403728886], [-86.2793940356432, 12.1354261240332], [-86.2792149115755, 12.1354587067734], [-86.2791783501434, 12.1354669622379], [-86.279056718254, 12.1354912016855], [-86.2782340411168, 12.1356552570193], [-86.277902922103, 12.1357350890483], [-86.2774384032696, 12.1358330127916], [-86.2768854003807, 12.1359434953215], [-86.2764922976124, 12.1360220977294], [-86.2760473620522, 12.1361117659229], [-86.2756880359385, 12.1361895778665], [-86.2753461371414, 12.1362572900473], [-86.2752096830497, 12.1362839006662], [-86.2748994049506, 12.1363350141246], [-86.2748230481514, 12.1363482755186], [-86.2746000862979, 12.1363870058112], [-86.2745248973086, 12.136400091555], [-86.2744488100041, 12.136413265122], [-86.2728260034433, 12.1366106050772], [-86.2722858464629, 12.1366649679497], [-86.2716419340673, 12.1366971992436], [-86.2713531257035, 12.1367116023274], [-86.271109951756, 12.1367237219949], [-86.270135818662, 12.1367763283712], [-86.2698519510322, 12.1367605201123], [-86.2695821869524, 12.1366986044226], [-86.2694455531976, 12.136669183487], [-86.269321855183, 12.136621583041]], [[-86.269321855183, 12.136621583041], [-86.2691845027761, 12.1366229882203], [-86.269030980694, 12.136651530924], [-86.268770199767, 12.1367384763719], [-86.2686398542193, 12.136835784981], [-86.2685396920651, 12.136958123281], [-86.2684662997064, 12.1371120780038], [-86.2683458356268, 12.1375176468363], [-86.2681611420044, 12.1381276675684], [-86.2680164234121, 12.1385025845985], [-86.2679888451329, 12.1385754777522], [-86.2678713454937, 12.1390075668807], [-86.2678306518114, 12.1393693092522], [-86.267829573833, 12.1397319293593], [-86.2678271483818, 12.1398776271515], [-86.2678206805117, 12.1402466576101], [-86.2678147516309, 12.1405904825298], [-86.2678401739534, 12.1409866490835], [-86.2678505045791, 12.1411462221], [-86.2678715251568, 12.1412830490792], [-86.2677963361675, 12.141505326904], [-86.2676685957341, 12.1420171536038], [-86.267552802894, 12.1427581061963], [-86.2674201217265, 12.1435057311565], [-86.2672873507275, 12.1442474699977], [-86.267129157406, 12.1442200697836], [-86.266746654758, 12.144153852588], [-86.2664875806301, 12.1441090637593], [-86.2664185900162, 12.1443525041255], [-86.2661093898955, 12.1454427137709], [-86.265222573047, 12.1454506176428], [-86.2643283001816, 12.1454860972426], [-86.2633625214197, 12.1454997094641], [-86.2632210367624, 12.1455028710122], [-86.2634978077015, 12.144441115661], [-86.2635961732251, 12.1440639236381], [-86.2631401883869, 12.1439580111836], [-86.2629665440424, 12.1439476482712], [-86.2627003732238, 12.143930698761], [-86.2624363583618, 12.1439495803396], [-86.2619863024044, 12.1440632210681], [-86.2618713180481, 12.1441209196265], [-86.2616170049911, 12.144271093898], [-86.2613597274938, 12.1444924910174], [-86.2610304949421, 12.1447873063325], [-86.2607818412715, 12.1449878894583]], [[-86.269321855183, 12.136621583041], [-86.2692045352069, 12.1365810963081]]]}, "type": "Feature", "properties": {"name": "158"}}, {"geometry": {"type": "Point", "coordinates": [-86.2984718268266, 12.0992270515671]}, "type": "Feature", "properties": {"name": "Quinta Santa Mar\u00eda", "popupContent": "This is where the Rockies play!"}}, {"geometry": {"type": "Point", "coordinates": [-86.2633626112512, 12.1454997094641]}, "type": "Feature", "properties": {"name": null, "popupContent": "This is where the Rockies play!"}}, {"geometry": {"type": "Point", "coordinates": [-86.2633759063174, 12.1454406938924]}, "type": "Feature", "properties": {"name": "El Panal", "popupContent": "This is where the Rockies play!"}}, {"geometry": {"type": "Point", "coordinates": [-86.2671395778633, 12.1441498128116]}, "type": "Feature", "properties": {"name": "El Redentor", "popupContent": "This is where the Rockies play!"}}, {"geometry": {"type": "Point", "coordinates": [-86.2671292472375, 12.1442200697836]}, "type": "Feature", "properties": {"name": null, "popupContent": "This is where the Rockies play!"}}, {"geometry": {"type": "Point", "coordinates": [-86.2677496237727, 12.140593819781]}, "type": "Feature", "properties": {"name": "Mirador Tiscapa", "popupContent": "This is where the Rockies play!"}}, {"geometry": {"type": "Point", "coordinates": [-86.2768854902123, 12.1359434953215]}, "type": "Feature", "properties": {"name": null, "popupContent": "This is where the Rockies play!"}}, {"geometry": {"type": "Point", "coordinates": [-86.2768629424986, 12.1358868488791]}, "type": "Feature", "properties": {"name": "Comercial Mabale", "popupContent": "This is where the Rockies play!"}}, {"geometry": {"type": "Point", "coordinates": [-86.2678148414624, 12.1405904825298]}, "type": "Feature", "properties": {"name": null, "popupContent": "This is where the Rockies play!"}}, {"geometry": {"type": "Point", "coordinates": [-86.2795036301078, 12.1353627150233]}, "type": "Feature", "properties": {"name": "PriceSmart", "popupContent": "This is where the Rockies play!"}}, {"geometry": {"type": "Point", "coordinates": [-86.2795124335976, 12.135403728886]}, "type": "Feature", "properties": {"name": null, "popupContent": "This is where the Rockies play!"}}, {"geometry": {"type": "Point", "coordinates": [-86.2826202451545, 12.1348596579669]}, "type": "Feature", "properties": {"name": "Plaza Espa\u00f1a Norte", "popupContent": "This is where the Rockies play!"}}, {"geometry": {"type": "Point", "coordinates": [-86.2826197959969, 12.1348896938723]}, "type": "Feature", "properties": {"name": null, "popupContent": "This is where the Rockies play!"}}, {"geometry": {"type": "Point", "coordinates": [-86.2874576729595, 12.1367853742078]}, "type": "Feature", "properties": {"name": "El Recreo", "popupContent": "This is where the Rockies play!"}}, {"geometry": {"type": "Point", "coordinates": [-86.2874347659198, 12.1368302520917]}, "type": "Feature", "properties": {"name": null, "popupContent": "This is where the Rockies play!"}}, {"geometry": {"type": "Point", "coordinates": [-86.289621894142, 12.1334306651182]}, "type": "Feature", "properties": {"name": "Repuestos Jarqu\u00edn", "popupContent": "This is where the Rockies play!"}}, {"geometry": {"type": "Point", "coordinates": [-86.2896499215789, 12.1334500743896]}, "type": "Feature", "properties": {"name": null, "popupContent": "This is where the Rockies play!"}}, {"geometry": {"type": "Point", "coordinates": [-86.2904699037702, 12.1299881757447]}, "type": "Feature", "properties": {"name": null, "popupContent": "This is where the Rockies play!"}}, {"geometry": {"type": "Point", "coordinates": [-86.2904114234452, 12.1299883513965]}, "type": "Feature", "properties": {"name": "Colegio Benjam\u00edn Zeled\u00f3n", "popupContent": "This is where the Rockies play!"}}, {"geometry": {"type": "Point", "coordinates": [-86.2917346418588, 12.1264878517247]}, "type": "Feature", "properties": {"name": "Sporgym", "popupContent": "This is where the Rockies play!"}}, {"geometry": {"type": "Point", "coordinates": [-86.2917659032306, 12.1264864464919]}, "type": "Feature", "properties": {"name": null, "popupContent": "This is where the Rockies play!"}}, {"geometry": {"type": "Point", "coordinates": [-86.2969422653923, 12.1255265829523]}, "type": "Feature", "properties": {"name": null, "popupContent": "This is where the Rockies play!"}}, {"geometry": {"type": "Point", "coordinates": [-86.2969348093754, 12.1254914520042]}, "type": "Feature", "properties": {"name": "El Zumen Norte", "popupContent": "This is where the Rockies play!"}}, {"geometry": {"type": "Point", "coordinates": [-86.2972555079319, 12.1268552320132]}, "type": "Feature", "properties": {"name": null, "popupContent": "This is where the Rockies play!"}}, {"geometry": {"type": "Point", "coordinates": [-86.2973551310969, 12.1268662103788]}, "type": "Feature", "properties": {"name": "Ferreter\u00eda El Progreso", "popupContent": "This is where the Rockies play!"}}, {"geometry": {"type": "Point", "coordinates": [-86.2976376512537, 12.1295495728647]}, "type": "Feature", "properties": {"name": "Colegio Madre del Divino Pastor", "popupContent": "This is where the Rockies play!"}}, {"geometry": {"type": "Point", "coordinates": [-86.2976257036605, 12.1295991945724]}, "type": "Feature", "properties": {"name": null, "popupContent": "This is where the Rockies play!"}}, {"geometry": {"type": "Point", "coordinates": [-86.3004865683458, 12.1297396283463]}, "type": "Feature", "properties": {"name": "Bomberos Palo Alto", "popupContent": "This is where the Rockies play!"}}, {"geometry": {"type": "Point", "coordinates": [-86.3004207218355, 12.1297759004722]}, "type": "Feature", "properties": {"name": null, "popupContent": "This is where the Rockies play!"}}, {"geometry": {"type": "Point", "coordinates": [-86.3013496696708, 12.1279692264275]}, "type": "Feature", "properties": {"name": "Mercado Israel Lewites Oeste", "popupContent": "This is where the Rockies play!"}}, {"geometry": {"type": "Point", "coordinates": [-86.3013998854952, 12.1279578089745]}, "type": "Feature", "properties": {"name": null, "popupContent": "This is where the Rockies play!"}}, {"geometry": {"type": "Point", "coordinates": [-86.2997239885011, 12.1253142163003]}, "type": "Feature", "properties": {"name": null, "popupContent": "This is where the Rockies play!"}}, {"geometry": {"type": "Point", "coordinates": [-86.2998254082967, 12.125399584553]}, "type": "Feature", "properties": {"name": "Mercado Israel Lewites Sur", "popupContent": "This is where the Rockies play!"}}, {"geometry": {"type": "Point", "coordinates": [-86.2963949218897, 12.1257582714393]}, "type": "Feature", "properties": {"name": null, "popupContent": "This is where the Rockies play!"}}, {"geometry": {"type": "Point", "coordinates": [-86.2964010304336, 12.1258258106154]}, "type": "Feature", "properties": {"name": "El Zumen", "popupContent": "This is where the Rockies play!"}}, {"geometry": {"type": "Point", "coordinates": [-86.2956527338019, 12.1250084009981]}, "type": "Feature", "properties": {"name": "Colegio La Senda", "popupContent": "This is where the Rockies play!"}}, {"geometry": {"type": "Point", "coordinates": [-86.2956968410824, 12.1250150758907]}, "type": "Feature", "properties": {"name": null, "popupContent": "This is where the Rockies play!"}}, {"geometry": {"type": "Point", "coordinates": [-86.2962561321783, 12.1193206291775]}, "type": "Feature", "properties": {"name": "Colegio Bautista Bel\u00e9n", "popupContent": "This is where the Rockies play!"}}, {"geometry": {"type": "Point", "coordinates": [-86.296318475259, 12.1193280068477]}, "type": "Feature", "properties": {"name": null, "popupContent": "This is where the Rockies play!"}}, {"geometry": {"type": "Point", "coordinates": [-86.296599827606, 12.1163850029014]}, "type": "Feature", "properties": {"name": "El Ceibo", "popupContent": "This is where the Rockies play!"}}, {"geometry": {"type": "Point", "coordinates": [-86.2966280347059, 12.11638939442]}, "type": "Feature", "properties": {"name": null, "popupContent": "This is where the Rockies play!"}}, {"geometry": {"type": "Point", "coordinates": [-86.297668463468, 12.1061009219839]}, "type": "Feature", "properties": {"name": "Pal\u00ed", "popupContent": "This is where the Rockies play!"}}, {"geometry": {"type": "Point", "coordinates": [-86.2977229013742, 12.1060983748049]}, "type": "Feature", "properties": {"name": null, "popupContent": "This is where the Rockies play!"}}, {"geometry": {"type": "Point", "coordinates": [-86.2983159691248, 12.101480475074]}, "type": "Feature", "properties": {"name": "Pulper\u00eda Manuel", "popupContent": "This is where the Rockies play!"}}, {"geometry": {"type": "Point", "coordinates": [-86.2983701375364, 12.1015000623398]}, "type": "Feature", "properties": {"name": null, "popupContent": "This is where the Rockies play!"}}, {"geometry": {"type": "Point", "coordinates": [-86.298482786273, 12.0992657872476]}, "type": "Feature", "properties": {"name": null, "popupContent": "This is where the Rockies play!"}}, {"geometry": {"type": "Point", "coordinates": [-86.2992927971647, 12.0980790323642]}, "type": "Feature", "properties": {"name": "Pulper\u00eda Telma", "popupContent": "This is where the Rockies play!"}}, {"geometry": {"type": "Point", "coordinates": [-86.299347414734, 12.0980812282741]}, "type": "Feature", "properties": {"name": null, "popupContent": "This is where the Rockies play!"}}, {"geometry": {"type": "Point", "coordinates": [-86.3022399899489, 12.0987319194827]}, "type": "Feature", "properties": {"name": "Farmacia El Maestro", "popupContent": "This is where the Rockies play!"}}, {"geometry": {"type": "Point", "coordinates": [-86.3022333424158, 12.0987915602418]}, "type": "Feature", "properties": {"name": null, "popupContent": "This is where the Rockies play!"}}, {"geometry": {"type": "Point", "coordinates": [-86.3028150913938, 12.0963750008915]}, "type": "Feature", "properties": {"name": "Barber\u00eda", "popupContent": "This is where the Rockies play!"}}, {"geometry": {"type": "Point", "coordinates": [-86.3028465324287, 12.0963807102934]}, "type": "Feature", "properties": {"name": null, "popupContent": "This is where the Rockies play!"}}, {"geometry": {"type": "Point", "coordinates": [-86.3048564230454, 12.0960507066614]}, "type": "Feature", "properties": {"name": null, "popupContent": "This is where the Rockies play!"}}, {"geometry": {"type": "Point", "coordinates": [-86.3048621722632, 12.0959332684859]}, "type": "Feature", "properties": {"name": "Asados Allison", "popupContent": "This is where the Rockies play!"}}, {"geometry": {"type": "Point", "coordinates": [-86.3071858444087, 12.0947301610349]}, "type": "Feature", "properties": {"name": "Plazoleta Camilo Ortega", "popupContent": "This is where the Rockies play!"}}, {"geometry": {"type": "Point", "coordinates": [-86.3071614102329, 12.0946966949475]}, "type": "Feature", "properties": {"name": null, "popupContent": "This is where the Rockies play!"}}, {"geometry": {"type": "Point", "coordinates": [-86.2608565811031, 12.145000272212]}, "type": "Feature", "properties": {"name": "Polic\u00eda Nacional Distrito IV", "popupContent": "This is where the Rockies play!"}}, {"geometry": {"type": "Point", "coordinates": [-86.260781931103, 12.1449878894583]}, "type": "Feature", "properties": {"name": null, "popupContent": "This is where the Rockies play!"}}]}