{"type": "FeatureCollection", "features": [{"geometry": {"type": "MultiLineString", "coordinates": [[[-86.2306986098792, 12.1056320649774], [-86.2310475155356, 12.1056746644209], [-86.2311105772685, 12.1056823938038], [-86.231485174742, 12.1056567463053], [-86.2319043286536, 12.1056281124513], [-86.2323599541657, 12.1056108970039], [-86.2327413788353, 12.1055985124212], [-86.2327805453817, 12.1055962287392], [-86.2330995371391, 12.1055776079469], [-86.233312527693, 12.1055652233626], [-86.233315761628, 12.10573316179], [-86.233317288764, 12.1058159891241], [-86.233323756634, 12.1061551154065], [-86.2333778352141, 12.1066311738488], [-86.2333844827472, 12.1066901980099], [-86.2335006349135, 12.1077117003974], [-86.2335125825067, 12.1078167489166], [-86.2335349505573, 12.1079542956612], [-86.2335741171037, 12.1081959245408], [-86.2335995394263, 12.1083522673563], [-86.2336597265503, 12.1087763248243], [-86.233668350377, 12.1088294637097], [-86.2337438986924, 12.1093496093986], [-86.2338302267912, 12.1098134534247], [-86.2338902342522, 12.1104266994877], [-86.2338902342522, 12.1107120665897], [-86.2338750527239, 12.1111680911931], [-86.2337779448417, 12.1113313709995], [-86.2337897127719, 12.1116589842959], [-86.2337974382833, 12.1118717131433], [-86.2334538326872, 12.1119345129151], [-86.233110406754, 12.1119932724086], [-86.2324925455016, 12.1118337697775], [-86.232413224262, 12.111843519115], [-86.2322249373785, 12.1118665310635], [-86.2318057834669, 12.1119178248653], [-86.2315654841284, 12.1119093930082], [-86.2310507494706, 12.111802765125], [-86.2308358724546, 12.1117583221891], [-86.2306654620453, 12.1117001774674], [-86.2304115083144, 12.1115592950378], [-86.2301240474235, 12.1115434852842], [-86.2296000601183, 12.1115148520614], [-86.2291165868324, 12.1115435731161], [-86.2285138172767, 12.1116144535041], [-86.2282267157119, 12.1116491471196], [-86.2279412311146, 12.1116951710482], [-86.2276715568663, 12.1117281080151], [-86.2267349733511, 12.1118422894689], [-86.2257114329164, 12.112102183842], [-86.2255053593902, 12.1121456605712], [-86.2251539384511, 12.1122198784056], [-86.2249344800272, 12.1122666927214], [-86.2247387371267, 12.1123084127894], [-86.2242108870658, 12.1124209251932], [-86.223651955296, 12.1126226744822], [-86.2232742137191, 12.1127569689832], [-86.2228091558965, 12.1124688812853], [-86.2227124971719, 12.1124089800846], [-86.22244084663, 12.112875805068], [-86.2222254306248, 12.1133904094989], [-86.221864038386, 12.1133185634372], [-86.2209958166639, 12.1131222602239], [-86.2203162411515, 12.1132353871045], [-86.2201890397073, 12.1132565544736], [-86.2195100930155, 12.1133925174516], [-86.2195194354945, 12.1132147467223], [-86.2195365034849, 12.1129710144282], [-86.2195401865775, 12.1125909672684], [-86.2194464922934, 12.1126076552761], [-86.2188497414502, 12.1126098510665], [-86.2187042143741, 12.1126103780562], [-86.2182732027008, 12.1126934667521], [-86.216930041688, 12.1130237133215], [-86.2169685794137, 12.1133249751281], [-86.2169876236977, 12.113466383614], [-86.2170381090167, 12.1137686110648], [-86.2170647889806, 12.1139278490463], [-86.21705652448, 12.1141748302175], [-86.2170424209301, 12.1142477300217], [-86.2169617522175, 12.1146664204391], [-86.2169399231561, 12.1147793710035], [-86.2169102787518, 12.115092927141], [-86.2168682375965, 12.1155385802444], [-86.2168259269466, 12.1159865161968], [-86.216816314973, 12.11608778475], [-86.2168102962606, 12.1161513740041], [-86.2168014927708, 12.1162436837921], [-86.216794036754, 12.1163235216324], [-86.2167175002918, 12.116797366189], [-86.216620302578, 12.117399880944], [-86.216555354383, 12.1178441249169], [-86.2164657923492, 12.1183579293013], [-86.2164000356704, 12.1187654589129], [-86.2163585335042, 12.1190227116597], [-86.2163171211697, 12.1192791736938], [-86.2163062515547, 12.1193464510222], [-86.2162618747797, 12.1196215325592], [-86.2162249540215, 12.119866488389], [-86.2161883925894, 12.1201427989978], [-86.2161456327819, 12.1204193728075], [-86.2160986508925, 12.1207224706737], [-86.2160593046831, 12.1209765596946], [-86.2159648917468, 12.1215867061064], [-86.2159617476433, 12.1216071701838], [-86.2159521356697, 12.1216736564675], [-86.2159391100981, 12.1217641199444], [-86.2158888044422, 12.122075472162], [-86.2158318512532, 12.1223734740992], [-86.2157944813374, 12.12267217833], [-86.2157420197248, 12.1229765032315], [-86.2156940496886, 12.1232920697828], [-86.2156381744779, 12.123598853161], [-86.2155963129857, 12.1239152094271], [-86.2155901146102, 12.1239621973469], [-86.2155518463791, 12.1241828208895], [-86.2155061221311, 12.1244461285251], [-86.2154536605185, 12.1247641525109], [-86.2153976954764, 12.1250650497523], [-86.2153388558252, 12.1253937001167], [-86.2152900773053, 12.1256937183747], [-86.2152437242367, 12.1259796839411], [-86.2151970118419, 12.1262669666076], [-86.2151486824796, 12.1265645247265], [-86.2151033175578, 12.126890011474], [-86.2150460948742, 12.127196966367], [-86.2149983943326, 12.1274910982061], [-86.2149653363301, 12.1276924847933], [-86.2149440462579, 12.1278260690963], [-86.2149011067873, 12.1280904270528], [-86.2142774963171, 12.1280277189101], [-86.214269321648, 12.1280269284712], [-86.2141638594336, 12.1280176188577], [-86.2132783900581, 12.127927157502], [-86.2130530027533, 12.1278975599449], [-86.2123559999243, 12.1278061324557], [-86.2119668497432, 12.1277552808415], [-86.2118731554591, 12.1277430729396], [-86.2114020789241, 12.1276835264747], [-86.2105787729662, 12.1275360654817], [-86.2102859221836, 12.1274815250937]], [[-86.2102398386095, 12.1273849156835], [-86.2102158535914, 12.127559603037]], [[-86.2101857600294, 12.1274651014965], [-86.2101119185131, 12.1274528935813], [-86.2097241158049, 12.1273899218084], [-86.2096243129769, 12.1273765721419], [-86.2095423866229, 12.127365681624], [-86.2088855384872, 12.1272651199662], [-86.2087747762127, 12.1272481693948], [-86.2084015262121, 12.1271909941435], [-86.2081500877641, 12.1271525259952], [-86.2077586917948, 12.1270684757066], [-86.2075677997969, 12.1270275483882], [-86.2074182303021, 12.1269954915786], [-86.2073000120107, 12.1269701096089], [-86.2069206534662, 12.1268356466078], [-86.2064854197111, 12.1266815102951], [-86.2052291257862, 12.1262163781813], [-86.2048529113452, 12.1260512631119], [-86.2046647142932, 12.1259687933661], [-86.2045048141727, 12.125898619409], [-86.2043844399246, 12.1258457474041], [-86.2042292110435, 12.126074186008], [-86.2039132735581, 12.1265604846835], [-86.2033758115236, 12.1273879896198], [-86.2031507835449, 12.1277344659293], [-86.2028945840259, 12.1281288950658], [-86.2026251792722, 12.1285436115113], [-86.2018299905827, 12.1297678204833], [-86.2017869612805, 12.1298342169065], [-86.201502285167, 12.1302775619114], [-86.2013803837829, 12.130467616874], [-86.201288755624, 12.1306136710345], [-86.2001455595934, 12.1322292196849], [-86.2000069495451, 12.1324320957193], [-86.1996355860066, 12.1330167467], [-86.1992073591107, 12.1336909775816], [-86.1990963273416, 12.1338596887285], [-86.198900045452, 12.1341566236007], [-86.1987615252352, 12.1342426037933], [-86.1986190524311, 12.134276064923], [-86.1984798135621, 12.1342593782709], [-86.1983898922021, 12.1342508592955], [-86.1983226083874, 12.1342082644143], [-86.1982202902765, 12.1341547792858], [-86.1979120783025, 12.1339935334146], [-86.1978501843794, 12.1339720163928], [-86.1976281208412, 12.1338920960111], [-86.197219746713, 12.1337786265926], [-86.196286936122, 12.1336630493335], [-86.1959781851589, 12.1336326619911], [-86.195469559045, 12.1335826019108], [-86.1946472412339, 12.1335030327112], [-86.1944523068172, 12.1334826573715], [-86.1944488033876, 12.1336149214023], [-86.1944207759508, 12.1346662688109], [-86.1944130504393, 12.1349568794379], [-86.1943887060951, 12.1358706014476], [-86.1945327958667, 12.1358731483423], [-86.1945529181291, 12.1349705800217], [-86.1945594758306, 12.1346734704078], [-86.1945706149402, 12.1341787553792], [-86.194631790211, 12.1336387218949], [-86.1959444983357, 12.1337924150617], [-86.1965777207795, 12.1338439681212], [-86.1970379276995, 12.1339028106131], [-86.197460135883, 12.1340045114863], [-86.1978222467741, 12.1341178051594], [-86.1980230202401, 12.134213797358], [-86.1983598884716, 12.1344088555067], [-86.1984251959928, 12.1345210951152], [-86.1984626557401, 12.1346458057358], [-86.1984557387124, 12.1348565841168], [-86.1983920481588, 12.1349567037893], [-86.1979450464734, 12.1355835926033], [-86.1978652760762, 12.1357197198477], [-86.19781083817, 12.1358026256966], [-86.1976014408772, 12.1361802685382], [-86.1973411989395, 12.1366495988027], [-86.1972307061595, 12.1368643276619], [-86.1971962108526, 12.1369242233701], [-86.197086796051, 12.137119016064], [-86.1969785490592, 12.1373288264303], [-86.1968490119953, 12.1375795623357], [-86.1967413938242, 12.1378387290427], [-86.196655155557, 12.1380222796926], [-86.1966233551959, 12.1381081708145], [-86.1964445904544, 12.1385524681082], [-86.196364281068, 12.1387568323193], [-86.1962803784204, 12.1389719107718], [-86.1962699579631, 12.1389987845883], [-86.196239684738, 12.1390995174645], [-86.1961072730652, 12.1394763652277], [-86.1960791557968, 12.1395567230481], [-86.1960423248701, 12.1396616712032], [-86.195958152728, 12.13998898623], [-86.1958245732453, 12.1405081051054], [-86.19568614286, 12.1410468951538], [-86.1956646731247, 12.1411300628115], [-86.1955941553749, 12.1414865329742], [-86.1955515752304, 12.1416772825178], [-86.1955372920174, 12.1417401630925], [-86.1955314529681, 12.1417679148498], [-86.1953727206573, 12.1426344532342], [-86.1952881891891, 12.1430992054048], [-86.1952641143395, 12.1432986481227], [-86.1952098560963, 12.143748118218], [-86.1951839846162, 12.1447801928301], [-86.1952021305849, 12.1465442477884], [-86.1952286308858, 12.1470161065771], [-86.1952345597666, 12.1471187684659], [-86.1952348292612, 12.1472104527882], [-86.1951952135572, 12.1473688804126], [-86.1951604487557, 12.1475082509775], [-86.1950946920769, 12.1476333067972], [-86.1950405236653, 12.1476975910862], [-86.1949347021248, 12.1477797906462], [-86.1948154956866, 12.1478334486786], [-86.1947269217996, 12.1478201878565], [-86.1944030791397, 12.1477717112034], [-86.1941889207759, 12.1477509856751], [-86.1935440202335, 12.1476888090804], [-86.1934001999565, 12.1476748456907], [-86.1923987580777, 12.1475731500374], [-86.191368749773, 12.1474853299255], [-86.1910038541046, 12.1474541537789], [-86.1908727899046, 12.1474383461538], [-86.1907449596397, 12.1474229776286], [-86.1905809272688, 12.1474085751241], [-86.1900956573523, 12.1473642259438], [-86.189653776064, 12.1473238286643], [-86.189108049529, 12.1472714000119], [-86.1889178761833, 12.1472556801962], [-86.1887629167968, 12.1472389943572], [-86.1883435832222, 12.1471938547667], [-86.1876874537386, 12.147123422939], [-86.187187541283, 12.1470676570771], [-86.1867174528949, 12.1470153161945], [-86.1851932813523, 12.1468611915561], [-86.1847219353227, 12.1468135929318], [-86.1839454315911, 12.1467280558992], [-86.1837999045151, 12.1467118969495], [-86.1835921241899, 12.1466913469794], [-86.1817765391691, 12.1465127202498], [-86.1812958506606, 12.1464436055488], [-86.1809531433797, 12.1463615812172], [-86.1806241803227, 12.1462189606918], [-86.1804631123922, 12.14617250362], [-86.1802718610682, 12.1461818125991], [-86.1800145835709, 12.1462358222358], [-86.1797326024032, 12.1462625196781], [-86.1794708333294, 12.1462370517233], [-86.1788993251456, 12.1461814613169], [-86.1783067065527, 12.1461155958914], [-86.1780260728579, 12.1460845074049], [-86.1770721518577, 12.145983513709], [-86.1766707845888, 12.1459410085247], [-86.1762460611225, 12.1458959565347], [-86.1755111493885, 12.1458192890956], [-86.1740831874129, 12.1456701695461], [-86.1740389004694, 12.1456656028684], [-86.1729478067253, 12.1455516115408], [-86.1727407450523, 12.1455300076319], [-86.1716305171927, 12.1454024040205], [-86.1713585073246, 12.1453735987922], [-86.1713329951706, 12.1453708763466], [-86.1699035958904, 12.1452195610241], [-86.1696954562391, 12.1451987474762], [-86.1686725446251, 12.1450982803698], [-86.1680979821694, 12.1450403185604], [-86.1677823141785, 12.1450069466038], [-86.1675538726018, 12.1449966715532], [-86.1671599613497, 12.1450088786646], [-86.1668015335514, 12.1450503301466], [-86.1662698207347, 12.1451388536289], [-86.1658167105054, 12.1452473124188], [-86.1653000893855, 12.1454283989801], [-86.1646065001546, 12.1457330491779], [-86.1630839455795, 12.1464721472001], [-86.1621688317996, 12.1468862203496], [-86.1617061994283, 12.1470954960994], [-86.1608457032176, 12.1474977125631], [-86.1599268165135, 12.1479313679734], [-86.159066859292, 12.1483371837877], [-86.1588421008079, 12.1484675084061], [-86.1587798475587, 12.1485036901622], [-86.1579647162699, 12.1488915020737], [-86.1577485816126, 12.1489656218585]]]}, "type": "Feature", "properties": {"name": "169"}}, {"geometry": {"type": "Point", "coordinates": [-86.1577356458725, 12.1489036211869]}, "type": "Feature", "properties": {"name": "Zona Franca Las Mercedes", "popupContent": "This is where the Rockies play!"}}, {"geometry": {"type": "Point", "coordinates": [-86.1577486714441, 12.1489656218585]}, "type": "Feature", "properties": {"name": null, "popupContent": "This is where the Rockies play!"}}, {"geometry": {"type": "Point", "coordinates": [-86.1621199634482, 12.146808850633]}, "type": "Feature", "properties": {"name": "UNA", "popupContent": "This is where the Rockies play!"}}, {"geometry": {"type": "Point", "coordinates": [-86.1621689216311, 12.1468862203496]}, "type": "Feature", "properties": {"name": null, "popupContent": "This is where the Rockies play!"}}, {"geometry": {"type": "Point", "coordinates": [-86.1671534036481, 12.1449268538909]}, "type": "Feature", "properties": {"name": "INAC", "popupContent": "This is where the Rockies play!"}}, {"geometry": {"type": "Point", "coordinates": [-86.1671600511812, 12.1450088786646]}, "type": "Feature", "properties": {"name": null, "popupContent": "This is where the Rockies play!"}}, {"geometry": {"type": "Point", "coordinates": [-86.1713680294666, 12.1453187107722]}, "type": "Feature", "properties": {"name": "Aeropuerto", "popupContent": "This is where the Rockies play!"}}, {"geometry": {"type": "Point", "coordinates": [-86.1713585971561, 12.1453735987922]}, "type": "Feature", "properties": {"name": null, "popupContent": "This is where the Rockies play!"}}, {"geometry": {"type": "Point", "coordinates": [-86.1770708043848, 12.1459150136152]}, "type": "Feature", "properties": {"name": "APENN", "popupContent": "This is where the Rockies play!"}}, {"geometry": {"type": "Point", "coordinates": [-86.1770722416893, 12.145983513709]}, "type": "Feature", "properties": {"name": null, "popupContent": "This is where the Rockies play!"}}, {"geometry": {"type": "Point", "coordinates": [-86.1901112880383, 12.1472724538542]}, "type": "Feature", "properties": {"name": "Las Mercedes", "popupContent": "This is where the Rockies play!"}}, {"geometry": {"type": "Point", "coordinates": [-86.1900957471838, 12.1473642259438]}, "type": "Feature", "properties": {"name": null, "popupContent": "This is where the Rockies play!"}}, {"geometry": {"type": "Point", "coordinates": [-86.1941866749877, 12.1476899507412]}, "type": "Feature", "properties": {"name": "La Subasta", "popupContent": "This is where the Rockies play!"}}, {"geometry": {"type": "Point", "coordinates": [-86.1941890106075, 12.1477509856751]}, "type": "Feature", "properties": {"name": null, "popupContent": "This is where the Rockies play!"}}, {"geometry": {"type": "Point", "coordinates": [-86.1951317924981, 12.1470326167894]}, "type": "Feature", "properties": {"name": "Mama Naya", "popupContent": "This is where the Rockies play!"}}, {"geometry": {"type": "Point", "coordinates": [-86.1952287207173, 12.1470161065771]}, "type": "Feature", "properties": {"name": null, "popupContent": "This is where the Rockies play!"}}, {"geometry": {"type": "Point", "coordinates": [-86.1955118696949, 12.1417045073495]}, "type": "Feature", "properties": {"name": "Los Rieles", "popupContent": "This is where the Rockies play!"}}, {"geometry": {"type": "Point", "coordinates": [-86.1955373818489, 12.1417401630925]}, "type": "Feature", "properties": {"name": null, "popupContent": "This is where the Rockies play!"}}, {"geometry": {"type": "Point", "coordinates": [-86.1960142974333, 12.1395433739911]}, "type": "Feature", "properties": {"name": "Ferreter\u00eda Cristian", "popupContent": "This is where the Rockies play!"}}, {"geometry": {"type": "Point", "coordinates": [-86.1960792456283, 12.1395567230481]}, "type": "Feature", "properties": {"name": null, "popupContent": "This is where the Rockies play!"}}, {"geometry": {"type": "Point", "coordinates": [-86.1969117144021, 12.1373090661475]}, "type": "Feature", "properties": {"name": "Distribuidora Petrogas", "popupContent": "This is where the Rockies play!"}}, {"geometry": {"type": "Point", "coordinates": [-86.1969786388908, 12.1373288264303]}, "type": "Feature", "properties": {"name": null, "popupContent": "This is where the Rockies play!"}}, {"geometry": {"type": "Point", "coordinates": [-86.1946596379848, 12.1349832267138]}, "type": "Feature", "properties": {"name": "Mercado Mayoreo", "popupContent": "This is where the Rockies play!"}}, {"geometry": {"type": "Point", "coordinates": [-86.1945530079606, 12.1349705800217]}, "type": "Feature", "properties": {"name": null, "popupContent": "This is where the Rockies play!"}}, {"geometry": {"type": "Point", "coordinates": [-86.1943968807642, 12.1349561768438]}, "type": "Feature", "properties": {"name": "Mercado Mayoreo", "popupContent": "This is where the Rockies play!"}}, {"geometry": {"type": "Point", "coordinates": [-86.1944131402709, 12.1349568794379]}, "type": "Feature", "properties": {"name": null, "popupContent": "This is where the Rockies play!"}}, {"geometry": {"type": "Point", "coordinates": [-86.1978660845599, 12.133912120021]}, "type": "Feature", "properties": {"name": "Parque Concepci\u00f3n de Mar\u00eda", "popupContent": "This is where the Rockies play!"}}, {"geometry": {"type": "Point", "coordinates": [-86.1978502742109, 12.1339720163928]}, "type": "Feature", "properties": {"name": null, "popupContent": "This is where the Rockies play!"}}, {"geometry": {"type": "Point", "coordinates": [-86.1995643496046, 12.1329838123616]}, "type": "Feature", "properties": {"name": "Durman Esquivel", "popupContent": "This is where the Rockies play!"}}, {"geometry": {"type": "Point", "coordinates": [-86.1996356758381, 12.1330167467]}, "type": "Feature", "properties": {"name": null, "popupContent": "This is where the Rockies play!"}}, {"geometry": {"type": "Point", "coordinates": [-86.2017680966596, 12.1297163544614]}, "type": "Feature", "properties": {"name": "Entrada a Laureles Norte", "popupContent": "This is where the Rockies play!"}}, {"geometry": {"type": "Point", "coordinates": [-86.2018300804142, 12.1297678204833]}, "type": "Feature", "properties": {"name": null, "popupContent": "This is where the Rockies play!"}}, {"geometry": {"type": "Point", "coordinates": [-86.2038353896229, 12.1265252660445]}, "type": "Feature", "properties": {"name": "Petrogas", "popupContent": "This is where the Rockies play!"}}, {"geometry": {"type": "Point", "coordinates": [-86.2039133633896, 12.1265604846835]}, "type": "Feature", "properties": {"name": null, "popupContent": "This is where the Rockies play!"}}, {"geometry": {"type": "Point", "coordinates": [-86.2096188332536, 12.1273063107285]}, "type": "Feature", "properties": {"name": "Colegio Inmaculada Concepci\u00f3n", "popupContent": "This is where the Rockies play!"}}, {"geometry": {"type": "Point", "coordinates": [-86.2096244028084, 12.1273765721419]}, "type": "Feature", "properties": {"name": null, "popupContent": "This is where the Rockies play!"}}, {"geometry": {"type": "Point", "coordinates": [-86.2075934017825, 12.1269305875059]}, "type": "Feature", "properties": {"name": "El Madro\u00f1o", "popupContent": "This is where the Rockies play!"}}, {"geometry": {"type": "Point", "coordinates": [-86.2075678896285, 12.1270275483882]}, "type": "Feature", "properties": {"name": null, "popupContent": "This is where the Rockies play!"}}, {"geometry": {"type": "Point", "coordinates": [-86.2141772443314, 12.1278806972404]}, "type": "Feature", "properties": {"name": "Mercado Iv\u00e1n Montenegro Sureste", "popupContent": "This is where the Rockies play!"}}, {"geometry": {"type": "Point", "coordinates": [-86.2141639492651, 12.1280176188577]}, "type": "Feature", "properties": {"name": null, "popupContent": "This is where the Rockies play!"}}, {"geometry": {"type": "Point", "coordinates": [-86.2149100001086, 12.1276910795669]}, "type": "Feature", "properties": {"name": "Sem\u00e1foro Iv\u00e1n Montenegro", "popupContent": "This is where the Rockies play!"}}, {"geometry": {"type": "Point", "coordinates": [-86.2149654261616, 12.1276924847933]}, "type": "Feature", "properties": {"name": null, "popupContent": "This is where the Rockies play!"}}, {"geometry": {"type": "Point", "coordinates": [-86.2155192375343, 12.124175706837]}, "type": "Feature", "properties": {"name": "Colegio Villa Venezuela Oeste", "popupContent": "This is where the Rockies play!"}}, {"geometry": {"type": "Point", "coordinates": [-86.2155519362106, 12.1241828208895]}, "type": "Feature", "properties": {"name": null, "popupContent": "This is where the Rockies play!"}}, {"geometry": {"type": "Point", "coordinates": [-86.2159213234555, 12.1215557904156]}, "type": "Feature", "properties": {"name": "Panader\u00eda San Jos\u00e9", "popupContent": "This is where the Rockies play!"}}, {"geometry": {"type": "Point", "coordinates": [-86.2159649815783, 12.1215867061064]}, "type": "Feature", "properties": {"name": null, "popupContent": "This is where the Rockies play!"}}, {"geometry": {"type": "Point", "coordinates": [-86.2162904412057, 12.1193365262999]}, "type": "Feature", "properties": {"name": "Agencia Tropig\u00e1s", "popupContent": "This is where the Rockies play!"}}, {"geometry": {"type": "Point", "coordinates": [-86.2163063413862, 12.1193464510222]}, "type": "Feature", "properties": {"name": null, "popupContent": "This is where the Rockies play!"}}, {"geometry": {"type": "Point", "coordinates": [-86.2167856824219, 12.1160795286856]}, "type": "Feature", "properties": {"name": "Panader\u00eda Maritza Luc\u00eda", "popupContent": "This is where the Rockies play!"}}, {"geometry": {"type": "Point", "coordinates": [-86.2168164048046, 12.11608778475]}, "type": "Feature", "properties": {"name": null, "popupContent": "This is where the Rockies play!"}}, {"geometry": {"type": "Point", "coordinates": [-86.2170117883789, 12.1142468517109]}, "type": "Feature", "properties": {"name": "Pulper\u00eda Kevin", "popupContent": "This is where the Rockies play!"}}, {"geometry": {"type": "Point", "coordinates": [-86.2170425107616, 12.1142477300217]}, "type": "Feature", "properties": {"name": null, "popupContent": "This is where the Rockies play!"}}, {"geometry": {"type": "Point", "coordinates": [-86.2188545923527, 12.1125783195144]}, "type": "Feature", "properties": {"name": "Capilla Santa Teresita", "popupContent": "This is where the Rockies play!"}}, {"geometry": {"type": "Point", "coordinates": [-86.2188498312817, 12.1126098510665]}, "type": "Feature", "properties": {"name": null, "popupContent": "This is where the Rockies play!"}}, {"geometry": {"type": "Point", "coordinates": [-86.2203141750263, 12.1132040312892]}, "type": "Feature", "properties": {"name": "Pulper\u00eda Mej\u00eda", "popupContent": "This is where the Rockies play!"}}, {"geometry": {"type": "Point", "coordinates": [-86.220316330983, 12.1132353871045]}, "type": "Feature", "properties": {"name": null, "popupContent": "This is where the Rockies play!"}}, {"geometry": {"type": "Point", "coordinates": [-86.2228401477738, 12.1123942243616]}, "type": "Feature", "properties": {"name": "Billares Don Pedro", "popupContent": "This is where the Rockies play!"}}, {"geometry": {"type": "Point", "coordinates": [-86.222809245728, 12.1124688812853]}, "type": "Feature", "properties": {"name": null, "popupContent": "This is where the Rockies play!"}}, {"geometry": {"type": "Point", "coordinates": [-86.2254738285237, 12.1120579166196]}, "type": "Feature", "properties": {"name": "Grupo Amor y Fe", "popupContent": "This is where the Rockies play!"}}, {"geometry": {"type": "Point", "coordinates": [-86.2255054492217, 12.1121456605712]}, "type": "Feature", "properties": {"name": null, "popupContent": "This is where the Rockies play!"}}, {"geometry": {"type": "Point", "coordinates": [-86.2276849417641, 12.1116699632868]}, "type": "Feature", "properties": {"name": "Farmacia Vargas", "popupContent": "This is where the Rockies play!"}}, {"geometry": {"type": "Point", "coordinates": [-86.2276716466979, 12.1117281080151]}, "type": "Feature", "properties": {"name": null, "popupContent": "This is where the Rockies play!"}}, {"geometry": {"type": "Point", "coordinates": [-86.2301432713706, 12.1114952655299]}, "type": "Feature", "properties": {"name": "Parque Reparto Shick", "popupContent": "This is where the Rockies play!"}}, {"geometry": {"type": "Point", "coordinates": [-86.230124137255, 12.1115434852842]}, "type": "Feature", "properties": {"name": null, "popupContent": "This is where the Rockies play!"}}, {"geometry": {"type": "Point", "coordinates": [-86.2322181101823, 12.1118223516339]}, "type": "Feature", "properties": {"name": "Librer\u00eda La Fe", "popupContent": "This is where the Rockies play!"}}, {"geometry": {"type": "Point", "coordinates": [-86.23222502721, 12.1118665310635]}, "type": "Feature", "properties": {"name": null, "popupContent": "This is where the Rockies play!"}}, {"geometry": {"type": "Point", "coordinates": [-86.2337485699319, 12.1116618827495]}, "type": "Feature", "properties": {"name": "Farmacia Schick", "popupContent": "This is where the Rockies play!"}}, {"geometry": {"type": "Point", "coordinates": [-86.2337898026034, 12.1116589842959]}, "type": "Feature", "properties": {"name": null, "popupContent": "This is where the Rockies play!"}}, {"geometry": {"type": "Point", "coordinates": [-86.2334938975488, 12.1079593899837]}, "type": "Feature", "properties": {"name": "Miscel\u00e1nea Dar\u00edo", "popupContent": "This is where the Rockies play!"}}, {"geometry": {"type": "Point", "coordinates": [-86.2335350403888, 12.1079542956612]}, "type": "Feature", "properties": {"name": null, "popupContent": "This is where the Rockies play!"}}, {"geometry": {"type": "Point", "coordinates": [-86.2331001659598, 12.1056160792051]}, "type": "Feature", "properties": {"name": "Ferreter\u00eda Jehova Jireh", "popupContent": "This is where the Rockies play!"}}, {"geometry": {"type": "Point", "coordinates": [-86.2330996269706, 12.1055776079469]}, "type": "Feature", "properties": {"name": null, "popupContent": "This is where the Rockies play!"}}, {"geometry": {"type": "Point", "coordinates": [-86.2306924115038, 12.1056684282141]}, "type": "Feature", "properties": {"name": "Terminal 169", "popupContent": "This is where the Rockies play!"}}, {"geometry": {"type": "Point", "coordinates": [-86.2306986997108, 12.1056320649774]}, "type": "Feature", "properties": {"name": null, "popupContent": "This is where the Rockies play!"}}]}