{"type": "FeatureCollection", "features": [{"geometry": {"type": "LineString", "coordinates": [[-86.2776026153035, 12.1569217864669], [-86.2780816868446, 12.1569572645373], [-86.2785992062798, 12.1569881761195], [-86.2795111759562, 12.1570745002066], [-86.2803818231296, 12.1571322837609], [-86.2812743891959, 12.1571993758964], [-86.2819099472594, 12.1572251940697], [-86.2821105410623, 12.1572333610423], [-86.2821278785473, 12.1570514043447], [-86.2821634518326, 12.1566814311969], [-86.2821928267423, 12.1563753006408], [-86.2822310949734, 12.1559305940075], [-86.282250049426, 12.1557114896562], [-86.2822615478616, 12.1556029473136], [-86.2822867905211, 12.1553642593849], [-86.2823472471397, 12.1547606010259], [-86.2823724897992, 12.1545270057739], [-86.2824254005694, 12.1540767635198], [-86.2824405820977, 12.1539480223723], [-86.28248891146, 12.1535115665863], [-86.2825234965984, 12.1531993729238], [-86.2825340967188, 12.1531063733906], [-86.2825551172964, 12.1528455529968], [-86.2825937448537, 12.1524524777384], [-86.2826436013519, 12.1521327304343], [-86.2826777373327, 12.1518164954939], [-86.2827476262618, 12.15147435363], [-86.2826988477419, 12.1513478066946], [-86.282664352435, 12.1512468149959], [-86.2825808989451, 12.1511338798857], [-86.2825010387163, 12.1510300778991], [-86.2822539121817, 12.1508117598833], [-86.2820737101357, 12.1506019601411], [-86.2819621393774, 12.1503502704873], [-86.2819448917239, 12.1502605192692], [-86.2819381543593, 12.1500877788259], [-86.2819606122414, 12.149843904608], [-86.2820340944316, 12.1490452742581], [-86.2822026183789, 12.1474862959469], [-86.2822651411227, 12.1469079997891], [-86.282351559053, 12.1459002597465], [-86.2823985409424, 12.1453555955228], [-86.2824427380544, 12.144844214345], [-86.2824980742759, 12.1443148288453], [-86.2825370611592, 12.1439424668148], [-86.2826148552628, 12.1432788004613], [-86.2827014528562, 12.1422906309533], [-86.2827545432895, 12.1417248820604], [-86.2827842775254, 12.1414033654278], [-86.2828572207265, 12.1407261681039], [-86.2828812955761, 12.14050248447], [-86.2829391470804, 12.1399783596953], [-86.2829739118819, 12.1396391007667], [-86.2829828052032, 12.1393309306845], [-86.2829690609794, 12.1391069824102], [-86.282920551954, 12.1388486073438], [-86.2828617123029, 12.1386172815278], [-86.2826983985843, 12.138203985929], [-86.2825124473204, 12.1379109197919], [-86.2822346882346, 12.1375828996246], [-86.2820673320972, 12.137376251103], [-86.2819692360681, 12.1372679647546], [-86.2816103591121, 12.1368088231226], [-86.2814907035163, 12.1366250959893], [-86.2814495606763, 12.1365617750885], [-86.2813166100142, 12.1362889066239], [-86.2812644178962, 12.1361504962498], [-86.2812649568854, 12.1360113832126], [-86.2812298327578, 12.1357992005614], [-86.2812297429262, 12.1355173732606], [-86.2813020573066, 12.1353539326108], [-86.281357034202, 12.13526189291], [-86.2813776954535, 12.1351509709765], [-86.2813236168734, 12.1349750590586], [-86.2812649568854, 12.1349101569287], [-86.2811979425652, 12.1348582527783], [-86.2811609319755, 12.1346240252936], [-86.281184647499, 12.134417550126], [-86.2813112201225, 12.1337131972234], [-86.281339517054, 12.1335097952158], [-86.2813622444307, 12.1333468802834], [-86.281375898823, 12.1331982807003], [-86.2813265813139, 12.1329452572242], [-86.2812594771621, 12.1327056707332], [-86.281069213985, 12.1323267934159], [-86.2808214586296, 12.1319667101628], [-86.2807529171734, 12.131757861653], [-86.2806966826367, 12.1316201515285], [-86.280648802432, 12.1314445885816], [-86.2806325429254, 12.1312976566217], [-86.2806391904585, 12.1310403278894], [-86.2806762010482, 12.1307859849803], [-86.2807678292072, 12.1301819195985], [-86.2808278366681, 12.1298150708497], [-86.280865206584, 12.1296244884658], [-86.2809363531545, 12.129329392893], [-86.2809935758381, 12.129133364939], [-86.2810481035758, 12.1289608742725], [-86.2810543019512, 12.1289412890218], [-86.2811733287264, 12.128620020443], [-86.2813118489432, 12.1283539064829], [-86.2816713547199, 12.1277732853002], [-86.2820250214473, 12.1272798748669], [-86.2824276463576, 12.1267343821343], [-86.2826588727117, 12.1264391955357], [-86.2828538969599, 12.1261801055711], [-86.2830897945535, 12.1259195222918], [-86.2832645168763, 12.1257865518246], [-86.2834260339644, 12.1257233161763], [-86.2836005766241, 12.125649453407], [-86.2836941810767, 12.1254659820639], [-86.2836990319792, 12.1253643657607], [-86.2836069546626, 12.1252355229074], [-86.2834505579716, 12.1251577955936], [-86.2832991020147, 12.1251432162305], [-86.2829855001491, 12.1251399666134], [-86.2828368289695, 12.1252177817598], [-86.2827094478622, 12.1252441299984], [-86.2825897024349, 12.1252761870185], [-86.2824347430484, 12.125291117684], [-86.2822099845643, 12.1252587971834], [-86.2819112049008, 12.1252193626542], [-86.2817596591124, 12.1252351715976], [-86.2816455730713, 12.1252154982457], [-86.2811434148274, 12.1251285490392], [-86.2800705568836, 12.1249429694764], [-86.2795679494822, 12.1248641003187], [-86.2788300733078, 12.1247412295022], [-86.2784614945467, 12.1246447069269], [-86.2781213025486, 12.1245407189631], [-86.2775582385285, 12.124403619905], [-86.277284611693, 12.1243368708186], [-86.2768589899114, 12.124291727348], [-86.2767068153022, 12.1242735469987], [-86.2761009016431, 12.1242662572931], [-86.2755010965279, 12.1244098556741], [-86.2752607971894, 12.1244913597972], [-86.2750714323275, 12.1245736543445], [-86.2747279165628, 12.1247528227482], [-86.2746485953232, 12.1247998105204], [-86.2741102349735, 12.1251188880145], [-86.2735248927343, 12.1254596584921], [-86.2731108592199, 12.1257288492962], [-86.2725698937558, 12.1260805095652], [-86.2725195880999, 12.1261139717195], [-86.271612648989, 12.12667641633], [-86.2715362921899, 12.1267236672442], [-86.2710370983865, 12.1270332571347], [-86.2710071844875, 12.1270517886033], [-86.2709114240783, 12.1271111595555], [-86.270135818662, 12.1275950850194], [-86.2700478735956, 12.1276499766908], [-86.2699469927892, 12.1277026726847], [-86.2694691788896, 12.1279928517711], [-86.2692698427281, 12.1280769895949], [-86.2689546238949, 12.1282195320061], [-86.2685117544598, 12.1284080075603], [-86.2679428513904, 12.1286140482514], [-86.2675446282249, 12.128737092936], [-86.2675033057218, 12.1287493886187], [-86.2673460107156, 12.1287630895217], [-86.2671472135432, 12.128811569634], [-86.2669079023515, 12.1288504766743], [-86.2666543977783, 12.1288026991793], [-86.2665089605339, 12.1287138189636], [-86.2663983779224, 12.128675087556], [-86.2661284341795, 12.1287095154742], [-86.2659806613153, 12.1288135896385], [-86.2659084367664, 12.1289159950635], [-86.265872504155, 12.1290488761438], [-86.2658672939264, 12.1291880806414], [-86.2659031367062, 12.1293004981006], [-86.2659796731684, 12.1294000050776], [-86.2660845963936, 12.1294956476711], [-86.2662116181748, 12.1295409659127], [-86.2663209431449, 12.1296316023729], [-86.2664158950704, 12.1297104701204], [-86.2664759025314, 12.1298195499732], [-86.2667238375498, 12.1305837224729], [-86.2668431338195, 12.1309561910009], [-86.2670772347826, 12.1316796092887], [-86.2677976836405, 12.133906147948], [-86.267982916252, 12.1345080092791], [-86.267480219019, 12.1345827478377], [-86.2673527480802, 12.1345804644038], [-86.2664033186564, 12.134582572189], [-86.2663491502448, 12.1345826600133], [-86.2651922099904, 12.1345844165009], [-86.2652600327943, 12.1349200810714], [-86.2654274787633, 12.1355206227512], [-86.2656331031318, 12.1363385270768], [-86.2657193413991, 12.1366282576428], [-86.2658052203403, 12.136846411641], [-86.2658129458517, 12.136864064191], [-86.2659016095702, 12.1370675514617], [-86.2659252352622, 12.1371270080065], [-86.2660007835776, 12.1373169702608], [-86.2660025802082, 12.1374437873353], [-86.2659854223863, 12.1376016060064], [-86.2659237979578, 12.1378431202081], [-86.2657850082464, 12.1386019124934], [-86.265646218535, 12.1393404155484], [-86.2655080576443, 12.1400761940563], [-86.2654822759956, 12.1402126702951], [-86.2653632492205, 12.140846484704], [-86.2652250883298, 12.1415817321189], [-86.2651013903152, 12.1423341905823], [-86.2649383460911, 12.1430978002596], [-86.2648972930826, 12.1432773074955], [-86.2648166243701, 12.1436754021227], [-86.264742154033, 12.144042495251], [-86.2644362776788, 12.144077799396], [-86.2640987806266, 12.1441210074477], [-86.2638890240077, 12.1441110836479], [-86.2635961732251, 12.1440639236381], [-86.2631401883869, 12.1439580111836], [-86.2629665440424, 12.1439476482712], [-86.2627003732238, 12.143930698761], [-86.2624363583618, 12.1439495803396], [-86.2619863024044, 12.1440632210681], [-86.2618713180481, 12.1441209196265], [-86.2616170049911, 12.144271093898], [-86.2613597274938, 12.1444924910174], [-86.2610304949421, 12.1447873063325], [-86.2607818412715, 12.1449878894583], [-86.2606050528236, 12.1451463184053], [-86.2604532375405, 12.1452821772998], [-86.260310854568, 12.1449473161762], [-86.2602240773116, 12.1446936012916], [-86.2601091827867, 12.1442990210338], [-86.2599436232799, 12.1436363216044], [-86.2596416995129, 12.1435780081911], [-86.2596116957824, 12.1435723876204], [-86.2592874039648, 12.1435116151929], [-86.2589630223157, 12.14345075493], [-86.2583280930729, 12.1433245554661], [-86.257643846321, 12.1431929110068], [-86.2575171838659, 12.143240422457], [-86.2570548209892, 12.1429008163972], [-86.2567040288707, 12.1426470117408], [-86.2563710233949, 12.1424346587317], [-86.2564831331424, 12.1423196999807], [-86.2565046927092, 12.142199471868], [-86.256595602216, 12.1416933539511], [-86.2567175036, 12.1410143130971], [-86.2567561311572, 12.1407995875832], [-86.2568235946351, 12.1404237955616], [-86.2561690821191, 12.1402959260358], [-86.2555311884358, 12.1401863235363], [-86.2549488106371, 12.1400890161512], [-86.2548418212868, 12.1400711003472], [-86.2541844341618, 12.1400150695405], [-86.2540698989631, 12.1400162990568], [-86.2531559529931, 12.1399422646033], [-86.2522943788041, 12.1398584818162], [-86.251412233195, 12.1397726790814], [-86.2513066811492, 12.1406289487384], [-86.2511722931827, 12.140617356183], [-86.2504289372851, 12.1405536849415], [-86.249522986321, 12.1404758742726], [-86.2488763789795, 12.1404203704858], [-86.2486818937205, 12.140403772041], [-86.2478244517818, 12.1403301768077], [-86.2469519181463, 12.1402552642163], [-86.2469467977492, 12.1397991137038], [-86.2468496000355, 12.1394607327745], [-86.2468214827671, 12.1393506029945], [-86.2467951621293, 12.139268049541], [-86.2467622837899, 12.1391349979105], [-86.2465533356548, 12.1385882999194], [-86.2463080955822, 12.138669448415], [-86.245991349613, 12.1387743969197], [-86.2456880783731, 12.1377808534767], [-86.2455164103223, 12.1375123774314], [-86.2453937004545, 12.1373966261449], [-86.2451903218742, 12.1373277725486], [-86.2446816059288, 12.1371418501847], [-86.2444793951583, 12.137080461525], [-86.2426325487657, 12.1364382948974], [-86.242623924939, 12.1363459920998], [-86.2424694147101, 12.1361781607656], [-86.2419298865505, 12.1361147519347], [-86.2419584529765, 12.1359426170822], [-86.2420362470801, 12.1354737246928], [-86.2420720000284, 12.1349792746226], [-86.2420693050826, 12.1345201290468], [-86.2420630168756, 12.1341019089183], [-86.2420602320982, 12.1336989696269], [-86.2420584354676, 12.1334426092854], [-86.2420571778262, 12.1332628319478], [-86.2420557405218, 12.1330482758362], [-86.2420543032173, 12.1328515480175], [-86.2420541235543, 12.1328194040833], [-86.2420527760813, 12.1326369915747], [-86.2420514286084, 12.1324321835444], [-86.2420483743364, 12.1320041237137], [-86.2420357979225, 12.1315141463012], [-86.242600119584, 12.1315072959206], [-86.2432319047233, 12.1314459059628], [-86.243510831619, 12.1314561815361], [-86.244552607854, 12.1315802788133], [-86.2445646452788, 12.131407965381], [-86.2445825217529, 12.1311517784869], [-86.2446575310792, 12.1307467269199], [-86.2449962857728, 12.1302195968774], [-86.2452020898044, 12.1299389054131], [-86.2452469157371, 12.129877778572], [-86.2453520186253, 12.1297349735694], [-86.2455368919108, 12.1294838789791], [-86.2456036367364, 12.1294460259441], [-86.2455647396846, 12.1294137937732], [-86.2454020547867, 12.1292781902648], [-86.2443747414277, 12.1284621964532], [-86.2440835974441, 12.1282349894657], [-86.243980381018, 12.1281569117202], [-86.2437058558672, 12.1279492019711], [-86.2429359996687, 12.1273668233719], [-86.2427216616419, 12.1272045194729], [-86.2417126739148, 12.1264412155582], [-86.2414219790888, 12.126221296501], [-86.2409295226501, 12.1258486457036], [-86.2404595240934, 12.1254788926891], [-86.2401638885334, 12.1254257571188], [-86.2400031799291, 12.1254187309269], [-86.2399044550794, 12.1253383688437], [-86.2394649094108, 12.1249812622883], [-86.2390095533933, 12.1254002871722], [-86.2387596420813, 12.1256302192223], [-86.2381986441863, 12.1261212613746], [-86.2380983922006, 12.1259955806666], [-86.237941546352, 12.1258714807898], [-86.237791258205, 12.1258404777685], [-86.2371601018864, 12.1258485578764], [-86.2368011350988, 12.1258569014658], [-86.2366224601888, 12.1258610293468], [-86.2363566486963, 12.1258258106154], [-86.2361790517646, 12.1258022729071], [-86.2357241449047, 12.1257183978475], [-86.2349082051321, 12.125548891102], [-86.2344718933986, 12.1254911006947], [-86.2334971314839, 12.125352509059], [-86.2333234871394, 12.1253278295523], [-86.2325024269697, 12.1252110190448], [-86.2321487602424, 12.1251606939006], [-86.2319864346705, 12.1251375952711], [-86.2317075077748, 12.1250978972414], [-86.2310185897834, 12.1249998817271], [-86.2310936889412, 12.1246536653475], [-86.2303593161964, 12.1244322517449], [-86.2300526313584, 12.1253884304721], [-86.2299963069901, 12.1255631191335], [-86.2299046788311, 12.1260167470233], [-86.2290562200453, 12.1257625749764], [-86.2289449187816, 12.1263463623129], [-86.2289292880956, 12.1264353311449], [-86.2288925470005, 12.1266447107862], [-86.2288186156526, 12.1270647869786], [-86.2287362401411, 12.1275335185073], [-86.2286848565068, 12.1278261569229], [-86.2285767891781, 12.1284407668113], [-86.2285673568677, 12.1284946043919], [-86.2284796812959, 12.1289274124755], [-86.228317176061, 12.1297818726378], [-86.227197695554, 12.1296305484607], [-86.2270244105356, 12.1296064841322], [-86.2265031181763, 12.1295327102646], [-86.2264447276828, 12.1295284067884], [-86.2257039768995, 12.1294666650706], [-86.2254347518089, 12.1294320615981], [-86.2252515853224, 12.1294161650775], [-86.2251056989203, 12.1293941207296], [-86.2249952959719, 12.1292305884987], [-86.2248229092689, 12.1292023084787], [-86.2247602966936, 12.1291920328185], [-86.2246782805081, 12.1293257041962], [-86.2246256392325, 12.1293170094109], [-86.2244209131792, 12.1292825815712], [-86.2234078830333, 12.129127919716], [-86.2226709950058, 12.1290588005047], [-86.2222048592048, 12.1290162047938], [-86.222109008964, 12.1290070708673], [-86.2219139847158, 12.1289874856199], [-86.2218502941622, 12.1289826551775], [-86.2215534907923, 12.1289557803509], [-86.2211122383247, 12.1289270611705], [-86.2209633874822, 12.1289174002835], [-86.2206825741244, 12.1288991324233], [-86.2201222948816, 12.1288625966993], [-86.2195619258074, 12.1287689738836], [-86.2194162190683, 12.128745699914], [-86.2191872385024, 12.1287125015689], [-86.2185048782126, 12.1285952534124], [-86.2184377740609, 12.1285835725071], [-86.2182463430738, 12.1285518671901], [-86.2177802971044, 12.1284746678013], [-86.2175132279705, 12.1284304911217], [-86.2174056996309, 12.1284126623603], [-86.2171198557076, 12.128365323919], [-86.2169765744197, 12.1283439820958], [-86.2163967119038, 12.1282518521479], [-86.2156927022157, 12.1281833474949], [-86.2150460050426, 12.1281114175903], [-86.2149011067873, 12.1280904270528], [-86.2149440462579, 12.1278260690963], [-86.2149653363301, 12.1276924847933], [-86.2149983943326, 12.1274910982061], [-86.2150460948742, 12.127196966367], [-86.2151033175578, 12.126890011474], [-86.2151486824796, 12.1265645247265], [-86.2151970118419, 12.1262669666076], [-86.2152437242367, 12.1259796839411], [-86.2152900773053, 12.1256937183747], [-86.2153388558252, 12.1253937001167], [-86.2153976954764, 12.1250650497523], [-86.2154536605185, 12.1247641525109], [-86.2155061221311, 12.1244461285251], [-86.2155518463791, 12.1241828208895], [-86.2155901146102, 12.1239621973469], [-86.2155963129857, 12.1239152094271], [-86.2156381744779, 12.123598853161], [-86.2156940496886, 12.1232920697828], [-86.2157420197248, 12.1229765032315], [-86.2157944813374, 12.12267217833], [-86.2158318512532, 12.1223734740992], [-86.2158888044422, 12.122075472162], [-86.2159391100981, 12.1217641199444], [-86.2159521356697, 12.1216736564675], [-86.2159617476433, 12.1216071701838], [-86.2159648917468, 12.1215867061064], [-86.2160593046831, 12.1209765596946], [-86.2160986508925, 12.1207224706737], [-86.2161456327819, 12.1204193728075], [-86.2161883925894, 12.1201427989978], [-86.2162249540215, 12.119866488389], [-86.2162618747797, 12.1196215325592], [-86.2163062515547, 12.1193464510222], [-86.2163171211697, 12.1192791736938], [-86.2163585335042, 12.1190227116597], [-86.2164000356704, 12.1187654589129], [-86.2164657923492, 12.1183579293013], [-86.216555354383, 12.1178441249169], [-86.216620302578, 12.117399880944], [-86.2167175002918, 12.116797366189], [-86.216794036754, 12.1163235216324], [-86.2168014927708, 12.1162436837921], [-86.2168102962606, 12.1161513740041], [-86.216816314973, 12.11608778475], [-86.2168259269466, 12.1159865161968], [-86.2168682375965, 12.1155385802444], [-86.2169102787518, 12.115092927141], [-86.2169399231561, 12.1147793710035], [-86.2169617522175, 12.1146664204391], [-86.2170424209301, 12.1142477300217], [-86.21705652448, 12.1141748302175], [-86.2170647889806, 12.1139278490463], [-86.2170381090167, 12.1137686110648], [-86.2169876236977, 12.113466383614], [-86.2169685794137, 12.1133249751281], [-86.216930041688, 12.1130237133215], [-86.2169041702078, 12.1128462936727], [-86.2169017447566, 12.1126271538944], [-86.2169186330839, 12.1125167495371], [-86.2169876236977, 12.1120648553315], [-86.2169186330839, 12.1120125075762], [-86.216558408655, 12.112039647605], [-86.2164982215309, 12.1120472889718], [-86.2165382863926, 12.111652572565], [-86.2165844597982, 12.1111985689268], [-86.2165927242988, 12.1111166215831], [-86.2165927242988, 12.1110745500003], [-86.2165927242988, 12.1106382874974], [-86.2165841903036, 12.1102354005948], [-86.2165867055864, 12.1101848091292], [-86.2166098821207, 12.1097318569861], [-86.2166037735768, 12.1093427584488], [-86.2166068278488, 12.1091178188326], [-86.2166098821207, 12.1088842714085], [-86.2159919310368, 12.1088927033612], [-86.2158963502906, 12.1090004742329], [-86.2147164131649, 12.1090027578857], [-86.2140245307331, 12.108956821326], [-86.2135813918034, 12.1089273094975], [-86.2129584101539, 12.1088355241769], [-86.2124986523914, 12.108767805035], [-86.2115900963131, 12.1085814235986], [-86.210605093604, 12.1082999188732], [-86.2105173282008, 12.1082754134557], [-86.2101531511846, 12.1081736149406], [-86.2100227158054, 12.1081305767302], [-86.2099843577427, 12.1081479676814], [-86.2098436815692, 12.1082116466596], [-86.2096385063583, 12.1084935028098], [-86.2094855232654, 12.108991427454], [-86.2093037940835, 12.1095828929178], [-86.2092076743481, 12.1099170079647], [-86.2091168546728, 12.1102330291201], [-86.2090280112912, 12.1105418476533]]}, "type": "Feature", "properties": {"name": "195"}}, {"geometry": {"type": "Point", "coordinates": [-86.2090281011228, 12.1105418476533]}, "type": "Feature", "properties": {"name": null, "popupContent": "This is where the Rockies play!"}}, {"geometry": {"type": "Point", "coordinates": [-86.2089459052743, 12.1105021474523]}, "type": "Feature", "properties": {"name": "Terminal 195", "popupContent": "This is where the Rockies play!"}}, {"geometry": {"type": "Point", "coordinates": [-86.209485613097, 12.108991427454]}, "type": "Feature", "properties": {"name": null, "popupContent": "This is where the Rockies play!"}}, {"geometry": {"type": "Point", "coordinates": [-86.2094159038309, 12.1089781646998]}, "type": "Feature", "properties": {"name": "Entrada Villa Milagro", "popupContent": "This is where the Rockies play!"}}, {"geometry": {"type": "Point", "coordinates": [-86.2129584999854, 12.1088355241769]}, "type": "Feature", "properties": {"name": null, "popupContent": "This is where the Rockies play!"}}, {"geometry": {"type": "Point", "coordinates": [-86.2129675729698, 12.10881137014]}, "type": "Feature", "properties": {"name": "Bloquera", "popupContent": "This is where the Rockies play!"}}, {"geometry": {"type": "Point", "coordinates": [-86.2166069176803, 12.1091178188326]}, "type": "Feature", "properties": {"name": null, "popupContent": "This is where the Rockies play!"}}, {"geometry": {"type": "Point", "coordinates": [-86.2166300043831, 12.1091171161705]}, "type": "Feature", "properties": {"name": "Barber Shop", "popupContent": "This is where the Rockies play!"}}, {"geometry": {"type": "Point", "coordinates": [-86.2165845496297, 12.1111985689268]}, "type": "Feature", "properties": {"name": null, "popupContent": "This is where the Rockies play!"}}, {"geometry": {"type": "Point", "coordinates": [-86.2166035040822, 12.11120208221]}, "type": "Feature", "properties": {"name": "Agencia Z Gas", "popupContent": "This is where the Rockies play!"}}, {"geometry": {"type": "Point", "coordinates": [-86.2170425107616, 12.1142477300217]}, "type": "Feature", "properties": {"name": null, "popupContent": "This is where the Rockies play!"}}, {"geometry": {"type": "Point", "coordinates": [-86.217102248728, 12.1142529998863]}, "type": "Feature", "properties": {"name": "Pulper\u00eda Kevin", "popupContent": "This is where the Rockies play!"}}, {"geometry": {"type": "Point", "coordinates": [-86.2168164048046, 12.11608778475]}, "type": "Feature", "properties": {"name": null, "popupContent": "This is where the Rockies play!"}}, {"geometry": {"type": "Point", "coordinates": [-86.2168853055869, 12.1160922641041]}, "type": "Feature", "properties": {"name": "Panader\u00eda Maritza Luc\u00eda", "popupContent": "This is where the Rockies play!"}}, {"geometry": {"type": "Point", "coordinates": [-86.2163586233358, 12.1190227116597]}, "type": "Feature", "properties": {"name": null, "popupContent": "This is where the Rockies play!"}}, {"geometry": {"type": "Point", "coordinates": [-86.2164408191843, 12.1190510805886]}, "type": "Feature", "properties": {"name": "Agencia Tropig\u00e1s", "popupContent": "This is where the Rockies play!"}}, {"geometry": {"type": "Point", "coordinates": [-86.2159649815783, 12.1215867061064]}, "type": "Feature", "properties": {"name": null, "popupContent": "This is where the Rockies play!"}}, {"geometry": {"type": "Point", "coordinates": [-86.2160028006517, 12.1215901314242]}, "type": "Feature", "properties": {"name": "Panader\u00eda San Jos\u00e9", "popupContent": "This is where the Rockies play!"}}, {"geometry": {"type": "Point", "coordinates": [-86.2155519362106, 12.1241828208895]}, "type": "Feature", "properties": {"name": null, "popupContent": "This is where the Rockies play!"}}, {"geometry": {"type": "Point", "coordinates": [-86.2155949655128, 12.1241936237095]}, "type": "Feature", "properties": {"name": "Colegio Villa Venezuela Oeste", "popupContent": "This is where the Rockies play!"}}, {"geometry": {"type": "Point", "coordinates": [-86.2149654261616, 12.1276924847933]}, "type": "Feature", "properties": {"name": null, "popupContent": "This is where the Rockies play!"}}, {"geometry": {"type": "Point", "coordinates": [-86.2150311828404, 12.1276840534347]}, "type": "Feature", "properties": {"name": "Sem\u00e1foro Iv\u00e1n Montenegro", "popupContent": "This is where the Rockies play!"}}, {"geometry": {"type": "Point", "coordinates": [-86.2195620156389, 12.1287689738836]}, "type": "Feature", "properties": {"name": null, "popupContent": "This is where the Rockies play!"}}, {"geometry": {"type": "Point", "coordinates": [-86.2196043262888, 12.1286691153657]}, "type": "Feature", "properties": {"name": "Frente a Telerepuestos Electr\u00f3nicos", "popupContent": "This is where the Rockies play!"}}, {"geometry": {"type": "Point", "coordinates": [-86.2219140745474, 12.1289874856199]}, "type": "Feature", "properties": {"name": null, "popupContent": "This is where the Rockies play!"}}, {"geometry": {"type": "Point", "coordinates": [-86.2219242255101, 12.1288759462914]}, "type": "Feature", "properties": {"name": "Primero de Mayo", "popupContent": "This is where the Rockies play!"}}, {"geometry": {"type": "Point", "coordinates": [-86.2248229991004, 12.1292023084787]}, "type": "Feature", "properties": {"name": null, "popupContent": "This is where the Rockies play!"}}, {"geometry": {"type": "Point", "coordinates": [-86.2248291076443, 12.1291331014605]}, "type": "Feature", "properties": {"name": "Conchita Palacios", "popupContent": "This is where the Rockies play!"}}, {"geometry": {"type": "Point", "coordinates": [-86.233323576971, 12.1253278295523]}, "type": "Feature", "properties": {"name": null, "popupContent": "This is where the Rockies play!"}}, {"geometry": {"type": "Point", "coordinates": [-86.2333309431563, 12.125284969763]}, "type": "Feature", "properties": {"name": "Colegio 14 de Septiembre", "popupContent": "This is where the Rockies play!"}}, {"geometry": {"type": "Point", "coordinates": [-86.2368012249304, 12.1258569014658]}, "type": "Feature", "properties": {"name": null, "popupContent": "This is where the Rockies play!"}}, {"geometry": {"type": "Point", "coordinates": [-86.2368067046536, 12.1258228244884]}, "type": "Feature", "properties": {"name": "Farmacia Valle", "popupContent": "This is where the Rockies play!"}}, {"geometry": {"type": "Point", "coordinates": [-86.2399045449109, 12.1253383688437]}, "type": "Feature", "properties": {"name": null, "popupContent": "This is where the Rockies play!"}}, {"geometry": {"type": "Point", "coordinates": [-86.2399301468965, 12.1253059605213]}, "type": "Feature", "properties": {"name": "Comedor Liliam", "popupContent": "This is where the Rockies play!"}}, {"geometry": {"type": "Point", "coordinates": [-86.2417127637463, 12.1264412155582]}, "type": "Feature", "properties": {"name": null, "popupContent": "This is where the Rockies play!"}}, {"geometry": {"type": "Point", "coordinates": [-86.2417919053228, 12.126369724319]}, "type": "Feature", "properties": {"name": "Audi Huembes", "popupContent": "This is where the Rockies play!"}}, {"geometry": {"type": "Point", "coordinates": [-86.2452021796359, 12.1299389054131]}, "type": "Feature", "properties": {"name": null, "popupContent": "This is where the Rockies play!"}}, {"geometry": {"type": "Point", "coordinates": [-86.2452429631498, 12.1299702592616]}, "type": "Feature", "properties": {"name": "Colegio Rep\u00fablica de Colombia", "popupContent": "This is where the Rockies play!"}}, {"geometry": {"type": "Point", "coordinates": [-86.2445647351103, 12.131407965381]}, "type": "Feature", "properties": {"name": null, "popupContent": "This is where the Rockies play!"}}, {"geometry": {"type": "Point", "coordinates": [-86.2446395647735, 12.1314150792405]}, "type": "Feature", "properties": {"name": "Farmacia San Miguel", "popupContent": "This is where the Rockies play!"}}, {"geometry": {"type": "Point", "coordinates": [-86.2435109214505, 12.1314561815361]}, "type": "Feature", "properties": {"name": null, "popupContent": "This is where the Rockies play!"}}, {"geometry": {"type": "Point", "coordinates": [-86.2435084061677, 12.1314984255556]}, "type": "Feature", "properties": {"name": "Parque Colombia", "popupContent": "This is where the Rockies play!"}}, {"geometry": {"type": "Point", "coordinates": [-86.2420542133858, 12.1328194040833]}, "type": "Feature", "properties": {"name": null, "popupContent": "This is where the Rockies play!"}}, {"geometry": {"type": "Point", "coordinates": [-86.2420901459972, 12.1328151884851]}, "type": "Feature", "properties": {"name": "Leche Agria 10 de Junio", "popupContent": "This is where the Rockies play!"}}, {"geometry": {"type": "Point", "coordinates": [-86.241958542808, 12.1359426170822]}, "type": "Feature", "properties": {"name": null, "popupContent": "This is where the Rockies play!"}}, {"geometry": {"type": "Point", "coordinates": [-86.2419842346251, 12.1359486769334]}, "type": "Feature", "properties": {"name": "Sastrer\u00eda Estilo y La Moda", "popupContent": "This is where the Rockies play!"}}, {"geometry": {"type": "Point", "coordinates": [-86.2444794849899, 12.137080461525]}, "type": "Feature", "properties": {"name": null, "popupContent": "This is where the Rockies play!"}}, {"geometry": {"type": "Point", "coordinates": [-86.2444939478659, 12.1370451564524]}, "type": "Feature", "properties": {"name": "Billares Mario Piquete", "popupContent": "This is where the Rockies play!"}}, {"geometry": {"type": "Point", "coordinates": [-86.2463081854137, 12.138669448415]}, "type": "Feature", "properties": {"name": null, "popupContent": "This is where the Rockies play!"}}, {"geometry": {"type": "Point", "coordinates": [-86.2463014480491, 12.1386390616436]}, "type": "Feature", "properties": {"name": "Sem\u00e1foro El Paraisito", "popupContent": "This is where the Rockies play!"}}, {"geometry": {"type": "Point", "coordinates": [-86.248876468811, 12.1404203704858]}, "type": "Feature", "properties": {"name": null, "popupContent": "This is where the Rockies play!"}}, {"geometry": {"type": "Point", "coordinates": [-86.2488828468496, 12.1403782157033]}, "type": "Feature", "properties": {"name": "Taller Changai", "popupContent": "This is where the Rockies play!"}}, {"geometry": {"type": "Point", "coordinates": [-86.2511723830142, 12.140617356183]}, "type": "Feature", "properties": {"name": null, "popupContent": "This is where the Rockies play!"}}, {"geometry": {"type": "Point", "coordinates": [-86.2511739101502, 12.1405607985568]}, "type": "Feature", "properties": {"name": "Iglesia Morava", "popupContent": "This is where the Rockies play!"}}, {"geometry": {"type": "Point", "coordinates": [-86.2549489004686, 12.1400890161512]}, "type": "Feature", "properties": {"name": null, "popupContent": "This is where the Rockies play!"}}, {"geometry": {"type": "Point", "coordinates": [-86.2549565361485, 12.1400329853483]}, "type": "Feature", "properties": {"name": "Central de Azulejos", "popupContent": "This is where the Rockies play!"}}, {"geometry": {"type": "Point", "coordinates": [-86.2567562209887, 12.1407995875832]}, "type": "Feature", "properties": {"name": null, "popupContent": "This is where the Rockies play!"}}, {"geometry": {"type": "Point", "coordinates": [-86.2568008672584, 12.1407780711111]}, "type": "Feature", "properties": {"name": "Frente a Club de billares", "popupContent": "This is where the Rockies play!"}}, {"geometry": {"type": "Point", "coordinates": [-86.2567041187023, 12.1426470117408]}, "type": "Feature", "properties": {"name": null, "popupContent": "This is where the Rockies play!"}}, {"geometry": {"type": "Point", "coordinates": [-86.256719030736, 12.1426300621478]}, "type": "Feature", "properties": {"name": "Autoservicios Mayorga", "popupContent": "This is where the Rockies play!"}}, {"geometry": {"type": "Point", "coordinates": [-86.2592874937964, 12.1435116151929]}, "type": "Feature", "properties": {"name": null, "popupContent": "This is where the Rockies play!"}}, {"geometry": {"type": "Point", "coordinates": [-86.2592912667205, 12.1434856200462]}, "type": "Feature", "properties": {"name": "Taller Lacayo", "popupContent": "This is where the Rockies play!"}}, {"geometry": {"type": "Point", "coordinates": [-86.2616170948226, 12.144271093898]}, "type": "Feature", "properties": {"name": null, "popupContent": "This is where the Rockies play!"}}, {"geometry": {"type": "Point", "coordinates": [-86.2615674179874, 12.144194425991]}, "type": "Feature", "properties": {"name": "Funeraria La Cat\u00f3lica y La Auxiliadora", "popupContent": "This is where the Rockies play!"}}, {"geometry": {"type": "Point", "coordinates": [-86.2648167142016, 12.1436754021227]}, "type": "Feature", "properties": {"name": null, "popupContent": "This is where the Rockies play!"}}, {"geometry": {"type": "Point", "coordinates": [-86.2647581440451, 12.1436589795236]}, "type": "Feature", "properties": {"name": "Ministerio de Defensa", "popupContent": "This is where the Rockies play!"}}, {"geometry": {"type": "Point", "coordinates": [-86.2654823658272, 12.1402126702951]}, "type": "Feature", "properties": {"name": null, "popupContent": "This is where the Rockies play!"}}, {"geometry": {"type": "Point", "coordinates": [-86.2654289160677, 12.1402037123974]}, "type": "Feature", "properties": {"name": "Cruz Azul", "popupContent": "This is where the Rockies play!"}}, {"geometry": {"type": "Point", "coordinates": [-86.2659253250938, 12.1371270080065]}, "type": "Feature", "properties": {"name": null, "popupContent": "This is where the Rockies play!"}}, {"geometry": {"type": "Point", "coordinates": [-86.265880319498, 12.1371326287131]}, "type": "Feature", "properties": {"name": "Colegio Sim\u00f3n Bol\u00edvar", "popupContent": "This is where the Rockies play!"}}, {"geometry": {"type": "Point", "coordinates": [-86.2663492400763, 12.1345826600133]}, "type": "Feature", "properties": {"name": null, "popupContent": "This is where the Rockies play!"}}, {"geometry": {"type": "Point", "coordinates": [-86.2663469044566, 12.134555697927]}, "type": "Feature", "properties": {"name": "Catedral Noreste", "popupContent": "This is where the Rockies play!"}}, {"geometry": {"type": "Point", "coordinates": [-86.2667239273813, 12.1305837224729]}, "type": "Feature", "properties": {"name": null, "popupContent": "This is where the Rockies play!"}}, {"geometry": {"type": "Point", "coordinates": [-86.2666902405582, 12.1305925928684]}, "type": "Feature", "properties": {"name": "Catedral Oeste", "popupContent": "This is where the Rockies play!"}}, {"geometry": {"type": "Point", "coordinates": [-86.2725699835873, 12.1260805095652]}, "type": "Feature", "properties": {"name": null, "popupContent": "This is where the Rockies play!"}}, {"geometry": {"type": "Point", "coordinates": [-86.2725067421913, 12.1259882031808]}, "type": "Feature", "properties": {"name": "UCA", "popupContent": "This is where the Rockies play!"}}, {"geometry": {"type": "Point", "coordinates": [-86.2768590797429, 12.124291727348]}, "type": "Feature", "properties": {"name": null, "popupContent": "This is where the Rockies play!"}}, {"geometry": {"type": "Point", "coordinates": [-86.2768492881063, 12.1241589317249]}, "type": "Feature", "properties": {"name": "ENEL Central", "popupContent": "This is where the Rockies play!"}}, {"geometry": {"type": "Point", "coordinates": [-86.2810481934073, 12.1289608742725]}, "type": "Feature", "properties": {"name": null, "popupContent": "This is where the Rockies play!"}}, {"geometry": {"type": "Point", "coordinates": [-86.2810983194002, 12.1289882760559]}, "type": "Feature", "properties": {"name": "El Centro", "popupContent": "This is where the Rockies play!"}}, {"geometry": {"type": "Point", "coordinates": [-86.2813396068855, 12.1335097952158]}, "type": "Feature", "properties": {"name": null, "popupContent": "This is where the Rockies play!"}}, {"geometry": {"type": "Point", "coordinates": [-86.2813790429265, 12.1335106734631]}, "type": "Feature", "properties": {"name": "Plaza Espa\u00f1a Este", "popupContent": "This is where the Rockies play!"}}, {"geometry": {"type": "Point", "coordinates": [-86.2814907933478, 12.1366250959893]}, "type": "Feature", "properties": {"name": null, "popupContent": "This is where the Rockies play!"}}, {"geometry": {"type": "Point", "coordinates": [-86.281549812662, 12.1366113954906]}, "type": "Feature", "properties": {"name": "Economart", "popupContent": "This is where the Rockies play!"}}, {"geometry": {"type": "Point", "coordinates": [-86.282857310558, 12.1407261681039]}, "type": "Feature", "properties": {"name": null, "popupContent": "This is where the Rockies play!"}}, {"geometry": {"type": "Point", "coordinates": [-86.282934835167, 12.1407433812851]}, "type": "Feature", "properties": {"name": "Canal 2", "popupContent": "This is where the Rockies play!"}}, {"geometry": {"type": "Point", "coordinates": [-86.2823986307739, 12.1453555955228]}, "type": "Feature", "properties": {"name": null, "popupContent": "This is where the Rockies play!"}}, {"geometry": {"type": "Point", "coordinates": [-86.2824894504492, 12.1453600743851]}, "type": "Feature", "properties": {"name": "Venta y Compra de Veh\u00edculos", "popupContent": "This is where the Rockies play!"}}, {"geometry": {"type": "Point", "coordinates": [-86.2819607020729, 12.149843904608]}, "type": "Feature", "properties": {"name": null, "popupContent": "This is where the Rockies play!"}}, {"geometry": {"type": "Point", "coordinates": [-86.2820456826988, 12.1498446949821]}, "type": "Feature", "properties": {"name": "Estadio Nacional", "popupContent": "This is where the Rockies play!"}}, {"geometry": {"type": "Point", "coordinates": [-86.2824254904009, 12.1540767635198]}, "type": "Feature", "properties": {"name": null, "popupContent": "This is where the Rockies play!"}}, {"geometry": {"type": "Point", "coordinates": [-86.282481096117, 12.154086686948]}, "type": "Feature", "properties": {"name": "MITRAB", "popupContent": "This is where the Rockies play!"}}, {"geometry": {"type": "Point", "coordinates": [-86.2821279683788, 12.1570514043447]}, "type": "Feature", "properties": {"name": null, "popupContent": "This is where the Rockies play!"}}, {"geometry": {"type": "Point", "coordinates": [-86.2821685722297, 12.1570479794829]}, "type": "Feature", "properties": {"name": "Vulcanizaci\u00f3n", "popupContent": "This is where the Rockies play!"}}, {"geometry": {"type": "Point", "coordinates": [-86.2819100370909, 12.1572251940697]}, "type": "Feature", "properties": {"name": null, "popupContent": "This is where the Rockies play!"}}, {"geometry": {"type": "Point", "coordinates": [-86.2819082404603, 12.1572705954091]}, "type": "Feature", "properties": {"name": "Cine Blanco", "popupContent": "This is where the Rockies play!"}}, {"geometry": {"type": "Point", "coordinates": [-86.2776027051351, 12.1569217864669]}, "type": "Feature", "properties": {"name": null, "popupContent": "This is where the Rockies play!"}}, {"geometry": {"type": "Point", "coordinates": [-86.2775779116332, 12.1569519077002]}, "type": "Feature", "properties": {"name": "Parque San Sebasti\u00e1n", "popupContent": "This is where the Rockies play!"}}]}