{"type": "FeatureCollection", "features": [{"geometry": {"type": "MultiLineString", "coordinates": [[[-86.2968340184006, 12.1020507889126], [-86.2950491557625, 12.1019750750555], [-86.29410215179, 12.1019474069933], [-86.2927827961322, 12.1018985706608], [-86.2921818232072, 12.1018762605346], [-86.2917517098491, 12.1018603623727], [-86.2915845333748, 12.1018542139121], [-86.2915894741088, 12.1016721315775], [-86.2916061827731, 12.1010702840201], [-86.2914940730256, 12.100442172259], [-86.2914219383083, 12.1001717262565], [-86.291343515384, 12.0996007057207], [-86.2912977911361, 12.0994086085518], [-86.2910403339756, 12.0987136495568], [-86.2918938233271, 12.0984446071856], [-86.2919931769975, 12.098409824019], [-86.2927092241105, 12.0981593148162], [-86.2933958963137, 12.0978487252402], [-86.2940396290463, 12.0977647535621], [-86.2948120903591, 12.0976054181088], [-86.2957061835614, 12.0975253990002], [-86.2961940585922, 12.0975885534907], [-86.2967519123836, 12.0975046695675], [-86.2972914405432, 12.0973017669846]], [[-86.2381078245111, 12.1374833078794], [-86.2390391977977, 12.137590188966], [-86.2390566251142, 12.1374270130581], [-86.2390755795667, 12.1372489948788], [-86.2391344192178, 12.1366971992436], [-86.239233054236, 12.135816326237], [-86.2393269281832, 12.135032496113], [-86.2393413012278, 12.1349431788533], [-86.2393706761375, 12.1346554664152], [-86.2393835220461, 12.1345502528148], [-86.2396429555002, 12.1324160237274], [-86.2397022443089, 12.1319278035773], [-86.2397698874498, 12.1315017629206], [-86.2404337424448, 12.1315068567936], [-86.2406017274029, 12.1315086133015], [-86.2412631569466, 12.1315152880313], [-86.2413491257193, 12.1315152002059], [-86.2420357979225, 12.1315141463012], [-86.242600119584, 12.1315072959206], [-86.2432319047233, 12.1314459059628], [-86.243510831619, 12.1314561815361], [-86.244552607854, 12.1315802788133], [-86.2445646452788, 12.131407965381], [-86.2445825217529, 12.1311517784869], [-86.2446575310792, 12.1307467269199], [-86.2449962857728, 12.1302195968774], [-86.2452020898044, 12.1299389054131], [-86.2452469157371, 12.129877778572], [-86.2453520186253, 12.1297349735694], [-86.2455368919108, 12.1294838789791], [-86.2456036367364, 12.1294460259441], [-86.2455647396846, 12.1294137937732], [-86.2454020547867, 12.1292781902648], [-86.2443747414277, 12.1284621964532], [-86.2440835974441, 12.1282349894657], [-86.2441962461808, 12.1280900757467], [-86.2443634226551, 12.1278911486043], [-86.2446533089973, 12.127559603037], [-86.2448529146535, 12.1273289700363], [-86.2449259476861, 12.127250277238], [-86.2450433574937, 12.1270428302632], [-86.2451767573134, 12.1269151299706], [-86.245317792813, 12.1267569536638], [-86.2454375382404, 12.1266018512086], [-86.2454662843295, 12.1265524924242], [-86.2455426411286, 12.1264405129416], [-86.2456179199494, 12.1262854981294], [-86.2457813234996, 12.1255750636531], [-86.2457997389629, 12.1254887293555], [-86.2459113995527, 12.1250063809648], [-86.2459809291557, 12.1246578810748], [-86.2459837139331, 12.1244440206598], [-86.2459661967851, 12.1243050771689], [-86.2459126571941, 12.1242053926349], [-86.2458977451604, 12.1241128221181], [-86.245809620431, 12.1239872282914], [-86.2456637340289, 12.1238056001914], [-86.2456207945583, 12.1237522008038], [-86.2453964852319, 12.1234883655149], [-86.2451836743411, 12.1232380554956], [-86.2449956569521, 12.1230068039602], [-86.2449330443768, 12.1229333795797], [-86.244822910923, 12.1228042720673], [-86.2444277420295, 12.122333951315], [-86.2443641413074, 12.1222130993874], [-86.2443239866142, 12.1221090226472], [-86.2443625243399, 12.1219771920513], [-86.2447873376377, 12.1216227158553], [-86.2452565277106, 12.1212760559485], [-86.245381034209, 12.1211840992166], [-86.2454447247626, 12.1211332463398], [-86.2467131459438, 12.1202006783929], [-86.2469476960645, 12.1200230878569], [-86.2477482746457, 12.1194285714979], [-86.2485218139369, 12.1188492483291], [-86.2485917926975, 12.1187994489623], [-86.2492046233843, 12.1183502002854], [-86.2498701851783, 12.1178619543847], [-86.2510397916783, 12.1170317849922], [-86.2512119088867, 12.116997970378], [-86.2514330741096, 12.1170282717858], [-86.251522725975, 12.1171306817354], [-86.2516982567815, 12.117347622065], [-86.2518141394531, 12.1175046621612], [-86.2520545286232, 12.1178213769734], [-86.2523530387921, 12.1182242524267], [-86.2524911996828, 12.1184172143589], [-86.2525477935457, 12.1185891848663], [-86.2525562377094, 12.1189452460243], [-86.252539349382, 12.1195253594487], [-86.2525300967346, 12.1204865620194], [-86.2525280306095, 12.1208398101203], [-86.2525225508862, 12.1211749650218], [-86.25252982724, 12.1214860544409], [-86.252562975074, 12.121900254245], [-86.2525822888526, 12.1219962508423], [-86.2527021241115, 12.122411064653], [-86.2527601552789, 12.1226411749368], [-86.252940716651, 12.1233592582711], [-86.2530785182156, 12.1239167025013], [-86.2532526117176, 12.1245087496823], [-86.2534044270006, 12.1247754822731], [-86.2535160875905, 12.124921276069], [-86.2536997032345, 12.1250949989337], [-86.2542011428261, 12.1254341007214], [-86.2545893946919, 12.125681422551], [-86.2547098587715, 12.1258094747435], [-86.2551781505291, 12.1261328545606], [-86.2554816014321, 12.1263481188548], [-86.2556259606983, 12.1264075777908], [-86.255691537714, 12.126474414186], [-86.2558521564868, 12.1266908199553], [-86.2560738606989, 12.1272170787067], [-86.2561096136472, 12.1273117559887], [-86.2562468762227, 12.1278404726595], [-86.2562390608797, 12.1281412786031], [-86.2562346591348, 12.1283090271717], [-86.2562255861504, 12.1283906179295], [-86.2561838144897, 12.1287673051839], [-86.2561694414452, 12.1291829867241], [-86.2561938756209, 12.1293510859417], [-86.2562443609398, 12.129545796345], [-86.2562821800133, 12.129698350134], [-86.2563539554045, 12.1298408916783], [-86.2563613215898, 12.1299861557491], [-86.2563830608197, 12.130041925187], [-86.2566388111811, 12.1305492947968], [-86.2567075323003, 12.1306732168449], [-86.2568299726736, 12.1308941861371], [-86.2569027362116, 12.1310374296463], [-86.2571160860916, 12.131529427919], [-86.2572267585346, 12.132034599067], [-86.2572571215912, 12.1323396158838], [-86.2572547859714, 12.1324824194909], [-86.2571974734563, 12.1326138935929], [-86.2572206499906, 12.1327610883022], [-86.2572732014348, 12.1328454002708], [-86.2573367123254, 12.1329138159008], [-86.2574167522172, 12.1329437642006], [-86.2575104465013, 12.1330760284989], [-86.2575949779695, 12.1332814508082], [-86.2577586510143, 12.1337793291898], [-86.2578095854909, 12.1338805909871], [-86.2578187483068, 12.1339140521623], [-86.2578766896426, 12.134125972841], [-86.2579755941554, 12.1344729673389], [-86.2581862490895, 12.1352123600808], [-86.2583532459009, 12.1357984979696], [-86.2584807168397, 12.1362935612862], [-86.2585232071526, 12.1364585821874], [-86.2586415152755, 12.1369200078368], [-86.2587095177425, 12.1371851471851], [-86.2587608115453, 12.1373839795673], [-86.2587812931337, 12.1374638989018], [-86.2588951995118, 12.1378786008214], [-86.2589119980076, 12.1379957570706], [-86.2590001227369, 12.1383075294467], [-86.2590413554085, 12.1384375076817], [-86.2590796236396, 12.1384843173953], [-86.25915840589, 12.1387701814158], [-86.2592118556494, 12.1389639188847], [-86.259370228634, 12.139496388818], [-86.2595021911492, 12.1400397476872], [-86.2595355186463, 12.1402116164248], [-86.2595663308605, 12.1404193166163], [-86.2596153788751, 12.1407508461847], [-86.2596875135924, 12.1411084585439], [-86.2597304530629, 12.1415722473348], [-86.2597756383217, 12.1421515211228], [-86.2597818366972, 12.1422991496717], [-86.2597869570943, 12.1429239134871], [-86.259713295241, 12.1430222736956], [-86.2596116957824, 12.1435723876204], [-86.2595207862756, 12.1441905618576], [-86.2594323022201, 12.1447047545643], [-86.2598726563724, 12.1449993061816], [-86.2602547098628, 12.1452974581278], [-86.2603148969868, 12.145329161452], [-86.2603456193695, 12.1453353967314], [-86.2603806536656, 12.1453331133897], [-86.2604532375405, 12.1452821772998], [-86.2606050528236, 12.1451463184053], [-86.2607818412715, 12.1449878894583], [-86.2610304949421, 12.1447873063325], [-86.2613597274938, 12.1444924910174], [-86.2616170049911, 12.144271093898], [-86.2618713180481, 12.1441209196265], [-86.2619863024044, 12.1440632210681], [-86.2624363583618, 12.1439495803396], [-86.2627003732238, 12.143930698761], [-86.2629665440424, 12.1439476482712], [-86.2631401883869, 12.1439580111836], [-86.2635961732251, 12.1440639236381], [-86.2638890240077, 12.1441110836479], [-86.2640987806266, 12.1441210074477], [-86.2644362776788, 12.144077799396], [-86.264742154033, 12.144042495251], [-86.2648837285218, 12.1440255457469], [-86.2652515886307, 12.1439999897568], [-86.2654440975961, 12.1439840941054], [-86.2656265454303, 12.1439724138747], [-86.2664875806301, 12.1441090637593], [-86.266746654758, 12.144153852588], [-86.267129157406, 12.1442200697836], [-86.2672873507275, 12.1442474699977], [-86.2678954203434, 12.1443526797678], [-86.2684273128231, 12.1444447163273], [-86.2692119912238, 12.1445883038351], [-86.2700418548832, 12.1447361066751], [-86.2701287219712, 12.1447745722848], [-86.2701863938125, 12.1448002160216], [-86.2704014504915, 12.1449481943859], [-86.2706332158348, 12.1452335245427], [-86.2708365944151, 12.1453896700023], [-86.2713108150536, 12.1456051822016], [-86.2716224406256, 12.1456697304425], [-86.2721212751029, 12.1456371489514], [-86.272300309339, 12.1455644333721], [-86.2724848232984, 12.1455014658797], [-86.2725589343093, 12.1454508811052], [-86.2727350939365, 12.1453483942148], [-86.2728511562713, 12.1452964920984], [-86.2730189615663, 12.1452978094112], [-86.2732033856942, 12.1453182716679], [-86.2733125310012, 12.1453347819856], [-86.2734647954418, 12.1453627968307], [-86.273631253264, 12.1454098687896], [-86.2737439918321, 12.1454628247333], [-86.2737682463448, 12.1454741536155], [-86.273861940629, 12.1455370332935], [-86.2739696486315, 12.1456423303748], [-86.274046903746, 12.1457213690239], [-86.2741396098833, 12.1458121756208], [-86.2742015936379, 12.145888316138], [-86.2743513427957, 12.1460751984223], [-86.2744126078981, 12.1461668831041], [-86.2744791730607, 12.1462208049232], [-86.2745767301005, 12.1462600607033], [-86.2746459902089, 12.1462792933988], [-86.2747864867194, 12.1462449555716], [-86.2748867387051, 12.1461733818255], [-86.2750105265512, 12.1461061112687], [-86.2751747385852, 12.1460153925928], [-86.2755493360586, 12.1458760212462], [-86.2758039186102, 12.1457769595265], [-86.2764701092249, 12.1458861206216], [-86.2778475858815, 12.1461134881975], [-86.2779939214413, 12.1461432593721], [-86.2787478774593, 12.1462972087851], [-86.2793581030318, 12.146403471591], [-86.2802870508671, 12.146571384302], [-86.2811745863678, 12.146721732832], [-86.2822651411227, 12.1469079997891], [-86.282351559053, 12.1459002597465], [-86.2823985409424, 12.1453555955228], [-86.2824427380544, 12.144844214345], [-86.2824980742759, 12.1443148288453], [-86.2825370611592, 12.1439424668148], [-86.2826148552628, 12.1432788004613], [-86.2827014528562, 12.1422906309533], [-86.2827545432895, 12.1417248820604], [-86.2827842775254, 12.1414033654278], [-86.2828572207265, 12.1407261681039], [-86.2828812955761, 12.14050248447], [-86.2829391470804, 12.1399783596953], [-86.2829739118819, 12.1396391007667], [-86.2829828052032, 12.1393309306845], [-86.2829690609794, 12.1391069824102], [-86.282920551954, 12.1388486073438], [-86.2828617123029, 12.1386172815278], [-86.2826983985843, 12.138203985929], [-86.2825124473204, 12.1379109197919], [-86.2822346882346, 12.1375828996246], [-86.2820673320972, 12.137376251103], [-86.2819692360681, 12.1372679647546], [-86.2816103591121, 12.1368088231226], [-86.2814907035163, 12.1366250959893], [-86.2814495606763, 12.1365617750885], [-86.2813166100142, 12.1362889066239], [-86.2812644178962, 12.1361504962498], [-86.2812649568854, 12.1360113832126], [-86.2812298327578, 12.1357992005614], [-86.2812297429262, 12.1355173732606], [-86.2813020573066, 12.1353539326108], [-86.281357034202, 12.13526189291], [-86.2814785762599, 12.1352152582785], [-86.2816846497861, 12.1351480727781], [-86.2822867006895, 12.1350465479898], [-86.2823248790891, 12.1350405759422], [-86.2826543811353, 12.1349886718172], [-86.2829891832417, 12.1349551229527], [-86.2832123247583, 12.134904799648], [-86.2833109597765, 12.1349004084342], [-86.2835348199453, 12.1348991788943], [-86.2838061111611, 12.1349180611132], [-86.2840093999099, 12.1349646079724], [-86.2841569032796, 12.1350079053267], [-86.2842805114626, 12.1350663084404], [-86.2844659237373, 12.135158962978], [-86.2851083988285, 12.1355276486769], [-86.2852413494905, 12.1356001035244], [-86.2862254538843, 12.1361363566073], [-86.286418861165, 12.136241833053], [-86.2869145515387, 12.1365278751271], [-86.2873839212747, 12.1367988112267], [-86.2874346760882, 12.1368302520917], [-86.2876546735013, 12.1369550494551], [-86.287710728375, 12.1369862268309], [-86.2878498774126, 12.1370681662266], [-86.2881144312637, 12.1372058735358], [-86.2883069402291, 12.1373219761991], [-86.2883531136347, 12.1371307844187], [-86.2883885072569, 12.1369768297068], [-86.2884293806024, 12.1366613671782], [-86.2884443824676, 12.1365453520507], [-86.2884520181475, 12.1363062079156], [-86.2884273144772, 12.1360502892019], [-86.2884273144772, 12.1358129889259], [-86.2884767218178, 12.1354605510793], [-86.2885411310237, 12.1351621246489], [-86.2886492881839, 12.1349155142093], [-86.2888029000975, 12.1346688157171], [-86.2890892830101, 12.1343666119486], [-86.2893567114701, 12.1340680086439], [-86.2897227749484, 12.1335468572512], [-86.289917529702, 12.1332441252614], [-86.2900462582822, 12.1329924192024], [-86.290173549558, 12.1327482658546], [-86.2903070392092, 12.1323955604795], [-86.290374323024, 12.132110567872], [-86.2903987571997, 12.131800808227], [-86.2904118726029, 12.1313642283147], [-86.2904383729038, 12.1309973811929], [-86.2904337914958, 12.1306663664426], [-86.2904542730843, 12.1304367022127], [-86.2905147297029, 12.1301945665179], [-86.2905946797632, 12.1299763192487], [-86.2907195455877, 12.1297531535463], [-86.290834529944, 12.1295396485221], [-86.2909906571404, 12.1293328181113], [-86.2911924187532, 12.1290773318325], [-86.2913884311482, 12.1287990104753], [-86.2914594878872, 12.1286721892872], [-86.2915433905347, 12.1284528868549], [-86.2916234304266, 12.1282107493582], [-86.291669244506, 12.12805257382], [-86.2917170348792, 12.1278303726], [-86.2917713829539, 12.1273449545082], [-86.2918314802464, 12.1269254057186], [-86.2918830435437, 12.1264637871125], [-86.291893643664, 12.1263812296672], [-86.2919386492598, 12.1260306237211], [-86.2925473476963, 12.1260142878616], [-86.2938064263985, 12.125970725565], [-86.2940948754362, 12.1259535114296], [-86.2944516862671, 12.125929007633], [-86.2950539168336, 12.1258767504248], [-86.2952617869903, 12.1258587458381], [-86.2956076383747, 12.1258287967425], [-86.2958192814556, 12.1258093869162], [-86.2963948320582, 12.1257582714393], [-86.2971655865719, 12.1256698293454], [-86.2971468117825, 12.1255865690356], [-86.2971359421676, 12.1255050652471], [-86.2971133944539, 12.1253641901058], [-86.2971095316982, 12.1253396862551], [-86.2971050401218, 12.1253114058224], [-86.2970709939725, 12.1250989511715], [-86.297018891686, 12.1247087332797], [-86.2969931100374, 12.1244652749674], [-86.2970275155128, 12.1241967855104], [-86.2970704549833, 12.1238526759584], [-86.2971219284491, 12.1235170852811], [-86.2971647780882, 12.1232066130275], [-86.2972849726732, 12.1227283006107], [-86.2973451597972, 12.1223170882587], [-86.2974223250801, 12.1218891000178], [-86.2974967954172, 12.1214528551921], [-86.2976369326015, 12.1210080024256], [-86.2977741951769, 12.1206471134271], [-86.2978342924694, 12.1204540652785], [-86.2978599842866, 12.1201855717842], [-86.2978768726139, 12.12012725324], [-86.2979315800147, 12.119938332688], [-86.2978253093166, 12.1198959111788], [-86.2975850099781, 12.1197531886606], [-86.297515121049, 12.1197382576851], [-86.2971734019149, 12.1196904785577], [-86.2972261330221, 12.1191698260416], [-86.2972591910245, 12.1188429246005], [-86.2973536039609, 12.1179533852825], [-86.2974394829021, 12.1170721868633], [-86.2974725409045, 12.1167928868468], [-86.2975425196652, 12.1161995050869], [-86.2976455564283, 12.1153350765447], [-86.2976537310973, 12.1152573463466], [-86.2977398795331, 12.1144371815883], [-86.2978342924694, 12.1135644033653], [-86.2979200815791, 12.1126748464546], [-86.2979375088956, 12.1125065610659], [-86.2980060503518, 12.1118440461062], [-86.2980918394614, 12.1109460515759], [-86.2981686454182, 12.1100773022328], [-86.2982997096181, 12.1092219884715], [-86.2983352829034, 12.1089699962483], [-86.2984253839264, 12.1083318900957], [-86.2984726353103, 12.1074377484208], [-86.2979508039618, 12.1073845214251], [-86.2975656961995, 12.1073450842548], [-86.2972047531183, 12.1073131129142], [-86.2966768132258, 12.1072662977301], [-86.296730891806, 12.1068084219599], [-86.2967846110599, 12.1064084277903], [-86.2968189267038, 12.1054937265314], [-86.2968275505305, 12.1045620701283], [-86.2968103028771, 12.1035467041185], [-86.2968158724318, 12.1033691903394], [-86.2968156927688, 12.1032642279058], [-86.2968341082321, 12.1026589583737], [-86.2968288980035, 12.1020564103582]], [[-86.2257954253955, 12.1487880504914], [-86.2265471356252, 12.1488533005179], [-86.2274667409816, 12.1489379586711], [-86.2274865039178, 12.1487193754799], [-86.2275330366495, 12.1482058052668], [-86.2275465113788, 12.1480561601345], [-86.2276389480215, 12.1471698798449], [-86.2277272524139, 12.1462957158363], [-86.2277657003081, 12.1458536269777], [-86.2277872598749, 12.1456070264373], [-86.2277948057233, 12.1455568807866], [-86.22785220807, 12.1450409333069], [-86.2281408367708, 12.1451232215082], [-86.228365954581, 12.1451759140463], [-86.2287113568077, 12.145160896674], [-86.2288451159535, 12.145169766584], [-86.2289917210079, 12.1451918974475], [-86.2293436809362, 12.1452242155304], [-86.2296297045227, 12.1452526694915], [-86.2297472041618, 12.1452661060832], [-86.2298134998298, 12.1452736586769], [-86.2299313587951, 12.1452850753879], [-86.2301930380373, 12.1453090504795], [-86.230407016738, 12.1453315326146], [-86.2315934217337, 12.1454224271653], [-86.2319447528414, 12.1454589606184], [-86.232098544418, 12.1454777542678], [-86.2327778504359, 12.1455522262861], [-86.2328426189679, 12.1455595154095], [-86.2330587536252, 12.1455840174008], [-86.2331571191488, 12.1455951706363], [-86.2333701097027, 12.1456193213414], [-86.2336165175851, 12.1456663932549], [-86.2337050914721, 12.145741304324], [-86.2337092237224, 12.1458223628193], [-86.2337410240835, 12.1458959565347], [-86.2337665362376, 12.1459277476083], [-86.2338318437587, 12.1459757854942], [-86.233900744541, 12.1459978284699], [-86.2339823115688, 12.1459966868019], [-86.2340619921345, 12.1459663886872], [-86.2341317014006, 12.1459260790162], [-86.2342462365993, 12.1459175604139], [-86.234438296407, 12.1459468046866], [-86.2345053107272, 12.1459468925072], [-86.2346394291991, 12.1459901002555], [-86.2346922501378, 12.1460027464245], [-86.2348635588625, 12.1460391041568], [-86.2350609187304, 12.1460716855986], [-86.2350796036884, 12.14607484714], [-86.2352052779966, 12.1460967144664], [-86.2357058192729, 12.1461603843825], [-86.2358653600674, 12.1461796170852], [-86.236049245206, 12.1462279183872], [-86.2366062006822, 12.1462956280158], [-86.2371307269766, 12.1463534139109], [-86.2374550187942, 12.1463952164655], [-86.2374594205391, 12.1463338299387], [-86.2374842140409, 12.1459834258884], [-86.2374920293839, 12.1458741770124], [-86.2375180805271, 12.1455063838434], [-86.2375228415981, 12.14544043043], [-86.2375498808882, 12.1450580583883], [-86.2375534741493, 12.1450076491714], [-86.237603240816, 12.1443079787938], [-86.2376051272781, 12.1442804907648], [-86.2376389937643, 12.1438031822045], [-86.2377449051363, 12.1423116203722], [-86.2377545171099, 12.1421757599621], [-86.237756403572, 12.142148974288], [-86.2377592781809, 12.1421077858201], [-86.2377891920798, 12.1416873820525], [-86.2378544097695, 12.140768498476], [-86.2378942949681, 12.1401217739662], [-86.237919447796, 12.1396681700834], [-86.2379223224049, 12.1396152129873], [-86.2379261851607, 12.1395452182687], [-86.2379294190957, 12.1395052589167], [-86.2379391209008, 12.1393865225211], [-86.2380081115146, 12.1385384164163], [-86.2380504221645, 12.137975909014]]]}, "type": "Feature", "properties": {"name": "MR4"}}, {"geometry": {"type": "Point", "coordinates": [-86.2972915303748, 12.0973017669846]}, "type": "Feature", "properties": {"name": null, "popupContent": "This is where the Rockies play!"}}, {"geometry": {"type": "Point", "coordinates": [-86.297319108654, 12.097370103889]}, "type": "Feature", "properties": {"name": "Terminal MR4", "popupContent": "This is where the Rockies play!"}}, {"geometry": {"type": "Point", "coordinates": [-86.2915895639404, 12.1016721315775]}, "type": "Feature", "properties": {"name": null, "popupContent": "This is where the Rockies play!"}}, {"geometry": {"type": "Point", "coordinates": [-86.2916278321715, 12.1016692330155]}, "type": "Feature", "properties": {"name": "Camino a San Isidro de Bolas", "popupContent": "This is where the Rockies play!"}}, {"geometry": {"type": "Point", "coordinates": [-86.2968159622634, 12.1033691903394]}, "type": "Feature", "properties": {"name": null, "popupContent": "This is where the Rockies play!"}}, {"geometry": {"type": "Point", "coordinates": [-86.29687336461, 12.1033656769531]}, "type": "Feature", "properties": {"name": "Pulper\u00eda El Bulky", "popupContent": "This is where the Rockies play!"}}, {"geometry": {"type": "Point", "coordinates": [-86.2967309816375, 12.1068084219599]}, "type": "Feature", "properties": {"name": null, "popupContent": "This is where the Rockies play!"}}, {"geometry": {"type": "Point", "coordinates": [-86.2967985349468, 12.1068139554719]}, "type": "Feature", "properties": {"name": "Colegio Rodolfo Rodr\u00edguez Alvarado", "popupContent": "This is where the Rockies play!"}}, {"geometry": {"type": "Point", "coordinates": [-86.2983353727349, 12.1089699962483]}, "type": "Feature", "properties": {"name": null, "popupContent": "This is where the Rockies play!"}}, {"geometry": {"type": "Point", "coordinates": [-86.2983853190647, 12.1089775498702]}, "type": "Feature", "properties": {"name": "Cooperativa de Panificadores", "popupContent": "This is where the Rockies play!"}}, {"geometry": {"type": "Point", "coordinates": [-86.2979375987271, 12.1125065610659]}, "type": "Feature", "properties": {"name": null, "popupContent": "This is where the Rockies play!"}}, {"geometry": {"type": "Point", "coordinates": [-86.2980057808572, 12.1125084933621]}, "type": "Feature", "properties": {"name": "El Nancite", "popupContent": "This is where the Rockies play!"}}, {"geometry": {"type": "Point", "coordinates": [-86.2976538209289, 12.1152573463466]}, "type": "Feature", "properties": {"name": null, "popupContent": "This is where the Rockies play!"}}, {"geometry": {"type": "Point", "coordinates": [-86.2976996350084, 12.1152637579909]}, "type": "Feature", "properties": {"name": "Comercial Enmanuel", "popupContent": "This is where the Rockies play!"}}, {"geometry": {"type": "Point", "coordinates": [-86.2974726307361, 12.1167928868468]}, "type": "Feature", "properties": {"name": null, "popupContent": "This is where the Rockies play!"}}, {"geometry": {"type": "Point", "coordinates": [-86.2975496163559, 12.1167964000564]}, "type": "Feature", "properties": {"name": "Pulper\u00eda Rosita", "popupContent": "This is where the Rockies play!"}}, {"geometry": {"type": "Point", "coordinates": [-86.2972262228536, 12.1191698260416]}, "type": "Feature", "properties": {"name": null, "popupContent": "This is where the Rockies play!"}}, {"geometry": {"type": "Point", "coordinates": [-86.2972953931305, 12.1191768523981]}, "type": "Feature", "properties": {"name": "Farmacia Los Cocos", "popupContent": "This is where the Rockies play!"}}, {"geometry": {"type": "Point", "coordinates": [-86.297834382301, 12.1204540652785]}, "type": "Feature", "properties": {"name": null, "popupContent": "This is where the Rockies play!"}}, {"geometry": {"type": "Point", "coordinates": [-86.2978789387391, 12.1204942909734]}, "type": "Feature", "properties": {"name": "Plantel Los Cocos", "popupContent": "This is where the Rockies play!"}}, {"geometry": {"type": "Point", "coordinates": [-86.2971051299533, 12.1253114058224]}, "type": "Feature", "properties": {"name": null, "popupContent": "This is where the Rockies play!"}}, {"geometry": {"type": "Point", "coordinates": [-86.297167293371, 12.1252991978086]}, "type": "Feature", "properties": {"name": "El Zumen Oeste", "popupContent": "This is where the Rockies play!"}}, {"geometry": {"type": "Point", "coordinates": [-86.2963949218897, 12.1257582714393]}, "type": "Feature", "properties": {"name": null, "popupContent": "This is where the Rockies play!"}}, {"geometry": {"type": "Point", "coordinates": [-86.2964010304336, 12.1258258106154]}, "type": "Feature", "properties": {"name": "El Zumen", "popupContent": "This is where the Rockies play!"}}, {"geometry": {"type": "Point", "coordinates": [-86.2918937334956, 12.1263812296672]}, "type": "Feature", "properties": {"name": null, "popupContent": "This is where the Rockies play!"}}, {"geometry": {"type": "Point", "coordinates": [-86.2919610173103, 12.1263944915564]}, "type": "Feature", "properties": {"name": "Sem\u00e1foros Julio Mart\u00ednez", "popupContent": "This is where the Rockies play!"}}, {"geometry": {"type": "Point", "coordinates": [-86.2913885209798, 12.1287990104753]}, "type": "Feature", "properties": {"name": null, "popupContent": "This is where the Rockies play!"}}, {"geometry": {"type": "Point", "coordinates": [-86.2914257112325, 12.1288210548724]}, "type": "Feature", "properties": {"name": "El Recreo Sur", "popupContent": "This is where the Rockies play!"}}, {"geometry": {"type": "Point", "coordinates": [-86.2904119624344, 12.1313642283147]}, "type": "Feature", "properties": {"name": null, "popupContent": "This is where the Rockies play!"}}, {"geometry": {"type": "Point", "coordinates": [-86.2904843666463, 12.1313701126192]}, "type": "Feature", "properties": {"name": "Pulper\u00eda Rodr\u00edguez", "popupContent": "This is where the Rockies play!"}}, {"geometry": {"type": "Point", "coordinates": [-86.2890893728416, 12.1343666119486]}, "type": "Feature", "properties": {"name": null, "popupContent": "This is where the Rockies play!"}}, {"geometry": {"type": "Point", "coordinates": [-86.2891341987743, 12.1343913784429]}, "type": "Feature", "properties": {"name": "Tornos Fenix", "popupContent": "This is where the Rockies play!"}}, {"geometry": {"type": "Point", "coordinates": [-86.2884294704339, 12.1366613671782]}, "type": "Feature", "properties": {"name": null, "popupContent": "This is where the Rockies play!"}}, {"geometry": {"type": "Point", "coordinates": [-86.2884960355964, 12.1366701495476]}, "type": "Feature", "properties": {"name": "Pulper\u00eda Papachano", "popupContent": "This is where the Rockies play!"}}, {"geometry": {"type": "Point", "coordinates": [-86.2862255437158, 12.1361363566073]}, "type": "Feature", "properties": {"name": null, "popupContent": "This is where the Rockies play!"}}, {"geometry": {"type": "Point", "coordinates": [-86.286159607374, 12.1362177693213]}, "type": "Feature", "properties": {"name": "SINSA", "popupContent": "This is where the Rockies play!"}}, {"geometry": {"type": "Point", "coordinates": [-86.2823249689206, 12.1350405759422]}, "type": "Feature", "properties": {"name": null, "popupContent": "This is where the Rockies play!"}}, {"geometry": {"type": "Point", "coordinates": [-86.2823336825789, 12.1350838732841]}, "type": "Feature", "properties": {"name": "Plaza Espa\u00f1a Norte", "popupContent": "This is where the Rockies play!"}}, {"geometry": {"type": "Point", "coordinates": [-86.2814907933478, 12.1366250959893]}, "type": "Feature", "properties": {"name": null, "popupContent": "This is where the Rockies play!"}}, {"geometry": {"type": "Point", "coordinates": [-86.281549812662, 12.1366113954906]}, "type": "Feature", "properties": {"name": "Economart", "popupContent": "This is where the Rockies play!"}}, {"geometry": {"type": "Point", "coordinates": [-86.282857310558, 12.1407261681039]}, "type": "Feature", "properties": {"name": null, "popupContent": "This is where the Rockies play!"}}, {"geometry": {"type": "Point", "coordinates": [-86.282934835167, 12.1407433812851]}, "type": "Feature", "properties": {"name": "Canal 2", "popupContent": "This is where the Rockies play!"}}, {"geometry": {"type": "Point", "coordinates": [-86.2823986307739, 12.1453555955228]}, "type": "Feature", "properties": {"name": null, "popupContent": "This is where the Rockies play!"}}, {"geometry": {"type": "Point", "coordinates": [-86.2824894504492, 12.1453600743851]}, "type": "Feature", "properties": {"name": "Venta y Compra de Veh\u00edculos", "popupContent": "This is where the Rockies play!"}}, {"geometry": {"type": "Point", "coordinates": [-86.2779940112728, 12.1461432593721]}, "type": "Feature", "properties": {"name": null, "popupContent": "This is where the Rockies play!"}}, {"geometry": {"type": "Point", "coordinates": [-86.2779683194557, 12.1462022747879]}, "type": "Feature", "properties": {"name": "INSS", "popupContent": "This is where the Rockies play!"}}, {"geometry": {"type": "Point", "coordinates": [-86.2737440816637, 12.1454628247333]}, "type": "Feature", "properties": {"name": null, "popupContent": "This is where the Rockies play!"}}, {"geometry": {"type": "Point", "coordinates": [-86.2736917098826, 12.145506910768]}, "type": "Feature", "properties": {"name": "Plaza Inter", "popupContent": "This is where the Rockies play!"}}, {"geometry": {"type": "Point", "coordinates": [-86.2667467445896, 12.144153852588]}, "type": "Feature", "properties": {"name": null, "popupContent": "This is where the Rockies play!"}}, {"geometry": {"type": "Point", "coordinates": [-86.2667233883922, 12.1442184011808]}, "type": "Feature", "properties": {"name": "El Redentor", "popupContent": "This is where the Rockies play!"}}, {"geometry": {"type": "Point", "coordinates": [-86.260781931103, 12.1449878894583]}, "type": "Feature", "properties": {"name": null, "popupContent": "This is where the Rockies play!"}}, {"geometry": {"type": "Point", "coordinates": [-86.2608565811031, 12.145000272212]}, "type": "Feature", "properties": {"name": "Polic\u00eda Nacional Distrito IV", "popupContent": "This is where the Rockies play!"}}, {"geometry": {"type": "Point", "coordinates": [-86.2591584957215, 12.1387701814158]}, "type": "Feature", "properties": {"name": null, "popupContent": "This is where the Rockies play!"}}, {"geometry": {"type": "Point", "coordinates": [-86.2590746829055, 12.1387773829017]}, "type": "Feature", "properties": {"name": "Pulper\u00eda Mar\u00eda Auxiliadora", "popupContent": "This is where the Rockies play!"}}, {"geometry": {"type": "Point", "coordinates": [-86.2584808066712, 12.1362935612862]}, "type": "Feature", "properties": {"name": null, "popupContent": "This is where the Rockies play!"}}, {"geometry": {"type": "Point", "coordinates": [-86.2583861242402, 12.1362927708719]}, "type": "Feature", "properties": {"name": "Cl\u00ednica Mar\u00eda Auxiliadora", "popupContent": "This is where the Rockies play!"}}, {"geometry": {"type": "Point", "coordinates": [-86.2578188381383, 12.1339140521623]}, "type": "Feature", "properties": {"name": null, "popupContent": "This is where the Rockies play!"}}, {"geometry": {"type": "Point", "coordinates": [-86.2577857801359, 12.1339137008639]}, "type": "Feature", "properties": {"name": "Rotonda Cristo Rey", "popupContent": "This is where the Rockies play!"}}, {"geometry": {"type": "Point", "coordinates": [-86.2563831506512, 12.130041925187]}, "type": "Feature", "properties": {"name": null, "popupContent": "This is where the Rockies play!"}}, {"geometry": {"type": "Point", "coordinates": [-86.2563059853683, 12.1300704685956]}, "type": "Feature", "properties": {"name": "Colonia M\u00e1ximo Jerez", "popupContent": "This is where the Rockies play!"}}, {"geometry": {"type": "Point", "coordinates": [-86.2542012326576, 12.1254341007214]}, "type": "Feature", "properties": {"name": null, "popupContent": "This is where the Rockies play!"}}, {"geometry": {"type": "Point", "coordinates": [-86.2541077180366, 12.1254716908438]}, "type": "Feature", "properties": {"name": "Agencia Aduanera", "popupContent": "This is where the Rockies play!"}}, {"geometry": {"type": "Point", "coordinates": [-86.2527602451104, 12.1226411749368]}, "type": "Feature", "properties": {"name": null, "popupContent": "This is where the Rockies play!"}}, {"geometry": {"type": "Point", "coordinates": [-86.2526516387925, 12.1226554909517]}, "type": "Feature", "properties": {"name": "CECA", "popupContent": "This is where the Rockies play!"}}, {"geometry": {"type": "Point", "coordinates": [-86.2518142292847, 12.1175046621612]}, "type": "Feature", "properties": {"name": null, "popupContent": "This is where the Rockies play!"}}, {"geometry": {"type": "Point", "coordinates": [-86.2517317639416, 12.1175431317009]}, "type": "Feature", "properties": {"name": "Tip Top", "popupContent": "This is where the Rockies play!"}}, {"geometry": {"type": "Point", "coordinates": [-86.2492047132159, 12.1183502002854]}, "type": "Feature", "properties": {"name": null, "popupContent": "This is where the Rockies play!"}}, {"geometry": {"type": "Point", "coordinates": [-86.2492481018441, 12.1183950812722]}, "type": "Feature", "properties": {"name": "Centro Comercial Managua", "popupContent": "This is where the Rockies play!"}}, {"geometry": {"type": "Point", "coordinates": [-86.2454448145942, 12.1211332463398]}, "type": "Feature", "properties": {"name": null, "popupContent": "This is where the Rockies play!"}}, {"geometry": {"type": "Point", "coordinates": [-86.2454897303584, 12.1211812886951]}, "type": "Feature", "properties": {"name": "Hospital Roberto Calder\u00f3n", "popupContent": "This is where the Rockies play!"}}, {"geometry": {"type": "Point", "coordinates": [-86.2449331342083, 12.1229333795797]}, "type": "Feature", "properties": {"name": null, "popupContent": "This is where the Rockies play!"}}, {"geometry": {"type": "Point", "coordinates": [-86.2450300624275, 12.1228575838164]}, "type": "Feature", "properties": {"name": "Huembes Noroeste", "popupContent": "This is where the Rockies play!"}}, {"geometry": {"type": "Point", "coordinates": [-86.2452021796359, 12.1299389054131]}, "type": "Feature", "properties": {"name": null, "popupContent": "This is where the Rockies play!"}}, {"geometry": {"type": "Point", "coordinates": [-86.2452429631498, 12.1299702592616]}, "type": "Feature", "properties": {"name": "Colegio Rep\u00fablica de Colombia", "popupContent": "This is where the Rockies play!"}}, {"geometry": {"type": "Point", "coordinates": [-86.2445647351103, 12.131407965381]}, "type": "Feature", "properties": {"name": null, "popupContent": "This is where the Rockies play!"}}, {"geometry": {"type": "Point", "coordinates": [-86.2446395647735, 12.1314150792405]}, "type": "Feature", "properties": {"name": "Farmacia San Miguel", "popupContent": "This is where the Rockies play!"}}, {"geometry": {"type": "Point", "coordinates": [-86.2435109214505, 12.1314561815361]}, "type": "Feature", "properties": {"name": null, "popupContent": "This is where the Rockies play!"}}, {"geometry": {"type": "Point", "coordinates": [-86.2435084061677, 12.1314984255556]}, "type": "Feature", "properties": {"name": "Parque Colombia", "popupContent": "This is where the Rockies play!"}}, {"geometry": {"type": "Point", "coordinates": [-86.2406018172344, 12.1315086133015]}, "type": "Feature", "properties": {"name": null, "popupContent": "This is where the Rockies play!"}}, {"geometry": {"type": "Point", "coordinates": [-86.2406015477398, 12.131541284346]}, "type": "Feature", "properties": {"name": "Don Bosco", "popupContent": "This is where the Rockies play!"}}, {"geometry": {"type": "Point", "coordinates": [-86.2393270180147, 12.135032496113]}, "type": "Feature", "properties": {"name": null, "popupContent": "This is where the Rockies play!"}}, {"geometry": {"type": "Point", "coordinates": [-86.239362770963, 12.1350356577853]}, "type": "Feature", "properties": {"name": "Pulper\u00eda Machado", "popupContent": "This is where the Rockies play!"}}, {"geometry": {"type": "Point", "coordinates": [-86.2390567149457, 12.1374270130581]}, "type": "Feature", "properties": {"name": null, "popupContent": "This is where the Rockies play!"}}, {"geometry": {"type": "Point", "coordinates": [-86.2390891441275, 12.137429559938]}, "type": "Feature", "properties": {"name": "Pulper\u00eda Rosita", "popupContent": "This is where the Rockies play!"}}, {"geometry": {"type": "Point", "coordinates": [-86.2379195376276, 12.1396681700834]}, "type": "Feature", "properties": {"name": null, "popupContent": "This is where the Rockies play!"}}, {"geometry": {"type": "Point", "coordinates": [-86.2379860129586, 12.1396746689635]}, "type": "Feature", "properties": {"name": "Cementerio Oriental", "popupContent": "This is where the Rockies play!"}}, {"geometry": {"type": "Point", "coordinates": [-86.2377449949679, 12.1423116203722]}, "type": "Feature", "properties": {"name": null, "popupContent": "This is where the Rockies play!"}}, {"geometry": {"type": "Point", "coordinates": [-86.2377982650642, 12.1423089857172]}, "type": "Feature", "properties": {"name": "\u00d3ptica Cristal", "popupContent": "This is where the Rockies play!"}}, {"geometry": {"type": "Point", "coordinates": [-86.2374843038724, 12.1459834258884]}, "type": "Feature", "properties": {"name": null, "popupContent": "This is where the Rockies play!"}}, {"geometry": {"type": "Point", "coordinates": [-86.2375372146427, 12.1459814938347]}, "type": "Feature", "properties": {"name": "Parque Maestro Gabriel", "popupContent": "This is where the Rockies play!"}}, {"geometry": {"type": "Point", "coordinates": [-86.2346395190307, 12.1459901002555]}, "type": "Feature", "properties": {"name": null, "popupContent": "This is where the Rockies play!"}}, {"geometry": {"type": "Point", "coordinates": [-86.2346325121715, 12.1460339227411]}, "type": "Feature", "properties": {"name": "McDonald's", "popupContent": "This is where the Rockies play!"}}, {"geometry": {"type": "Point", "coordinates": [-86.2319448426729, 12.1454589606184]}, "type": "Feature", "properties": {"name": null, "popupContent": "This is where the Rockies play!"}}, {"geometry": {"type": "Point", "coordinates": [-86.2319318171013, 12.1455631160607]}, "type": "Feature", "properties": {"name": "Parque Amistad", "popupContent": "This is where the Rockies play!"}}, {"geometry": {"type": "Point", "coordinates": [-86.2297472939934, 12.1452661060832]}, "type": "Feature", "properties": {"name": null, "popupContent": "This is where the Rockies play!"}}, {"geometry": {"type": "Point", "coordinates": [-86.229727171731, 12.1453505897356]}, "type": "Feature", "properties": {"name": "Iglesia Pio X", "popupContent": "This is where the Rockies play!"}}, {"geometry": {"type": "Point", "coordinates": [-86.2274865937493, 12.1487193754799]}, "type": "Feature", "properties": {"name": null, "popupContent": "This is where the Rockies play!"}}, {"geometry": {"type": "Point", "coordinates": [-86.2275330366495, 12.1487222735306]}, "type": "Feature", "properties": {"name": "Peluqueria Leysi", "popupContent": "This is where the Rockies play!"}}, {"geometry": {"type": "Point", "coordinates": [-86.225795515227, 12.1487880504914]}, "type": "Feature", "properties": {"name": null, "popupContent": "This is where the Rockies play!"}}, {"geometry": {"type": "Point", "coordinates": [-86.2257850947697, 12.1488439038125]}, "type": "Feature", "properties": {"name": "Terminal MR4", "popupContent": "This is where the Rockies play!"}}]}