{"type": "FeatureCollection", "features": [{"geometry": {"type": "LineString", "coordinates": [[-86.3137359103028, 12.1578535233303], [-86.3146980958036, 12.1574647584968], [-86.3148590739025, 12.1573441859583], [-86.3149503427354, 12.1571711866635], [-86.3150816764299, 12.1566600038258], [-86.3149383951421, 12.1561800829508], [-86.3148560196306, 12.1559067955075], [-86.3147494794379, 12.155486501353], [-86.3147176790768, 12.1553610979539], [-86.3145916454425, 12.1548412176855], [-86.3144578862967, 12.1543146622428], [-86.3143490104842, 12.1537918819339], [-86.3141962070544, 12.1532765651462], [-86.3140997279929, 12.1529670935758], [-86.3140555308809, 12.1527823237719], [-86.3139271616268, 12.1522447869351], [-86.3137950194485, 12.1517400932165], [-86.3136476957419, 12.1512001831638], [-86.3134857294962, 12.1506063510959], [-86.3131748225763, 12.1506775723736], [-86.3122327593379, 12.1508931681105], [-86.3109629008523, 12.1511777015243], [-86.3108515995886, 12.1512081746836], [-86.31072179303, 12.1512438291538], [-86.3104677494676, 12.1513065318311], [-86.3095012520535, 12.151545311219], [-86.3091167731119, 12.1516401554917], [-86.3089009079491, 12.1516934614708], [-86.3082317528939, 12.1518588241026], [-86.3078205041569, 12.1519604302996], [-86.3076333850832, 12.1520066229052], [-86.3071261064423, 12.1521318522484], [-86.3069870472363, 12.1521662771346], [-86.3064167966939, 12.1523070502838], [-86.3059742865849, 12.1524163843377], [-86.3056953596893, 12.1524853218506], [-86.3053629830341, 12.1525674321133], [-86.3051609519267, 12.1526173129878], [-86.3050067111924, 12.1526554261849], [-86.3048998116736, 12.1526817717097], [-86.3045104818295, 12.1527502700619], [-86.3041635524667, 12.1528148165699], [-86.3040337459082, 12.1528432697195], [-86.3038791458478, 12.1528791874256], [-86.3037620055348, 12.1529057085649], [-86.3036143225021, 12.1529390795311], [-86.302760383993, 12.1531135744888], [-86.3024651077591, 12.1531739056328], [-86.3018621585404, 12.1533118680663], [-86.3016914786364, 12.1533572700737], [-86.3009210834487, 12.1535601300119], [-86.3007769038456, 12.1535980674378], [-86.3002700743623, 12.1537145142249], [-86.2998431949393, 12.1538169100756], [-86.2989550306179, 12.1540386505263], [-86.2984244856111, 12.1541702896212], [-86.2981186092568, 12.1542461642934], [-86.2980150335046, 12.1542718949355], [-86.2979001389798, 12.1543123789781], [-86.2973792059465, 12.1544440179377], [-86.2971157300737, 12.1544866095817], [-86.2962235233335, 12.1546794574353], [-86.2961283917449, 12.1546972844384], [-86.29529232971, 12.1548802087409], [-86.2944816899976, 12.1550391587048], [-86.2943715565438, 12.1550750761144], [-86.2931970093098, 12.1552063634262], [-86.2931462544962, 12.1552119837511], [-86.293069897697, 12.1552220827722], [-86.2929723406572, 12.1552349919551], [-86.2929094585873, 12.1552432468065], [-86.2924636247118, 12.1553083196149], [-86.2917062550958, 12.1554089585019], [-86.2915417735672, 12.1554308250613], [-86.2912057138195, 12.1554792125016], [-86.2910845310876, 12.1554980054434], [-86.2908807931812, 12.1555297075525], [-86.2907128980546, 12.1555575456895], [-86.2905239823503, 12.1555824858476], [-86.2901896294016, 12.1556264823884], [-86.2897533176681, 12.1556747819757], [-86.2891599804229, 12.155663277893], [-86.2886053605665, 12.1556524763492], [-86.2880476864381, 12.1556128706849], [-86.2878775455233, 12.1556113777884], [-86.2875311551498, 12.1556083041778], [-86.2874459948608, 12.1556076016382], [-86.2874704290365, 12.1551256590596], [-86.2875039361966, 12.1542796229094], [-86.2875441807214, 12.1535105127686], [-86.287606344139, 12.1523651861478], [-86.2864831805393, 12.1523125828515], [-86.2863623571336, 12.1523068746467], [-86.286229136977, 12.1523007273492], [-86.2861976061105, 12.1522991466155], [-86.2854779657364, 12.1522655121134], [-86.2853840917892, 12.1522611211859], [-86.2853691797555, 12.1522604186375], [-86.2849606259642, 12.1522412741928], [-86.2843539936529, 12.1522128209788], [-86.2836083021355, 12.1521778691872], [-86.2835011331221, 12.1521728635282], [-86.2830472144091, 12.1521516114311], [-86.28292854696, 12.1521459910415], [-86.2826436013519, 12.1521327304343], [-86.2822018098952, 12.1521120052456], [-86.2820499946122, 12.1516960082142], [-86.2819817226506, 12.1515504047086], [-86.2819002454543, 12.1513665999282], [-86.2818432922653, 12.1512443560671], [-86.2818181394373, 12.1511267665528], [-86.2818310751774, 12.1509787038045], [-86.2818353870908, 12.1509261002341], [-86.2819381543593, 12.1500877788259], [-86.2819606122414, 12.149843904608], [-86.2820340944316, 12.1490452742581], [-86.2822026183789, 12.1474862959469], [-86.2822651411227, 12.1469079997891], [-86.2811745863678, 12.146721732832], [-86.2802870508671, 12.146571384302], [-86.2793581030318, 12.146403471591], [-86.2787478774593, 12.1462972087851], [-86.2779939214413, 12.1461432593721], [-86.2778475858815, 12.1461134881975], [-86.2764701092249, 12.1458861206216], [-86.2758039186102, 12.1457769595265], [-86.2755493360586, 12.1458760212462], [-86.2751747385852, 12.1460153925928], [-86.2750105265512, 12.1461061112687], [-86.2748867387051, 12.1461733818255], [-86.2747864867194, 12.1462449555716], [-86.2746459902089, 12.1462792933988], [-86.2745767301005, 12.1462600607033], [-86.2744791730607, 12.1462208049232], [-86.2744126078981, 12.1461668831041], [-86.2743513427957, 12.1460751984223], [-86.2742015936379, 12.145888316138], [-86.2741396098833, 12.1458121756208], [-86.274046903746, 12.1457213690239], [-86.2739696486315, 12.1456423303748], [-86.273861940629, 12.1455370332935], [-86.2737682463448, 12.1454741536155], [-86.2737439918321, 12.1454628247333], [-86.273631253264, 12.1454098687896], [-86.2734647954418, 12.1453627968307], [-86.2733125310012, 12.1453347819856], [-86.2732033856942, 12.1453182716679], [-86.2730189615663, 12.1452978094112], [-86.2728511562713, 12.1452964920984], [-86.2727350939365, 12.1453483942148], [-86.2725589343093, 12.1454508811052], [-86.2724848232984, 12.1455014658797], [-86.272300309339, 12.1455644333721], [-86.2721212751029, 12.1456371489514], [-86.2716224406256, 12.1456697304425], [-86.2713108150536, 12.1456051822016], [-86.2708365944151, 12.1453896700023], [-86.2706332158348, 12.1452335245427], [-86.2704014504915, 12.1449481943859], [-86.2701863938125, 12.1448002160216], [-86.2701287219712, 12.1447745722848], [-86.2700418548832, 12.1447361066751], [-86.2692119912238, 12.1445883038351], [-86.2684273128231, 12.1444447163273], [-86.2678954203434, 12.1443526797678], [-86.2672873507275, 12.1442474699977], [-86.267129157406, 12.1442200697836], [-86.266746654758, 12.144153852588], [-86.2664875806301, 12.1441090637593], [-86.2656265454303, 12.1439724138747], [-86.2654440975961, 12.1439840941054], [-86.2652515886307, 12.1439999897568], [-86.2648837285218, 12.1440255457469], [-86.264742154033, 12.144042495251], [-86.2644362776788, 12.144077799396], [-86.2640987806266, 12.1441210074477], [-86.2638890240077, 12.1441110836479], [-86.2635961732251, 12.1440639236381], [-86.2631401883869, 12.1439580111836], [-86.2629665440424, 12.1439476482712], [-86.2627003732238, 12.143930698761], [-86.2624363583618, 12.1439495803396], [-86.2619863024044, 12.1440632210681], [-86.2618713180481, 12.1441209196265], [-86.2616170049911, 12.144271093898], [-86.2613597274938, 12.1444924910174], [-86.2610304949421, 12.1447873063325], [-86.2607818412715, 12.1449878894583], [-86.2606050528236, 12.1451463184053], [-86.2604532375405, 12.1452821772998], [-86.2603806536656, 12.1453331133897], [-86.2603456193695, 12.1453353967314], [-86.2603148969868, 12.145329161452], [-86.2602547098628, 12.1452974581278], [-86.2598726563724, 12.1449993061816], [-86.2594323022201, 12.1447047545643], [-86.2588163274298, 12.1442829497579], [-86.2584576301369, 12.1439948961228], [-86.2582391598598, 12.1438250497175], [-86.2580417101603, 12.143671801446], [-86.2578271924705, 12.1438657109919], [-86.2576126747806, 12.14401676362], [-86.2572521808571, 12.1441761591783], [-86.2566669284495, 12.1442752214937], [-86.2563413789905, 12.1443425803343], [-86.2561386292309, 12.1443662920472], [-86.2560717945738, 12.1443741081299], [-86.255810205163, 12.144419511662], [-86.255476481035, 12.1444826550525], [-86.2550635254989, 12.1445537901476], [-86.2548469416839, 12.1445893576881], [-86.2545228295294, 12.1446628639233], [-86.2541365539572, 12.1447468208409], [-86.253998303235, 12.1447983717804], [-86.2538018416823, 12.1449397635733], [-86.2537158729096, 12.145082384784], [-86.2536624231502, 12.1452142917716], [-86.2536044818144, 12.1453694712135], [-86.2535364793474, 12.1455517871823], [-86.2532809086491, 12.145471431171], [-86.2532421014288, 12.1454592240808], [-86.2530812131614, 12.1454085514774], [-86.2529716186968, 12.1453764968793], [-86.2526417573244, 12.1452750638106], [-86.2521434618363, 12.1451244510008], [-86.2518946285026, 12.1450795745145], [-86.2517782068418, 12.1451019688482], [-86.2515498550966, 12.145097050877], [-86.2515239836164, 12.1451004758927], [-86.251348812136, 12.1451239240754], [-86.2512547585257, 12.1451477235397], [-86.2510405103305, 12.1452019968488], [-86.2509858029297, 12.1452495957613], [-86.2508877967322, 12.1453518192272], [-86.2508268011244, 12.1454774029847], [-86.2507831430016, 12.1456003520605], [-86.2507782920991, 12.1456407496016], [-86.250757541016, 12.1458704007241], [-86.2507180151435, 12.1465537323954], [-86.2506687874659, 12.146794887197], [-86.2506571991987, 12.1468297518753], [-86.2506007849989, 12.1469995085434], [-86.2505746440241, 12.1470488635399], [-86.250479242941, 12.1472290706736], [-86.2504053115931, 12.1473861809845], [-86.2502872729648, 12.1475324893292], [-86.2502027414965, 12.1476200459652], [-86.2500162512435, 12.1478134257152], [-86.2497674179098, 12.148055457575], [-86.2496496487761, 12.1481850797722], [-86.249453277055, 12.1484297458885], [-86.2493527555747, 12.1485863285721], [-86.2493428741065, 12.1486090738897], [-86.2492315728428, 12.1488665612885], [-86.2491568330112, 12.1491224676856], [-86.2491367107488, 12.1493311269404], [-86.2491391362001, 12.1501683969014], [-86.2491113782578, 12.1507629324989], [-86.2491113782578, 12.1516515719296], [-86.2491113782578, 12.151670277323], [-86.2491113782578, 12.1517078637434], [-86.2491113782578, 12.1518114020094], [-86.2491060781977, 12.1519750960136], [-86.2490829914949, 12.1526868651775], [-86.248285197691, 12.1526088824181], [-86.2478989221188, 12.1525712083066], [-86.2472753116486, 12.1525207126942], [-86.2461393919719, 12.1524285911088], [-86.246068694559, 12.1524220047216], [-86.2453239911885, 12.1523529793738], [-86.2446984044246, 12.1523025715385], [-86.2444914325831, 12.152285886016], [-86.2436807030392, 12.1522038634849], [-86.2428606310163, 12.1521180647289], [-86.2427279498489, 12.1521063848552], [-86.2423635033381, 12.1520741554265], [-86.2412815724099, 12.1519795747645], [-86.2397469804101, 12.1518453878437], [-86.2396713422631, 12.1518390648981], [-86.2391642432852, 12.1517987561165], [-86.2387791355229, 12.1517681952061], [-86.2385003882903, 12.1517321017126], [-86.2378739032112, 12.1516733509791], [-86.2369555554962, 12.151589484065], [-86.2369730726442, 12.1514105093474], [-86.2370379310077, 12.1507504621942], [-86.2371252472533, 12.149861205019], [-86.2372149889502, 12.1489462137178], [-86.2372871236676, 12.1482119526589], [-86.2373014068806, 12.1480659959674], [-86.2373808179517, 12.1472000900024], [-86.2374550187942, 12.1463952164655], [-86.2374594205391, 12.1463338299387], [-86.2374842140409, 12.1459834258884], [-86.2374920293839, 12.1458741770124], [-86.2375180805271, 12.1455063838434], [-86.2375228415981, 12.14544043043], [-86.2375498808882, 12.1450580583883], [-86.2375534741493, 12.1450076491714], [-86.237603240816, 12.1443079787938], [-86.2376051272781, 12.1442804907648], [-86.2376389937643, 12.1438031822045], [-86.2377449051363, 12.1423116203722], [-86.2377545171099, 12.1421757599621], [-86.237756403572, 12.142148974288], [-86.2377592781809, 12.1421077858201], [-86.2377891920798, 12.1416873820525], [-86.2378544097695, 12.140768498476], [-86.2378942949681, 12.1401217739662], [-86.237919447796, 12.1396681700834], [-86.2379223224049, 12.1396152129873], [-86.2379261851607, 12.1395452182687], [-86.2379294190957, 12.1395052589167], [-86.2379391209008, 12.1393865225211], [-86.2380081115146, 12.1385384164163], [-86.2380504221645, 12.137975909014], [-86.2381078245111, 12.1374833078794], [-86.23820708835, 12.1365963776353], [-86.2382649398543, 12.1360797980298], [-86.2382825468339, 12.1359225054008], [-86.2383051843791, 12.1357197198477], [-86.2384198094093, 12.1348362967048], [-86.2384670607933, 12.1342965280265], [-86.2381861576039, 12.1341494219899], [-86.2377939531509, 12.1339439125251], [-86.2376301902746, 12.1338568783407], [-86.2375059532708, 12.1337865308107], [-86.2368198200568, 12.1333974673567], [-86.2367197477341, 12.1333330039665], [-86.2365672137989, 12.133233849757], [-86.2361822856996, 12.1329892575058], [-86.2361268596466, 12.1329530736421], [-86.2359342608497, 12.1328275718047], [-86.2357145329312, 12.1326718581063], [-86.2353032841941, 12.1323852849424], [-86.235116254952, 12.1322548646294], [-86.2343885297403, 12.1318015986547], [-86.2341975479109, 12.131652471258], [-86.2341750900288, 12.1314547763295], [-86.2342677063346, 12.130966905721], [-86.2342956439399, 12.1308196221953], [-86.2344674916537, 12.1299251167447], [-86.2345473518825, 12.1294360137716], [-86.2345840031461, 12.1291064023015], [-86.2345897523639, 12.1290552874567], [-86.2346070000174, 12.1289006254696], [-86.2346766194519, 12.1282778487808], [-86.2341162503777, 12.1284621964532], [-86.2341246047098, 12.128313594147], [-86.2342603401492, 12.1272308675152], [-86.2343578971891, 12.1263382822201], [-86.2344142215574, 12.1258916810568], [-86.2344718933986, 12.1254911006947], [-86.2334971314839, 12.125352509059], [-86.2333234871394, 12.1253278295523], [-86.2325024269697, 12.1252110190448], [-86.2321487602424, 12.1251606939006], [-86.2319864346705, 12.1251375952711], [-86.2317075077748, 12.1250978972414], [-86.2310185897834, 12.1249998817271], [-86.2310936889412, 12.1246536653475], [-86.2311180332854, 12.1245799779373], [-86.2311725610231, 12.1244147740271], [-86.231246492371, 12.1241881783856], [-86.2313210525396, 12.1238470549717], [-86.231339827329, 12.1237866293575], [-86.2315300905062, 12.1231664755697], [-86.2315814741405, 12.1230115466827], [-86.2316160592789, 12.1229050988918], [-86.2317033755245, 12.1226357295812], [-86.2317137959818, 12.1226037600721], [-86.2318259955608, 12.1222305772496], [-86.2319561614455, 12.122009249464], [-86.232136453323, 12.1217155507223], [-86.232429034611, 12.1213473728954], [-86.2329432302797, 12.1207001621204], [-86.2326166926739, 12.1204493225106], [-86.2319727802782, 12.1199544054319], [-86.2319316374382, 12.1199148822894], [-86.231842344899, 12.1198290731352], [-86.2317486506148, 12.1197697883913], [-86.2317074179433, 12.1198085210921], [-86.2309253446569, 12.1207453940277], [-86.2301566562683, 12.1217364539329], [-86.2301651902635, 12.1218624879621], [-86.2297929284098, 12.1218165536155], [-86.2295377170376, 12.1217902050383], [-86.2294127613815, 12.1218060141849], [-86.2292334576508, 12.1219264271542], [-86.2291045494076, 12.1219634029712], [-86.2288638009114, 12.1219365274373], [-86.2285559482635, 12.1218694264191], [-86.2281837762413, 12.1217882728092], [-86.2275452537374, 12.121649064449], [-86.2273203155902, 12.1215916245114], [-86.2261489124597, 12.1212744750307], [-86.2256735240114, 12.1210831839127], [-86.2256367829163, 12.1210684286693], [-86.225351298319, 12.1209705873319], [-86.225269192302, 12.1209424820937], [-86.2248747420608, 12.1208608012284], [-86.2245349093888, 12.1207903624406], [-86.2245360771986, 12.1211617907019], [-86.2245081395933, 12.1213055664116], [-86.2244136368254, 12.1216105076727], [-86.2243702481972, 12.1217644712588], [-86.224326859569, 12.1219670039412], [-86.2242522994004, 12.122315068205], [-86.2241764815904, 12.1226691921677], [-86.2241383930224, 12.1228471322552], [-86.2241127910368, 12.122964382939], [-86.2240981484976, 12.1230317471663], [-86.2240282595685, 12.1233711150614], [-86.2239856794241, 12.1235609114626], [-86.2239717555372, 12.1236233571717], [-86.223944356921, 12.1237511468684], [-86.2238880325527, 12.1240134009958], [-86.2238013451278, 12.1244169697203], [-86.2237952365838, 12.1244449867647], [-86.2237028897726, 12.1247949800022], [-86.223697859207, 12.1248214161101], [-86.2236923794838, 12.1248490818017], [-86.2236639028893, 12.1249972469009], [-86.2236336296642, 12.125154985114], [-86.2235532304463, 12.1255213133104], [-86.2234766939841, 12.1258556718842], [-86.2234260290021, 12.1260777869225], [-86.2233939591464, 12.1262097911459], [-86.2233049361018, 12.1265757665852], [-86.22329307834, 12.1266289019264], [-86.223229657281, 12.1269148664899], [-86.223174590554, 12.1271626260803], [-86.2231336273771, 12.1272847931669], [-86.2230949099883, 12.1273917661701], [-86.2225647243076, 12.1273390701148], [-86.2223273894096, 12.1283938675071], [-86.2222725921772, 12.1286576101163], [-86.2222048592048, 12.1290162047938], [-86.222109008964, 12.1290070708673], [-86.2219139847158, 12.1289874856199], [-86.2218502941622, 12.1289826551775], [-86.2215534907923, 12.1289557803509], [-86.2211122383247, 12.1289270611705], [-86.2209633874822, 12.1289174002835], [-86.2206825741244, 12.1288991324233], [-86.2201222948816, 12.1288625966993], [-86.2195619258074, 12.1287689738836], [-86.2194162190683, 12.128745699914], [-86.2191872385024, 12.1287125015689], [-86.2185048782126, 12.1285952534124], [-86.2184377740609, 12.1285835725071], [-86.2182463430738, 12.1285518671901], [-86.2177802971044, 12.1284746678013], [-86.2175132279705, 12.1284304911217], [-86.2174056996309, 12.1284126623603], [-86.2171198557076, 12.128365323919], [-86.2169765744197, 12.1283439820958], [-86.216792509618, 12.1284187223828], [-86.2165511323012, 12.1284920574267], [-86.2164330936728, 12.128502596593], [-86.2162184861514, 12.128502596593], [-86.2160361281488, 12.1284397128944], [-86.2159020096769, 12.128350481252], [-86.2156927022157, 12.1281833474949], [-86.2150460050426, 12.1281114175903], [-86.2149011067873, 12.1280904270528], [-86.2142774963171, 12.1280277189101], [-86.214269321648, 12.1280269284712], [-86.2141638594336, 12.1280176188577], [-86.2132783900581, 12.127927157502], [-86.2130530027533, 12.1278975599449], [-86.2123559999243, 12.1278061324557], [-86.2119668497432, 12.1277552808415], [-86.2118731554591, 12.1277430729396], [-86.2114020789241, 12.1276835264747], [-86.2105787729662, 12.1275360654817], [-86.2102859221836, 12.1274815250937], [-86.2101857600294, 12.1274651014965], [-86.2101119185131, 12.1274528935813], [-86.2097241158049, 12.1273899218084], [-86.2096243129769, 12.1273765721419], [-86.2095423866229, 12.127365681624], [-86.2088855384872, 12.1272651199662], [-86.2087747762127, 12.1272481693948], [-86.2084015262121, 12.1271909941435], [-86.2081500877641, 12.1271525259952], [-86.2077586917948, 12.1270684757066], [-86.2075677997969, 12.1270275483882], [-86.2074182303021, 12.1269954915786], [-86.2073000120107, 12.1269701096089], [-86.2069206534662, 12.1268356466078], [-86.2064854197111, 12.1266815102951], [-86.2052291257862, 12.1262163781813], [-86.2048529113452, 12.1260512631119], [-86.2046647142932, 12.1259687933661], [-86.2045751522594, 12.1259695838111], [-86.2043942315612, 12.1260018163984], [-86.2042292110435, 12.126074186008], [-86.2039132735581, 12.1265604846835], [-86.2033758115236, 12.1273879896198], [-86.2031507835449, 12.1277344659293], [-86.2028945840259, 12.1281288950658], [-86.2026251792722, 12.1285436115113], [-86.2018299905827, 12.1297678204833], [-86.2017869612805, 12.1298342169065], [-86.201502285167, 12.1302775619114], [-86.2013803837829, 12.130467616874], [-86.201288755624, 12.1306136710345], [-86.2001455595934, 12.1322292196849], [-86.2000069495451, 12.1324320957193], [-86.1996355860066, 12.1330167467], [-86.1992073591107, 12.1336909775816], [-86.1990963273416, 12.1338596887285], [-86.198900045452, 12.1341566236007], [-86.1988617772209, 12.134214499954], [-86.1987059195191, 12.134450659936], [-86.1986254304696, 12.1345841530278], [-86.1983598884716, 12.1344088555067], [-86.1980230202401, 12.134213797358], [-86.1978222467741, 12.1341178051594], [-86.197460135883, 12.1340045114863], [-86.1970379276995, 12.1339028106131], [-86.1965777207795, 12.1338439681212], [-86.1959444983357, 12.1337924150617], [-86.194631790211, 12.1336387218949], [-86.1945706149402, 12.1341787553792], [-86.1945594758306, 12.1346734704078], [-86.1945529181291, 12.1349705800217]]}, "type": "Feature", "properties": {"name": "101"}}, {"geometry": {"type": "Point", "coordinates": [-86.3137360001343, 12.1578535233303]}, "type": "Feature", "properties": {"name": null, "popupContent": "This is where the Rockies play!"}}, {"geometry": {"type": "Point", "coordinates": [-86.3137173151764, 12.1578076830068]}, "type": "Feature", "properties": {"name": "Terminal 101", "popupContent": "This is where the Rockies play!"}}, {"geometry": {"type": "Point", "coordinates": [-86.3147495692694, 12.155486501353]}, "type": "Feature", "properties": {"name": null, "popupContent": "This is where the Rockies play!"}}, {"geometry": {"type": "Point", "coordinates": [-86.3147252249252, 12.1554933511168]}, "type": "Feature", "properties": {"name": "R\u00f3tulo Joyer\u00eda Garz\u00f3n", "popupContent": "This is where the Rockies play!"}}, {"geometry": {"type": "Point", "coordinates": [-86.3131749124079, 12.1506775723736]}, "type": "Feature", "properties": {"name": null, "popupContent": "This is where the Rockies play!"}}, {"geometry": {"type": "Point", "coordinates": [-86.3132246790746, 12.1507279805168]}, "type": "Feature", "properties": {"name": "Cl\u00ednica Bethel", "popupContent": "This is where the Rockies play!"}}, {"geometry": {"type": "Point", "coordinates": [-86.3091168629434, 12.1516401554917]}, "type": "Feature", "properties": {"name": null, "popupContent": "This is where the Rockies play!"}}, {"geometry": {"type": "Point", "coordinates": [-86.3091272834007, 12.1516988184138]}, "type": "Feature", "properties": {"name": "Narc\u00f3ticos An\u00f3nimos", "popupContent": "This is where the Rockies play!"}}, {"geometry": {"type": "Point", "coordinates": [-86.3059743764165, 12.1524163843377]}, "type": "Feature", "properties": {"name": null, "popupContent": "This is where the Rockies play!"}}, {"geometry": {"type": "Point", "coordinates": [-86.3059717713022, 12.1524913813254]}, "type": "Feature", "properties": {"name": "Centro Comercial Linda Vista", "popupContent": "This is where the Rockies play!"}}, {"geometry": {"type": "Point", "coordinates": [-86.3009211732802, 12.1535601300119]}, "type": "Feature", "properties": {"name": null, "popupContent": "This is where the Rockies play!"}}, {"geometry": {"type": "Point", "coordinates": [-86.3009333903681, 12.1536543588397]}, "type": "Feature", "properties": {"name": "Tortiller\u00eda Alicia", "popupContent": "This is where the Rockies play!"}}, {"geometry": {"type": "Point", "coordinates": [-86.2981186990884, 12.1542461642934]}, "type": "Feature", "properties": {"name": null, "popupContent": "This is where the Rockies play!"}}, {"geometry": {"type": "Point", "coordinates": [-86.2981268737575, 12.1542886681513]}, "type": "Feature", "properties": {"name": "Sem\u00e1foro La Ceibita", "popupContent": "This is where the Rockies play!"}}, {"geometry": {"type": "Point", "coordinates": [-86.2917063449273, 12.1554089585019]}, "type": "Feature", "properties": {"name": null, "popupContent": "This is where the Rockies play!"}}, {"geometry": {"type": "Point", "coordinates": [-86.2917161365639, 12.1554633175358]}, "type": "Feature", "properties": {"name": "ALKE", "popupContent": "This is where the Rockies play!"}}, {"geometry": {"type": "Point", "coordinates": [-86.2878776353548, 12.1556113777884]}, "type": "Feature", "properties": {"name": null, "popupContent": "This is where the Rockies play!"}}, {"geometry": {"type": "Point", "coordinates": [-86.2878755692297, 12.1556403575435]}, "type": "Feature", "properties": {"name": "Cocteler\u00eda Viagra", "popupContent": "This is where the Rockies play!"}}, {"geometry": {"type": "Point", "coordinates": [-86.285369269587, 12.1522604186375]}, "type": "Feature", "properties": {"name": null, "popupContent": "This is where the Rockies play!"}}, {"geometry": {"type": "Point", "coordinates": [-86.2853168978059, 12.1523145148592]}, "type": "Feature", "properties": {"name": "Ministerio de Hacienda y Cr\u00e9dito P\u00fablico", "popupContent": "This is where the Rockies play!"}}, {"geometry": {"type": "Point", "coordinates": [-86.2830473042406, 12.1521516114311]}, "type": "Feature", "properties": {"name": null, "popupContent": "This is where the Rockies play!"}}, {"geometry": {"type": "Point", "coordinates": [-86.2830616772851, 12.1522088691433]}, "type": "Feature", "properties": {"name": "MTI", "popupContent": "This is where the Rockies play!"}}, {"geometry": {"type": "Point", "coordinates": [-86.2822027082105, 12.1474862959469]}, "type": "Feature", "properties": {"name": null, "popupContent": "This is where the Rockies play!"}}, {"geometry": {"type": "Point", "coordinates": [-86.2821338074282, 12.1474769870134]}, "type": "Feature", "properties": {"name": "Sem\u00e1foro CST", "popupContent": "This is where the Rockies play!"}}, {"geometry": {"type": "Point", "coordinates": [-86.2779940112728, 12.1461432593721]}, "type": "Feature", "properties": {"name": null, "popupContent": "This is where the Rockies play!"}}, {"geometry": {"type": "Point", "coordinates": [-86.2779683194557, 12.1462022747879]}, "type": "Feature", "properties": {"name": "INSS", "popupContent": "This is where the Rockies play!"}}, {"geometry": {"type": "Point", "coordinates": [-86.2737440816637, 12.1454628247333]}, "type": "Feature", "properties": {"name": null, "popupContent": "This is where the Rockies play!"}}, {"geometry": {"type": "Point", "coordinates": [-86.2736917098826, 12.145506910768]}, "type": "Feature", "properties": {"name": "Plaza Inter", "popupContent": "This is where the Rockies play!"}}, {"geometry": {"type": "Point", "coordinates": [-86.2667467445896, 12.144153852588]}, "type": "Feature", "properties": {"name": null, "popupContent": "This is where the Rockies play!"}}, {"geometry": {"type": "Point", "coordinates": [-86.2667233883922, 12.1442184011808]}, "type": "Feature", "properties": {"name": "El Redentor", "popupContent": "This is where the Rockies play!"}}, {"geometry": {"type": "Point", "coordinates": [-86.260781931103, 12.1449878894583]}, "type": "Feature", "properties": {"name": null, "popupContent": "This is where the Rockies play!"}}, {"geometry": {"type": "Point", "coordinates": [-86.2608565811031, 12.145000272212]}, "type": "Feature", "properties": {"name": "Polic\u00eda Nacional Distrito IV", "popupContent": "This is where the Rockies play!"}}, {"geometry": {"type": "Point", "coordinates": [-86.2561387190624, 12.1443662920472]}, "type": "Feature", "properties": {"name": null, "popupContent": "This is where the Rockies play!"}}, {"geometry": {"type": "Point", "coordinates": [-86.2561481513729, 12.1444066897756]}, "type": "Feature", "properties": {"name": "Boutique Inter Fashion", "popupContent": "This is where the Rockies play!"}}, {"geometry": {"type": "Point", "coordinates": [-86.253604571646, 12.1453694712135]}, "type": "Feature", "properties": {"name": null, "popupContent": "This is where the Rockies play!"}}, {"geometry": {"type": "Point", "coordinates": [-86.2536352041971, 12.1453801853538]}, "type": "Feature", "properties": {"name": "Supermercado La Colonia", "popupContent": "This is where the Rockies play!"}}, {"geometry": {"type": "Point", "coordinates": [-86.2515240734479, 12.1451004758927]}, "type": "Feature", "properties": {"name": null, "popupContent": "This is where the Rockies play!"}}, {"geometry": {"type": "Point", "coordinates": [-86.2515319786224, 12.14513700939]}, "type": "Feature", "properties": {"name": "Profamilia", "popupContent": "This is where the Rockies play!"}}, {"geometry": {"type": "Point", "coordinates": [-86.2493429639381, 12.1486090738897]}, "type": "Feature", "properties": {"name": null, "popupContent": "This is where the Rockies play!"}}, {"geometry": {"type": "Point", "coordinates": [-86.2493990188118, 12.1486233885095]}, "type": "Feature", "properties": {"name": "Hospital Solidaridad", "popupContent": "This is where the Rockies play!"}}, {"geometry": {"type": "Point", "coordinates": [-86.2491114680894, 12.1517078637434]}, "type": "Feature", "properties": {"name": null, "popupContent": "This is where the Rockies play!"}}, {"geometry": {"type": "Point", "coordinates": [-86.2491563838536, 12.1517110252178]}, "type": "Feature", "properties": {"name": "Agri", "popupContent": "This is where the Rockies play!"}}, {"geometry": {"type": "Point", "coordinates": [-86.2460687843905, 12.1524220047216]}, "type": "Feature", "properties": {"name": null, "popupContent": "This is where the Rockies play!"}}, {"geometry": {"type": "Point", "coordinates": [-86.246073635293, 12.1524451888038]}, "type": "Feature", "properties": {"name": "S\u00faper de los Militares", "popupContent": "This is where the Rockies play!"}}, {"geometry": {"type": "Point", "coordinates": [-86.2427280396804, 12.1521063848552]}, "type": "Feature", "properties": {"name": null, "popupContent": "This is where the Rockies play!"}}, {"geometry": {"type": "Point", "coordinates": [-86.242726602376, 12.1521522261612]}, "type": "Feature", "properties": {"name": "L\u00e1cteos Calibri", "popupContent": "This is where the Rockies play!"}}, {"geometry": {"type": "Point", "coordinates": [-86.2369731624757, 12.1514105093474]}, "type": "Feature", "properties": {"name": null, "popupContent": "This is where the Rockies play!"}}, {"geometry": {"type": "Point", "coordinates": [-86.2369375891905, 12.1514065575]}, "type": "Feature", "properties": {"name": "Distribuidora La Universal", "popupContent": "This is where the Rockies play!"}}, {"geometry": {"type": "Point", "coordinates": [-86.2372872134991, 12.1482119526589]}, "type": "Feature", "properties": {"name": null, "popupContent": "This is where the Rockies play!"}}, {"geometry": {"type": "Point", "coordinates": [-86.2372475977951, 12.1482085276833]}, "type": "Feature", "properties": {"name": "Colonial Norte", "popupContent": "This is where the Rockies play!"}}, {"geometry": {"type": "Point", "coordinates": [-86.2374843038724, 12.1459834258884]}, "type": "Feature", "properties": {"name": null, "popupContent": "This is where the Rockies play!"}}, {"geometry": {"type": "Point", "coordinates": [-86.2374461254728, 12.1459845675565]}, "type": "Feature", "properties": {"name": "Empe\u00f1os Prisa", "popupContent": "This is where the Rockies play!"}}, {"geometry": {"type": "Point", "coordinates": [-86.2377449949679, 12.1423116203722]}, "type": "Feature", "properties": {"name": null, "popupContent": "This is where the Rockies play!"}}, {"geometry": {"type": "Point", "coordinates": [-86.2376835502024, 12.1423103908666]}, "type": "Feature", "properties": {"name": "\u00d3ptica Cristal", "popupContent": "This is where the Rockies play!"}}, {"geometry": {"type": "Point", "coordinates": [-86.2379392107323, 12.1393865225211]}, "type": "Feature", "properties": {"name": null, "popupContent": "This is where the Rockies play!"}}, {"geometry": {"type": "Point", "coordinates": [-86.237892408506, 12.1393883667998]}, "type": "Feature", "properties": {"name": "Cementerio Oriental", "popupContent": "This is where the Rockies play!"}}, {"geometry": {"type": "Point", "coordinates": [-86.2382826366654, 12.1359225054008]}, "type": "Feature", "properties": {"name": null, "popupContent": "This is where the Rockies play!"}}, {"geometry": {"type": "Point", "coordinates": [-86.2382536210817, 12.1359197828587]}, "type": "Feature", "properties": {"name": "Librer\u00eda Brayes", "popupContent": "This is where the Rockies play!"}}, {"geometry": {"type": "Point", "coordinates": [-86.2381862474354, 12.1341494219899]}, "type": "Feature", "properties": {"name": null, "popupContent": "This is where the Rockies play!"}}, {"geometry": {"type": "Point", "coordinates": [-86.2381698082657, 12.1341979011226]}, "type": "Feature", "properties": {"name": "Hospital Japon\u00e9s", "popupContent": "This is where the Rockies play!"}}, {"geometry": {"type": "Point", "coordinates": [-86.2353033740256, 12.1323852849424]}, "type": "Feature", "properties": {"name": null, "popupContent": "This is where the Rockies play!"}}, {"geometry": {"type": "Point", "coordinates": [-86.2352816347958, 12.1324133889745]}, "type": "Feature", "properties": {"name": "Farmacia Vicky", "popupContent": "This is where the Rockies play!"}}, {"geometry": {"type": "Point", "coordinates": [-86.2345840929776, 12.1291064023015]}, "type": "Feature", "properties": {"name": null, "popupContent": "This is where the Rockies play!"}}, {"geometry": {"type": "Point", "coordinates": [-86.2345312720389, 12.129112374482]}, "type": "Feature", "properties": {"name": "Colonia Nicarao", "popupContent": "This is where the Rockies play!"}}, {"geometry": {"type": "Point", "coordinates": [-86.233323576971, 12.1253278295523]}, "type": "Feature", "properties": {"name": null, "popupContent": "This is where the Rockies play!"}}, {"geometry": {"type": "Point", "coordinates": [-86.2333145938181, 12.1253655953445]}, "type": "Feature", "properties": {"name": "Black Power Gym", "popupContent": "This is where the Rockies play!"}}, {"geometry": {"type": "Point", "coordinates": [-86.2319865245021, 12.1251375952711]}, "type": "Feature", "properties": {"name": null, "popupContent": "This is where the Rockies play!"}}, {"geometry": {"type": "Point", "coordinates": [-86.2319801464635, 12.1251750097803]}, "type": "Feature", "properties": {"name": "Cafet\u00edn Nareli", "popupContent": "This is where the Rockies play!"}}, {"geometry": {"type": "Point", "coordinates": [-86.2316161491104, 12.1229050988918]}, "type": "Feature", "properties": {"name": null, "popupContent": "This is where the Rockies play!"}}, {"geometry": {"type": "Point", "coordinates": [-86.2315776113848, 12.1228949108172]}, "type": "Feature", "properties": {"name": "Pulper\u00eda", "popupContent": "This is where the Rockies play!"}}, {"geometry": {"type": "Point", "coordinates": [-86.2319317272698, 12.1199148822894]}, "type": "Feature", "properties": {"name": null, "popupContent": "This is where the Rockies play!"}}, {"geometry": {"type": "Point", "coordinates": [-86.2319061252842, 12.1199370152499]}, "type": "Feature", "properties": {"name": "Tanque", "popupContent": "This is where the Rockies play!"}}, {"geometry": {"type": "Point", "coordinates": [-86.2285560380951, 12.1218694264191]}, "type": "Feature", "properties": {"name": null, "popupContent": "This is where the Rockies play!"}}, {"geometry": {"type": "Point", "coordinates": [-86.2285494803935, 12.1218925253317]}, "type": "Feature", "properties": {"name": "Centro Escolar Nuevo Amanecer", "popupContent": "This is where the Rockies play!"}}, {"geometry": {"type": "Point", "coordinates": [-86.2248748318923, 12.1208608012284]}, "type": "Feature", "properties": {"name": null, "popupContent": "This is where the Rockies play!"}}, {"geometry": {"type": "Point", "coordinates": [-86.2248689030114, 12.1208983919953]}, "type": "Feature", "properties": {"name": "Farmacia Sina\u00ed", "popupContent": "This is where the Rockies play!"}}, {"geometry": {"type": "Point", "coordinates": [-86.2239857692556, 12.1235609114626]}, "type": "Feature", "properties": {"name": null, "popupContent": "This is where the Rockies play!"}}, {"geometry": {"type": "Point", "coordinates": [-86.2240315833351, 12.1235761935362]}, "type": "Feature", "properties": {"name": "Colegio Primero de Mayo", "popupContent": "This is where the Rockies play!"}}, {"geometry": {"type": "Point", "coordinates": [-86.2236639927208, 12.1249972469009]}, "type": "Feature", "properties": {"name": null, "popupContent": "This is where the Rockies play!"}}, {"geometry": {"type": "Point", "coordinates": [-86.2237017219628, 12.1250024287256]}, "type": "Feature", "properties": {"name": "Iglesia San Jos\u00e9 Obrero", "popupContent": "This is where the Rockies play!"}}, {"geometry": {"type": "Point", "coordinates": [-86.2232931681715, 12.1266289019264]}, "type": "Feature", "properties": {"name": null, "popupContent": "This is where the Rockies play!"}}, {"geometry": {"type": "Point", "coordinates": [-86.2233554214207, 12.126648750828]}, "type": "Feature", "properties": {"name": "Pulper\u00eda El Mercadito", "popupContent": "This is where the Rockies play!"}}, {"geometry": {"type": "Point", "coordinates": [-86.2222726820088, 12.1286576101163]}, "type": "Feature", "properties": {"name": null, "popupContent": "This is where the Rockies play!"}}, {"geometry": {"type": "Point", "coordinates": [-86.222328647051, 12.1286719258082]}, "type": "Feature", "properties": {"name": "Entrada Primero de Mayo", "popupContent": "This is where the Rockies play!"}}, {"geometry": {"type": "Point", "coordinates": [-86.2185049680441, 12.1285952534124]}, "type": "Feature", "properties": {"name": null, "popupContent": "This is where the Rockies play!"}}, {"geometry": {"type": "Point", "coordinates": [-86.2185034409082, 12.1286630553489]}, "type": "Feature", "properties": {"name": "Almacenes Tropig\u00e1s", "popupContent": "This is where the Rockies play!"}}, {"geometry": {"type": "Point", "coordinates": [-86.2159020995084, 12.128350481252]}, "type": "Feature", "properties": {"name": null, "popupContent": "This is where the Rockies play!"}}, {"geometry": {"type": "Point", "coordinates": [-86.2158966197852, 12.1283718230747]}, "type": "Feature", "properties": {"name": "Mercado Iv\u00e1n Montenegro Sur", "popupContent": "This is where the Rockies play!"}}, {"geometry": {"type": "Point", "coordinates": [-86.2119669395748, 12.1277552808415]}, "type": "Feature", "properties": {"name": null, "popupContent": "This is where the Rockies play!"}}, {"geometry": {"type": "Point", "coordinates": [-86.2119512190573, 12.1278126316251]}, "type": "Feature", "properties": {"name": "Farmacia Sophya", "popupContent": "This is where the Rockies play!"}}, {"geometry": {"type": "Point", "coordinates": [-86.2096244028084, 12.1273765721419]}, "type": "Feature", "properties": {"name": null, "popupContent": "This is where the Rockies play!"}}, {"geometry": {"type": "Point", "coordinates": [-86.2096431775978, 12.1274701954465]}, "type": "Feature", "properties": {"name": "Colegio Inmaculada Concepci\u00f3n", "popupContent": "This is where the Rockies play!"}}, {"geometry": {"type": "Point", "coordinates": [-86.2064855095426, 12.1266815102951]}, "type": "Feature", "properties": {"name": null, "popupContent": "This is where the Rockies play!"}}, {"geometry": {"type": "Point", "coordinates": [-86.2064951215161, 12.1267478196599]}, "type": "Feature", "properties": {"name": "El Madro\u00f1o", "popupContent": "This is where the Rockies play!"}}, {"geometry": {"type": "Point", "coordinates": [-86.2048530011768, 12.1260512631119]}, "type": "Feature", "properties": {"name": null, "popupContent": "This is where the Rockies play!"}}, {"geometry": {"type": "Point", "coordinates": [-86.2048246144138, 12.1261231935723]}, "type": "Feature", "properties": {"name": "Pal\u00ed", "popupContent": "This is where the Rockies play!"}}, {"geometry": {"type": "Point", "coordinates": [-86.2031508733764, 12.1277344659293]}, "type": "Feature", "properties": {"name": null, "popupContent": "This is where the Rockies play!"}}, {"geometry": {"type": "Point", "coordinates": [-86.2032043231358, 12.1277487816708]}, "type": "Feature", "properties": {"name": "Petrogas", "popupContent": "This is where the Rockies play!"}}, {"geometry": {"type": "Point", "coordinates": [-86.2015023749985, 12.1302775619114]}, "type": "Feature", "properties": {"name": null, "popupContent": "This is where the Rockies play!"}}, {"geometry": {"type": "Point", "coordinates": [-86.2015596875137, 12.1302990792314]}, "type": "Feature", "properties": {"name": "Pulper\u00eda Guadalupe", "popupContent": "This is where the Rockies play!"}}]}