{"type": "FeatureCollection", "features": [{"geometry": {"type": "MultiLineString", "coordinates": [[[-86.2809428210245, 12.1354739003409], [-86.2810665190391, 12.13563979999], [-86.2811400012294, 12.1358072803675], [-86.2812053087505, 12.1360249959183], [-86.2812644178962, 12.1361504962498], [-86.2813166100142, 12.1362889066239], [-86.2814495606763, 12.1365617750885], [-86.2814907035163, 12.1366250959893], [-86.2816103591121, 12.1368088231226], [-86.2819692360681, 12.1372679647546], [-86.2820673320972, 12.137376251103], [-86.2822346882346, 12.1375828996246], [-86.2825124473204, 12.1379109197919], [-86.2826983985843, 12.138203985929], [-86.2828617123029, 12.1386172815278], [-86.282920551954, 12.1388486073438], [-86.2829690609794, 12.1391069824102], [-86.2829828052032, 12.1393309306845], [-86.2829739118819, 12.1396391007667], [-86.2829391470804, 12.1399783596953], [-86.2828812955761, 12.14050248447], [-86.2828572207265, 12.1407261681039], [-86.2827842775254, 12.1414033654278], [-86.2827545432895, 12.1417248820604], [-86.2827014528562, 12.1422906309533], [-86.2826148552628, 12.1432788004613], [-86.2825370611592, 12.1439424668148], [-86.2824980742759, 12.1443148288453], [-86.2824427380544, 12.144844214345], [-86.2823985409424, 12.1453555955228], [-86.282351559053, 12.1459002597465], [-86.2822651411227, 12.1469079997891], [-86.2831837583323, 12.1470805666556], [-86.2835941985856, 12.1471582875742], [-86.2840756955779, 12.1472493571415], [-86.2849403240388, 12.1474098046062], [-86.2852414393221, 12.1474702248634], [-86.2853403438348, 12.1474868228677], [-86.2856957173612, 12.1475473309275], [-86.2861335562307, 12.1476232074882], [-86.2870505564727, 12.1477827765272], [-86.2872664216355, 12.1478202756766], [-86.2875498401077, 12.1478614632608], [-86.287794541191, 12.1478830669805], [-86.2877652561128, 12.1486545645192], [-86.2877321082788, 12.1495267009336], [-86.2883107131533, 12.1495573499209], [-86.2888765619508, 12.149587471988], [-86.2899980187515, 12.1496306791454], [-86.2909477176698, 12.1496802971122], [-86.2921287327739, 12.1497573147167], [-86.2923753203194, 12.1497765471594], [-86.293028754857, 12.1498276580281], [-86.2939485398765, 12.1498885168331], [-86.2948240379523, 12.1499891577701], [-86.2951228176158, 12.1500169964868], [-86.2957252278454, 12.1500731130078], [-86.2964032762218, 12.1501402069235], [-86.2963728233337, 12.1508589186976], [-86.2973037474626, 12.1509074826074], [-86.2972873082929, 12.1512338178006], [-86.2972597300137, 12.151782509656], [-86.2972374517947, 12.1522158946286], [-86.2972167905431, 12.1526169617141], [-86.2971977462591, 12.1530380507667], [-86.297173761241, 12.1534567680627], [-86.2971221979437, 12.1543358263493], [-86.2971157300737, 12.1544866095817], [-86.2970753058859, 12.155243949347], [-86.2970324562468, 12.1561333641661], [-86.2969896964393, 12.1570271668602], [-86.2969824200855, 12.1575144628193], [-86.2969765810362, 12.1579003296295], [-86.2965165537792, 12.1578821515743], [-86.2960359551021, 12.1578632709843], [-86.2956364742953, 12.1578475517944], [-86.2951262312139, 12.1578276174013], [-86.2942244125002, 12.1577922272637], [-86.2941802153882, 12.1597038148505], [-86.2941941392751, 12.1597817955298], [-86.2941776102739, 12.1597823224263], [-86.2940264238116, 12.1597823224263], [-86.2939165598523, 12.1597781950711], [-86.2938397538955, 12.1599475043974], [-86.2938252910195, 12.1600638605888], [-86.293727284822, 12.1608554326025], [-86.2936755418616, 12.16132586096], [-86.2936317040758, 12.1617234016914], [-86.293624607385, 12.1617882972834], [-86.293534506362, 12.162623771731], [-86.2934806972765, 12.1633214620134]], [[-86.2276669754584, 12.1384323261181], [-86.2278181619207, 12.1385336739701], [-86.2278983814756, 12.1385864556351], [-86.2280691512111, 12.1385976969867], [-86.2282549228118, 12.1385408754624], [-86.2284083550624, 12.1385003011981], [-86.2286897074094, 12.1384674553606], [-86.229099698505, 12.1384195917666], [-86.2292983160144, 12.1384121268016], [-86.2295418492879, 12.1384326774106], [-86.2297617568694, 12.1384789601865], [-86.2300834435727, 12.1386606661115], [-86.2304645987477, 12.138964797114], [-86.230569701636, 12.1390407639432], [-86.2306570178816, 12.1390412030578], [-86.230786285451, 12.1390417299953], [-86.2312919471244, 12.1390437499222], [-86.2315870436952, 12.1390457698491], [-86.2319411595802, 12.1390482288906], [-86.2321512755252, 12.138959176446], [-86.2325512953212, 12.1387896781212], [-86.2326028586185, 12.1387393555408], [-86.2327830606645, 12.1385379773009], [-86.2329357742628, 12.1384342582266], [-86.233067736778, 12.1383806861233], [-86.2330934285952, 12.1387444492753], [-86.233203562049, 12.1397400968688], [-86.2332333861164, 12.1400594199449], [-86.2332554846724, 12.1402955747458], [-86.2333302245041, 12.1410922992532], [-86.2333891539867, 12.141573652488], [-86.2333923879217, 12.1416007016861], [-86.2334566174645, 12.1421258771309], [-86.2335298301602, 12.1426747634036], [-86.2336670927356, 12.1440006045058], [-86.23374434785, 12.1447473477671], [-86.2337751600643, 12.1449499508051], [-86.2337817177659, 12.1449934221781], [-86.2338132486323, 12.1452005038938], [-86.2338464862978, 12.1455591641264], [-86.2337780346732, 12.1456027232207], [-86.2337295256478, 12.145665075944], [-86.2337050914721, 12.145741304324], [-86.2337092237224, 12.1458223628193], [-86.2337410240835, 12.1458959565347], [-86.2337665362376, 12.1459277476083], [-86.2338318437587, 12.1459757854942], [-86.233900744541, 12.1459978284699], [-86.2339823115688, 12.1459966868019], [-86.2340619921345, 12.1459663886872], [-86.2341317014006, 12.1459260790162], [-86.2342462365993, 12.1459175604139], [-86.234438296407, 12.1459468046866], [-86.2345053107272, 12.1459468925072], [-86.2346394291991, 12.1459901002555], [-86.2346922501378, 12.1460027464245], [-86.2348635588625, 12.1460391041568], [-86.2350609187304, 12.1460716855986], [-86.2350796036884, 12.14607484714], [-86.2352052779966, 12.1460967144664], [-86.2357058192729, 12.1461603843825], [-86.2358653600674, 12.1461796170852], [-86.236049245206, 12.1462279183872], [-86.2366062006822, 12.1462956280158], [-86.2371307269766, 12.1463534139109], [-86.2374550187942, 12.1463952164655], [-86.2378933966528, 12.1464472940086], [-86.2381738506845, 12.1464807536051], [-86.2383746241505, 12.1465067484593], [-86.2386360338982, 12.1465387151008], [-86.2389260999034, 12.1465770926298], [-86.2392397916006, 12.1465830644187], [-86.2396185213244, 12.1465138619156], [-86.2400396515296, 12.1463529748084], [-86.240293695092, 12.1462430235198], [-86.2406035240335, 12.1461602087413], [-86.2408152569459, 12.1461293837218], [-86.2411391894374, 12.1461343894944], [-86.241253185647, 12.1461128734534], [-86.2413579292091, 12.1461169132], [-86.2414583608578, 12.1461236753844], [-86.2415596009903, 12.1461278029514], [-86.2416182609784, 12.1461545882252], [-86.242341045456, 12.1462045581222], [-86.2426311114612, 12.1462186094097], [-86.2431498885378, 12.1462437260841], [-86.2439912506329, 12.1462887780152], [-86.244821383787, 12.1463217985291], [-86.2449965552674, 12.146331458785], [-86.2456614882407, 12.1463681677544], [-86.246293093717, 12.146394953004], [-86.2464846145355, 12.1463822190332], [-86.2468459169428, 12.1463933722353], [-86.2471084046688, 12.1463701876258], [-86.2472149448615, 12.1463543799364], [-86.2473337919736, 12.1463368158359], [-86.2476024780751, 12.1462740241673], [-86.2480366338519, 12.1461105022978], [-86.248539690411, 12.1459135206642], [-86.2485905350561, 12.1458934975565], [-86.2487177365003, 12.1458381705403], [-86.2488532024452, 12.1457865319815], [-86.2493819508214, 12.145614666842], [-86.249516698114, 12.1455743571178], [-86.249646235178, 12.1455378236805], [-86.2499384571399, 12.1454722215581], [-86.2501068014242, 12.1454608048551], [-86.2503627314486, 12.1453887917941], [-86.2508234773578, 12.1452617150402], [-86.2510405103305, 12.1452019968488], [-86.2512547585257, 12.1451477235397], [-86.251348812136, 12.1451239240754], [-86.2515239836164, 12.1451004758927], [-86.2515498550966, 12.145097050877], [-86.2517782068418, 12.1451019688482], [-86.2518946285026, 12.1450795745145], [-86.2521434618363, 12.1451244510008], [-86.2526417573244, 12.1452750638106], [-86.2529716186968, 12.1453764968793], [-86.2530812131614, 12.1454085514774], [-86.2532421014288, 12.1454592240808], [-86.2532809086491, 12.145471431171], [-86.2535364793474, 12.1455517871823], [-86.2536044818144, 12.1453694712135], [-86.2536624231502, 12.1452142917716], [-86.2537158729096, 12.145082384784], [-86.2538018416823, 12.1449397635733], [-86.253998303235, 12.1447983717804], [-86.2541365539572, 12.1447468208409], [-86.2545228295294, 12.1446628639233], [-86.2548469416839, 12.1445893576881], [-86.2550635254989, 12.1445537901476], [-86.255476481035, 12.1444826550525], [-86.255810205163, 12.144419511662], [-86.2560717945738, 12.1443741081299], [-86.2561386292309, 12.1443662920472], [-86.2563413789905, 12.1443425803343], [-86.2566669284495, 12.1442752214937], [-86.2572521808571, 12.1441761591783], [-86.2576126747806, 12.14401676362], [-86.2578271924705, 12.1438657109919], [-86.2580417101603, 12.143671801446], [-86.2582391598598, 12.1438250497175], [-86.2584576301369, 12.1439948961228], [-86.2588497447584, 12.1440670852033], [-86.2595207862756, 12.1441905618576], [-86.2595485442179, 12.144195655488], [-86.2599163144952, 12.1442634534546], [-86.260050073641, 12.1442881312076], [-86.2601091827867, 12.1442990210338], [-86.2599436232799, 12.1436363216044], [-86.2599301485506, 12.1435552624436], [-86.2597869570943, 12.1429239134871], [-86.2597818366972, 12.1422991496717], [-86.2597756383217, 12.1421515211228], [-86.2597304530629, 12.1415722473348], [-86.2596875135924, 12.1411084585439], [-86.2596153788751, 12.1407508461847], [-86.2595663308605, 12.1404193166163], [-86.2595355186463, 12.1402116164248], [-86.2595021911492, 12.1400397476872], [-86.259370228634, 12.139496388818], [-86.2592118556494, 12.1389639188847], [-86.25915840589, 12.1387701814158], [-86.2590796236396, 12.1384843173953], [-86.2590780965036, 12.1384296914247], [-86.2590400079356, 12.1382794260362], [-86.2589567341087, 12.1379786315352], [-86.2588951995118, 12.1378786008214], [-86.2587812931337, 12.1374638989018], [-86.2587608115453, 12.1373839795673], [-86.2587095177425, 12.1371851471851], [-86.2586415152755, 12.1369200078368], [-86.2585232071526, 12.1364585821874], [-86.2584807168397, 12.1362935612862], [-86.2583532459009, 12.1357984979696], [-86.2581862490895, 12.1352123600808], [-86.2579755941554, 12.1344729673389], [-86.2578766896426, 12.134125972841], [-86.2578187483068, 12.1339140521623], [-86.2578095854909, 12.1338805909871], [-86.2578050939145, 12.1337776605215], [-86.2577303540828, 12.1332954149526], [-86.2577281981262, 12.1332099614034], [-86.2577357439745, 12.1331375059061], [-86.2577421220131, 12.1330848109865], [-86.2577582018567, 12.1330205231706], [-86.2577773359722, 12.1329437642006], [-86.2578137177412, 12.1328208092827], [-86.2578677963213, 12.1327407129057], [-86.2579083103406, 12.1326470036271], [-86.2581049515563, 12.1324882159457], [-86.2581557962014, 12.1324471138092], [-86.2582074493302, 12.1324053968907], [-86.2583315965025, 12.1323051006094], [-86.2586311846498, 12.1321689716207], [-86.2588871146742, 12.1320526910618], [-86.2590636336275, 12.1319920916568], [-86.2593701388025, 12.1318869648302], [-86.2599755134725, 12.1316622198713], [-86.2602764490926, 12.1315602546281], [-86.2604898888041, 12.1314765570307], [-86.2606345175649, 12.1314164844473], [-86.2608184027035, 12.1313333137574], [-86.2614527929572, 12.1309843830093], [-86.2617009974702, 12.1308479020437], [-86.2621908487946, 12.1305748520772], [-86.2625409222608, 12.1303999910479], [-86.2629213587837, 12.1302424315893], [-86.2635993173286, 12.1300159287261], [-86.2640027507227, 12.129881555087], [-86.2645435365237, 12.1297053762131], [-86.2650951021082, 12.1295478163439], [-86.2655992366456, 12.1293949111644], [-86.2658052203403, 12.1293780485545], [-86.265994046213, 12.129462010289], [-86.2660845963936, 12.1294956476711], [-86.2662116181748, 12.1295409659127], [-86.2662678527116, 12.1295543154708], [-86.266446258127, 12.1295372772189], [-86.2665719324353, 12.1294778189808], [-86.2666833235305, 12.1293700563797], [-86.2667383004259, 12.1292687050427], [-86.2667669566834, 12.1291246701474], [-86.2670474107152, 12.1289521794753], [-86.2671455965757, 12.1289069489598], [-86.2673709838805, 12.1288295740213], [-86.2675033057218, 12.1287493886187], [-86.2675446282249, 12.128737092936], [-86.2679428513904, 12.1286140482514], [-86.2685117544598, 12.1284080075603], [-86.2689546238949, 12.1282195320061], [-86.2692698427281, 12.1280769895949], [-86.2694691788896, 12.1279928517711], [-86.2699469927892, 12.1277026726847], [-86.2700478735956, 12.1276499766908], [-86.270135818662, 12.1275950850194], [-86.2709114240783, 12.1271111595555], [-86.2710071844875, 12.1270517886033], [-86.2710370983865, 12.1270332571347], [-86.2715362921899, 12.1267236672442], [-86.271612648989, 12.12667641633], [-86.2725195880999, 12.1261139717195], [-86.2725698937558, 12.1260805095652], [-86.2731108592199, 12.1257288492962], [-86.2735248927343, 12.1254596584921], [-86.2741102349735, 12.1251188880145], [-86.2742354601241, 12.1251187123595], [-86.2744357844324, 12.1250732177112], [-86.2745371143965, 12.125082615255], [-86.2746105965867, 12.1251424257831], [-86.2747125553715, 12.1252785583595], [-86.2747462421946, 12.1255450266982], [-86.274804273362, 12.1259362094659], [-86.2748353550708, 12.1261449747091], [-86.274873982628, 12.1264131108964], [-86.2749110830493, 12.126669653652], [-86.274937224024, 12.126850577186], [-86.274982948272, 12.1272277057502], [-86.2749853737233, 12.1273105264138], [-86.2749948958653, 12.1276202034496], [-86.2749679464067, 12.1281341646562], [-86.274948273302, 12.1284762486764], [-86.274929229018, 12.1289426942416], [-86.274916472941, 12.1291680562765], [-86.2749036270324, 12.1293894659468], [-86.2748765877424, 12.1301114832727], [-86.2748939252273, 12.1308645889094], [-86.2749186288977, 12.1319363226269], [-86.2749440512202, 12.132841272498], [-86.2749618378628, 12.1332563329114], [-86.2749920212564, 12.1337975967155], [-86.2750423269123, 12.1346935821834], [-86.2751109582, 12.1353441841325], [-86.2751597367199, 12.1357719751262], [-86.2751807572976, 12.135965100008], [-86.2752096830497, 12.1362839006662], [-86.2752300748067, 12.1363816485602], [-86.2753605101859, 12.136357672665], [-86.2756586610287, 12.1362993576581], [-86.2763116464087, 12.1361550630907], [-86.2767886518246, 12.1360570516419], [-86.2771071045928, 12.135991710656], [-86.2773855823309, 12.1359452518001], [-86.278079710551, 12.1357942824185], [-86.2785312936443, 12.135703208934], [-86.2789121793247, 12.1356263629127], [-86.2791977537536, 12.135569892051], [-86.2793158822134, 12.1355451256661], [-86.2802855237311, 12.135341110288], [-86.2805001312525, 12.1353159925853], [-86.2806635348027, 12.1353318009299], [-86.2807961261386, 12.1353924873996]], [[-86.1945529181291, 12.1349705800217], [-86.1945594758306, 12.1346734704078], [-86.1945706149402, 12.1341787553792], [-86.194631790211, 12.1336387218949], [-86.1959444983357, 12.1337924150617], [-86.1965777207795, 12.1338439681212], [-86.1970379276995, 12.1339028106131], [-86.197460135883, 12.1340045114863], [-86.1978222467741, 12.1341178051594], [-86.1980230202401, 12.134213797358], [-86.1983598884716, 12.1344088555067], [-86.1986254304696, 12.1345841530278], [-86.1987059195191, 12.134450659936], [-86.1988617772209, 12.134214499954], [-86.198900045452, 12.1341566236007], [-86.1990963273416, 12.1338596887285], [-86.1992073591107, 12.1336909775816], [-86.1996355860066, 12.1330167467], [-86.2000069495451, 12.1324320957193], [-86.2001455595934, 12.1322292196849], [-86.201288755624, 12.1306136710345], [-86.2013803837829, 12.130467616874], [-86.201502285167, 12.1302775619114], [-86.2017869612805, 12.1298342169065], [-86.2018299905827, 12.1297678204833], [-86.2026251792722, 12.1285436115113], [-86.2028945840259, 12.1281288950658], [-86.2031507835449, 12.1277344659293], [-86.2033758115236, 12.1273879896198], [-86.2039132735581, 12.1265604846835], [-86.2042292110435, 12.126074186008], [-86.2043942315612, 12.1260018163984], [-86.2045751522594, 12.1259695838111], [-86.2046647142932, 12.1259687933661], [-86.2048529113452, 12.1260512631119], [-86.2052291257862, 12.1262163781813], [-86.2064854197111, 12.1266815102951], [-86.2069206534662, 12.1268356466078], [-86.2073000120107, 12.1269701096089], [-86.2074182303021, 12.1269954915786], [-86.2075677997969, 12.1270275483882], [-86.2077586917948, 12.1270684757066], [-86.2081500877641, 12.1271525259952], [-86.2084015262121, 12.1271909941435], [-86.2087747762127, 12.1272481693948], [-86.2088855384872, 12.1272651199662], [-86.2095423866229, 12.127365681624], [-86.2096243129769, 12.1273765721419], [-86.2097241158049, 12.1273899218084], [-86.2101119185131, 12.1274528935813], [-86.2101857600294, 12.1274651014965], [-86.2102859221836, 12.1274815250937], [-86.2105787729662, 12.1275360654817], [-86.2114020789241, 12.1276835264747], [-86.2118731554591, 12.1277430729396], [-86.2119668497432, 12.1277552808415], [-86.2123559999243, 12.1278061324557], [-86.2130530027533, 12.1278975599449], [-86.2132783900581, 12.127927157502], [-86.2141638594336, 12.1280176188577], [-86.214269321648, 12.1280269284712], [-86.2142774963171, 12.1280277189101], [-86.2149011067873, 12.1280904270528], [-86.2150460050426, 12.1281114175903], [-86.2156927022157, 12.1281833474949], [-86.2159020096769, 12.128350481252], [-86.2160361281488, 12.1284397128944], [-86.2162184861514, 12.128502596593], [-86.2164330936728, 12.128502596593], [-86.2165511323012, 12.1284920574267], [-86.216792509618, 12.1284187223828], [-86.2169765744197, 12.1283439820958], [-86.2171198557076, 12.128365323919], [-86.217250830076, 12.1284960974405], [-86.2173604245406, 12.1286507596622], [-86.2173872841676, 12.1287161024478], [-86.2173014052265, 12.1301645300834], [-86.2172650234574, 12.1307872145392], [-86.2172518182228, 12.1310123115381], [-86.2172217246608, 12.1315217871102], [-86.217103955527, 12.1335184020396], [-86.217091379113, 12.1337304986823], [-86.2170681127472, 12.1341250945957], [-86.2170449362128, 12.1345195142759], [-86.2170168189444, 12.1349955221084], [-86.2169700167181, 12.1357875199718], [-86.2169054278492, 12.1368811897981], [-86.2168689562487, 12.136991320599], [-86.2169833117843, 12.1370298751509], [-86.2173040103408, 12.137219398357], [-86.2174260015564, 12.1372915014504], [-86.2177766140118, 12.1374950762181], [-86.2187510166005, 12.1380609219185], [-86.2191980182858, 12.1382379735004], [-86.2192962041464, 12.1382503565679], [-86.2196038771312, 12.1382817972616], [-86.2197095190086, 12.1382926873334], [-86.2197548839305, 12.1382974297839], [-86.2204828786367, 12.1383555687072], [-86.2206348735828, 12.138364526667], [-86.2209936607073, 12.1383964064629], [-86.2229059044526, 12.1384860738572], [-86.2234269273173, 12.1384945048742], [-86.223860544105, 12.1383949134698], [-86.2238782409161, 12.1383897319054], [-86.2240620362232, 12.1383340520377], [-86.2242734996411, 12.1382701167809], [-86.2250795579455, 12.138257118952], [-86.2266276246746, 12.1382870666513], [-86.2269122109567, 12.1383029626427]]]}, "type": "Feature", "properties": {"name": "102"}}, {"geometry": {"type": "Point", "coordinates": [-86.293480787108, 12.1633214620134]}, "type": "Feature", "properties": {"name": null, "popupContent": "This is where the Rockies play!"}}, {"geometry": {"type": "Point", "coordinates": [-86.2934275170117, 12.1633155784151]}, "type": "Feature", "properties": {"name": "Pulper\u00eda Karla", "popupContent": "This is where the Rockies play!"}}, {"geometry": {"type": "Point", "coordinates": [-86.2936756316931, 12.16132586096]}, "type": "Feature", "properties": {"name": null, "popupContent": "This is where the Rockies play!"}}, {"geometry": {"type": "Point", "coordinates": [-86.2936257751949, 12.1613212067354]}, "type": "Feature", "properties": {"name": "Huellas de Acahualinca", "popupContent": "This is where the Rockies play!"}}, {"geometry": {"type": "Point", "coordinates": [-86.293825380851, 12.1600638605888]}, "type": "Feature", "properties": {"name": null, "popupContent": "This is where the Rockies play!"}}, {"geometry": {"type": "Point", "coordinates": [-86.2937982517294, 12.1600609626616]}, "type": "Feature", "properties": {"name": "Parque Acahualinca", "popupContent": "This is where the Rockies play!"}}, {"geometry": {"type": "Point", "coordinates": [-86.2956365641268, 12.1578475517944]}, "type": "Feature", "properties": {"name": null, "popupContent": "This is where the Rockies play!"}}, {"geometry": {"type": "Point", "coordinates": [-86.2956341386756, 12.1577969693668]}, "type": "Feature", "properties": {"name": "Cuadro Gadala Mar\u00eda", "popupContent": "This is where the Rockies play!"}}, {"geometry": {"type": "Point", "coordinates": [-86.296982509917, 12.1575144628193]}, "type": "Feature", "properties": {"name": null, "popupContent": "This is where the Rockies play!"}}, {"geometry": {"type": "Point", "coordinates": [-86.296919088858, 12.1574356911236]}, "type": "Feature", "properties": {"name": "Pulper\u00eda Do\u00f1a Tere", "popupContent": "This is where the Rockies play!"}}, {"geometry": {"type": "Point", "coordinates": [-86.2972873981245, 12.1512338178006]}, "type": "Feature", "properties": {"name": null, "popupContent": "This is where the Rockies play!"}}, {"geometry": {"type": "Point", "coordinates": [-86.29720367514, 12.1512267044704]}, "type": "Feature", "properties": {"name": "Bar Frennedy", "popupContent": "This is where the Rockies play!"}}, {"geometry": {"type": "Point", "coordinates": [-86.2951229074474, 12.1500169964868]}, "type": "Feature", "properties": {"name": null, "popupContent": "This is where the Rockies play!"}}, {"geometry": {"type": "Point", "coordinates": [-86.2951080852452, 12.1500846173322]}, "type": "Feature", "properties": {"name": "Pulper\u00eda Cinthia", "popupContent": "This is where the Rockies play!"}}, {"geometry": {"type": "Point", "coordinates": [-86.2923754101509, 12.1497765471594]}, "type": "Feature", "properties": {"name": null, "popupContent": "This is where the Rockies play!"}}, {"geometry": {"type": "Point", "coordinates": [-86.2923631032315, 12.1498154511377]}, "type": "Feature", "properties": {"name": "Blanca's Salon", "popupContent": "This is where the Rockies play!"}}, {"geometry": {"type": "Point", "coordinates": [-86.2883108029848, 12.1495573499209]}, "type": "Feature", "properties": {"name": null, "popupContent": "This is where the Rockies play!"}}, {"geometry": {"type": "Point", "coordinates": [-86.2883077487129, 12.1495897552932]}, "type": "Feature", "properties": {"name": "Taller Automotriz", "popupContent": "This is where the Rockies play!"}}, {"geometry": {"type": "Point", "coordinates": [-86.2835942884171, 12.1471582875742]}, "type": "Feature", "properties": {"name": null, "popupContent": "This is where the Rockies play!"}}, {"geometry": {"type": "Point", "coordinates": [-86.2835525167564, 12.147228807213]}, "type": "Feature", "properties": {"name": "Estadio Cranshaw", "popupContent": "This is where the Rockies play!"}}, {"geometry": {"type": "Point", "coordinates": [-86.2824981641074, 12.1443148288453]}, "type": "Feature", "properties": {"name": null, "popupContent": "This is where the Rockies play!"}}, {"geometry": {"type": "Point", "coordinates": [-86.2824324972601, 12.1443083300785]}, "type": "Feature", "properties": {"name": "Panader\u00eda Norma", "popupContent": "This is where the Rockies play!"}}, {"geometry": {"type": "Point", "coordinates": [-86.282857310558, 12.1407261681039]}, "type": "Feature", "properties": {"name": null, "popupContent": "This is where the Rockies play!"}}, {"geometry": {"type": "Point", "coordinates": [-86.2827868826397, 12.1407099209676]}, "type": "Feature", "properties": {"name": "Canal 2", "popupContent": "This is where the Rockies play!"}}, {"geometry": {"type": "Point", "coordinates": [-86.2813166998457, 12.1362889066239]}, "type": "Feature", "properties": {"name": null, "popupContent": "This is where the Rockies play!"}}, {"geometry": {"type": "Point", "coordinates": [-86.2812531889552, 12.1363180641301]}, "type": "Feature", "properties": {"name": "Parque Las Madres", "popupContent": "This is where the Rockies play!"}}, {"geometry": {"type": "Point", "coordinates": [-86.2767887416561, 12.1360570516419]}, "type": "Feature", "properties": {"name": null, "popupContent": "This is where the Rockies play!"}}, {"geometry": {"type": "Point", "coordinates": [-86.2768013180701, 12.1361172110032]}, "type": "Feature", "properties": {"name": "Mabale", "popupContent": "This is where the Rockies play!"}}, {"geometry": {"type": "Point", "coordinates": [-86.2748940150589, 12.1308645889094]}, "type": "Feature", "properties": {"name": null, "popupContent": "This is where the Rockies play!"}}, {"geometry": {"type": "Point", "coordinates": [-86.2748080462862, 12.1308699462713]}, "type": "Feature", "properties": {"name": "Plaza Bol\u00edvar", "popupContent": "This is where the Rockies play!"}}, {"geometry": {"type": "Point", "coordinates": [-86.2749111728808, 12.126669653652]}, "type": "Feature", "properties": {"name": null, "popupContent": "This is where the Rockies play!"}}, {"geometry": {"type": "Point", "coordinates": [-86.2748461348542, 12.1266795781014]}, "type": "Feature", "properties": {"name": "Pal\u00ed", "popupContent": "This is where the Rockies play!"}}, {"geometry": {"type": "Point", "coordinates": [-86.2715363820214, 12.1267236672442]}, "type": "Feature", "properties": {"name": null, "popupContent": "This is where the Rockies play!"}}, {"geometry": {"type": "Point", "coordinates": [-86.2716017793741, 12.1268102646228]}, "type": "Feature", "properties": {"name": "UCA", "popupContent": "This is where the Rockies play!"}}, {"geometry": {"type": "Point", "coordinates": [-86.2650951919397, 12.1295478163439]}, "type": "Feature", "properties": {"name": null, "popupContent": "This is where the Rockies play!"}}, {"geometry": {"type": "Point", "coordinates": [-86.2651208837568, 12.1296216780333]}, "type": "Feature", "properties": {"name": "Metrocentro Norte", "popupContent": "This is where the Rockies play!"}}, {"geometry": {"type": "Point", "coordinates": [-86.2614528827887, 12.1309843830093]}, "type": "Feature", "properties": {"name": null, "popupContent": "This is where the Rockies play!"}}, {"geometry": {"type": "Point", "coordinates": [-86.2615019308032, 12.1310771267916]}, "type": "Feature", "properties": {"name": "UENIC", "popupContent": "This is where the Rockies play!"}}, {"geometry": {"type": "Point", "coordinates": [-86.2579756839869, 12.1344729673389]}, "type": "Feature", "properties": {"name": null, "popupContent": "This is where the Rockies play!"}}, {"geometry": {"type": "Point", "coordinates": [-86.2580436864539, 12.1344474104323]}, "type": "Feature", "properties": {"name": "Rotonda Cristo Rey", "popupContent": "This is where the Rockies play!"}}, {"geometry": {"type": "Point", "coordinates": [-86.2586416051071, 12.1369200078368]}, "type": "Feature", "properties": {"name": null, "popupContent": "This is where the Rockies play!"}}, {"geometry": {"type": "Point", "coordinates": [-86.2587208365151, 12.1368968224026]}, "type": "Feature", "properties": {"name": "Colegio Cristo Rey", "popupContent": "This is where the Rockies play!"}}, {"geometry": {"type": "Point", "coordinates": [-86.2595664206921, 12.1404193166163]}, "type": "Feature", "properties": {"name": null, "popupContent": "This is where the Rockies play!"}}, {"geometry": {"type": "Point", "coordinates": [-86.2596441249641, 12.1404057041352]}, "type": "Feature", "properties": {"name": "Disco Bar Santo Domingo", "popupContent": "This is where the Rockies play!"}}, {"geometry": {"type": "Point", "coordinates": [-86.2599164043268, 12.1442634534546]}, "type": "Feature", "properties": {"name": null, "popupContent": "This is where the Rockies play!"}}, {"geometry": {"type": "Point", "coordinates": [-86.2599036482497, 12.1443051685162]}, "type": "Feature", "properties": {"name": "Billares Millenium", "popupContent": "This is where the Rockies play!"}}, {"geometry": {"type": "Point", "coordinates": [-86.2561387190624, 12.1443662920472]}, "type": "Feature", "properties": {"name": null, "popupContent": "This is where the Rockies play!"}}, {"geometry": {"type": "Point", "coordinates": [-86.2561481513729, 12.1444066897756]}, "type": "Feature", "properties": {"name": "Boutique Inter Fashion", "popupContent": "This is where the Rockies play!"}}, {"geometry": {"type": "Point", "coordinates": [-86.253604571646, 12.1453694712135]}, "type": "Feature", "properties": {"name": null, "popupContent": "This is where the Rockies play!"}}, {"geometry": {"type": "Point", "coordinates": [-86.2536352041971, 12.1453801853538]}, "type": "Feature", "properties": {"name": "Supermercado La Colonia", "popupContent": "This is where the Rockies play!"}}, {"geometry": {"type": "Point", "coordinates": [-86.2515240734479, 12.1451004758927]}, "type": "Feature", "properties": {"name": null, "popupContent": "This is where the Rockies play!"}}, {"geometry": {"type": "Point", "coordinates": [-86.2515319786224, 12.14513700939]}, "type": "Feature", "properties": {"name": "Profamilia", "popupContent": "This is where the Rockies play!"}}, {"geometry": {"type": "Point", "coordinates": [-86.2496463250095, 12.1455378236805]}, "type": "Feature", "properties": {"name": null, "popupContent": "This is where the Rockies play!"}}, {"geometry": {"type": "Point", "coordinates": [-86.2496602488964, 12.1456223072466]}, "type": "Feature", "properties": {"name": "Uniformes Nicky", "popupContent": "This is where the Rockies play!"}}, {"geometry": {"type": "Point", "coordinates": [-86.2449966450989, 12.146331458785]}, "type": "Feature", "properties": {"name": null, "popupContent": "This is where the Rockies play!"}}, {"geometry": {"type": "Point", "coordinates": [-86.2449942196477, 12.146366499165]}, "type": "Feature", "properties": {"name": "Mataburros Pancas\u00e1n", "popupContent": "This is where the Rockies play!"}}, {"geometry": {"type": "Point", "coordinates": [-86.2426312012928, 12.1462186094097]}, "type": "Feature", "properties": {"name": null, "popupContent": "This is where the Rockies play!"}}, {"geometry": {"type": "Point", "coordinates": [-86.2426251825804, 12.1462691940383]}, "type": "Feature", "properties": {"name": "Sellos de Hule", "popupContent": "This is where the Rockies play!"}}, {"geometry": {"type": "Point", "coordinates": [-86.2378934864843, 12.1464472940086]}, "type": "Feature", "properties": {"name": null, "popupContent": "This is where the Rockies play!"}}, {"geometry": {"type": "Point", "coordinates": [-86.2378889949079, 12.1464725863024]}, "type": "Feature", "properties": {"name": "EL Colonial", "popupContent": "This is where the Rockies play!"}}, {"geometry": {"type": "Point", "coordinates": [-86.2346395190307, 12.1459901002555]}, "type": "Feature", "properties": {"name": null, "popupContent": "This is where the Rockies play!"}}, {"geometry": {"type": "Point", "coordinates": [-86.2346325121715, 12.1460339227411]}, "type": "Feature", "properties": {"name": "McDonald's", "popupContent": "This is where the Rockies play!"}}, {"geometry": {"type": "Point", "coordinates": [-86.2337818075974, 12.1449934221781]}, "type": "Feature", "properties": {"name": null, "popupContent": "This is where the Rockies play!"}}, {"geometry": {"type": "Point", "coordinates": [-86.2337502767309, 12.144998603614]}, "type": "Feature", "properties": {"name": "Supermercado La Uni\u00f3n", "popupContent": "This is where the Rockies play!"}}, {"geometry": {"type": "Point", "coordinates": [-86.2332555745039, 12.1402955747458]}, "type": "Feature", "properties": {"name": null, "popupContent": "This is where the Rockies play!"}}, {"geometry": {"type": "Point", "coordinates": [-86.2332236843114, 12.1402992632907]}, "type": "Feature", "properties": {"name": "Boulevard Sur Bello Horizonte", "popupContent": "This is where the Rockies play!"}}, {"geometry": {"type": "Point", "coordinates": [-86.2321513653567, 12.138959176446]}, "type": "Feature", "properties": {"name": null, "popupContent": "This is where the Rockies play!"}}, {"geometry": {"type": "Point", "coordinates": [-86.2321753503748, 12.1389988724112]}, "type": "Feature", "properties": {"name": "El Molino", "popupContent": "This is where the Rockies play!"}}, {"geometry": {"type": "Point", "coordinates": [-86.2307863752825, 12.1390417299953]}, "type": "Feature", "properties": {"name": null, "popupContent": "This is where the Rockies play!"}}, {"geometry": {"type": "Point", "coordinates": [-86.2307824226952, 12.1390650030657]}, "type": "Feature", "properties": {"name": "Parque", "popupContent": "This is where the Rockies play!"}}, {"geometry": {"type": "Point", "coordinates": [-86.2286897972409, 12.1384674553606]}, "type": "Feature", "properties": {"name": null, "popupContent": "This is where the Rockies play!"}}, {"geometry": {"type": "Point", "coordinates": [-86.2286926718498, 12.1384981056209]}, "type": "Feature", "properties": {"name": "Multicentro Sur", "popupContent": "This is where the Rockies play!"}}, {"geometry": {"type": "Point", "coordinates": [-86.2240621260547, 12.1383340520377]}, "type": "Feature", "properties": {"name": null, "popupContent": "This is where the Rockies play!"}}, {"geometry": {"type": "Point", "coordinates": [-86.2240713787022, 12.1383504749652]}, "type": "Feature", "properties": {"name": "RUPAP", "popupContent": "This is where the Rockies play!"}}, {"geometry": {"type": "Point", "coordinates": [-86.2196039669627, 12.1382817972616]}, "type": "Feature", "properties": {"name": null, "popupContent": "This is where the Rockies play!"}}, {"geometry": {"type": "Point", "coordinates": [-86.2196038771312, 12.1383266748934]}, "type": "Feature", "properties": {"name": "UPOLI Norte", "popupContent": "This is where the Rockies play!"}}, {"geometry": {"type": "Point", "coordinates": [-86.217016908776, 12.1349955221084]}, "type": "Feature", "properties": {"name": null, "popupContent": "This is where the Rockies play!"}}, {"geometry": {"type": "Point", "coordinates": [-86.2169676810984, 12.1349930630295]}, "type": "Feature", "properties": {"name": "Colegio Miguel Larreynaga", "popupContent": "This is where the Rockies play!"}}, {"geometry": {"type": "Point", "coordinates": [-86.2172218144923, 12.1315217871102]}, "type": "Feature", "properties": {"name": null, "popupContent": "This is where the Rockies play!"}}, {"geometry": {"type": "Point", "coordinates": [-86.217149679775, 12.1314855152218]}, "type": "Feature", "properties": {"name": "El Contil", "popupContent": "This is where the Rockies play!"}}, {"geometry": {"type": "Point", "coordinates": [-86.2159020995084, 12.128350481252]}, "type": "Feature", "properties": {"name": null, "popupContent": "This is where the Rockies play!"}}, {"geometry": {"type": "Point", "coordinates": [-86.2158966197852, 12.1283718230747]}, "type": "Feature", "properties": {"name": "Mercado Iv\u00e1n Montenegro Sur", "popupContent": "This is where the Rockies play!"}}, {"geometry": {"type": "Point", "coordinates": [-86.2119669395748, 12.1277552808415]}, "type": "Feature", "properties": {"name": null, "popupContent": "This is where the Rockies play!"}}, {"geometry": {"type": "Point", "coordinates": [-86.2119512190573, 12.1278126316251]}, "type": "Feature", "properties": {"name": "Farmacia Sophya", "popupContent": "This is where the Rockies play!"}}, {"geometry": {"type": "Point", "coordinates": [-86.2096244028084, 12.1273765721419]}, "type": "Feature", "properties": {"name": null, "popupContent": "This is where the Rockies play!"}}, {"geometry": {"type": "Point", "coordinates": [-86.2096431775978, 12.1274701954465]}, "type": "Feature", "properties": {"name": "Colegio Inmaculada Concepci\u00f3n", "popupContent": "This is where the Rockies play!"}}, {"geometry": {"type": "Point", "coordinates": [-86.2064855095426, 12.1266815102951]}, "type": "Feature", "properties": {"name": null, "popupContent": "This is where the Rockies play!"}}, {"geometry": {"type": "Point", "coordinates": [-86.2064951215161, 12.1267478196599]}, "type": "Feature", "properties": {"name": "El Madro\u00f1o", "popupContent": "This is where the Rockies play!"}}, {"geometry": {"type": "Point", "coordinates": [-86.2048530011768, 12.1260512631119]}, "type": "Feature", "properties": {"name": null, "popupContent": "This is where the Rockies play!"}}, {"geometry": {"type": "Point", "coordinates": [-86.2048246144138, 12.1261231935723]}, "type": "Feature", "properties": {"name": "Pal\u00ed", "popupContent": "This is where the Rockies play!"}}, {"geometry": {"type": "Point", "coordinates": [-86.2031508733764, 12.1277344659293]}, "type": "Feature", "properties": {"name": null, "popupContent": "This is where the Rockies play!"}}, {"geometry": {"type": "Point", "coordinates": [-86.2032043231358, 12.1277487816708]}, "type": "Feature", "properties": {"name": "Petrogas", "popupContent": "This is where the Rockies play!"}}, {"geometry": {"type": "Point", "coordinates": [-86.2015023749985, 12.1302775619114]}, "type": "Feature", "properties": {"name": null, "popupContent": "This is where the Rockies play!"}}, {"geometry": {"type": "Point", "coordinates": [-86.2015596875137, 12.1302990792314]}, "type": "Feature", "properties": {"name": "Pulper\u00eda Guadalupe", "popupContent": "This is where the Rockies play!"}}, {"geometry": {"type": "Point", "coordinates": [-86.1990964171731, 12.1338596887285]}, "type": "Feature", "properties": {"name": null, "popupContent": "This is where the Rockies play!"}}, {"geometry": {"type": "Point", "coordinates": [-86.1991868775222, 12.1338964872414]}, "type": "Feature", "properties": {"name": "Gasolinera Uno", "popupContent": "This is where the Rockies play!"}}, {"geometry": {"type": "Point", "coordinates": [-86.1945530079606, 12.1349705800217]}, "type": "Feature", "properties": {"name": null, "popupContent": "This is where the Rockies play!"}}, {"geometry": {"type": "Point", "coordinates": [-86.1946596379848, 12.1349832267138]}, "type": "Feature", "properties": {"name": "Mercado Mayoreo", "popupContent": "This is where the Rockies play!"}}]}