{"type": "FeatureCollection", "features": [{"geometry": {"type": "LineString", "coordinates": [[-86.3045307837549, 12.1444942474397], [-86.3041136959685, 12.1446007744284], [-86.3039336735855, 12.1446467926693], [-86.3030324836925, 12.1448481662899], [-86.3015659839912, 12.1452169263979], [-86.3012301039065, 12.1453013222451], [-86.300583676228, 12.1452772593319], [-86.3002698048677, 12.1452661060832], [-86.3001471848315, 12.1452614515776], [-86.2994104764669, 12.1452340514679], [-86.2994161358532, 12.1451146150593], [-86.2994218850711, 12.1450368057231], [-86.2994501820025, 12.1443901794004], [-86.2994982418702, 12.143217413216], [-86.2994640160579, 12.1429699320178], [-86.2994056255644, 12.1426817013188], [-86.2993908931937, 12.1424356247714], [-86.2994191002937, 12.1419778971982], [-86.299450092171, 12.1413713103475], [-86.2994923129893, 12.1410140496303], [-86.2995968768884, 12.1406077835421], [-86.2996240958415, 12.1404462781092], [-86.2996376604023, 12.1402897784609], [-86.2996520334468, 12.1401275702548], [-86.2995815156971, 12.1396470926335], [-86.2995542967439, 12.1394952471221], [-86.2994622194273, 12.1389802539504], [-86.299826486275, 12.1389174605471], [-86.3001759309205, 12.1388572139951], [-86.3004439882013, 12.1388115460458], [-86.3006280530031, 12.1387822131666], [-86.302066615099, 12.1385527315775], [-86.3022486137756, 12.138522608262], [-86.3035823424779, 12.1383021722343], [-86.3040270085436, 12.1382255904322], [-86.3045708486166, 12.1381318830825], [-86.304731736884, 12.1381042187696], [-86.3056639186543, 12.1379563244258], [-86.3061602378488, 12.1378735948936], [-86.3061940145035, 12.1378688524356], [-86.3062206046359, 12.1378652516803], [-86.3062932783423, 12.1378553276474], [-86.307119099583, 12.1377509935439], [-86.3073988349625, 12.1376306755456], [-86.3076716533143, 12.1374631084909], [-86.3079897467564, 12.1371861132439], [-86.3080470592715, 12.1371360538312], [-86.308336316793, 12.1367369833695], [-86.30863177269, 12.1358845654563], [-86.3093201516922, 12.134082763168], [-86.3096229737745, 12.1332500973492], [-86.3097966181189, 12.1327740863991], [-86.3098086555437, 12.1327277148072], [-86.3098471034378, 12.1326307559981], [-86.3099176211877, 12.1324342035214], [-86.3099906542203, 12.1322300101113], [-86.3100485057246, 12.1320742082386], [-86.3101278269641, 12.1318632520064], [-86.3101675324997, 12.1317545242912], [-86.3104122335831, 12.1310845041366], [-86.310596837374, 12.1305964571989], [-86.3106880163753, 12.1304940524195], [-86.3107923107798, 12.1301590848815], [-86.3108966950158, 12.1298236777928], [-86.310949426123, 12.1296545249612], [-86.3110251541014, 12.1294936276717], [-86.3111370841859, 12.129138371031], [-86.3111554098176, 12.1289975856355], [-86.3111669980848, 12.1289657047153], [-86.31121667492, 12.1288236896607], [-86.3112730891199, 12.1286575222899], [-86.311656130757, 12.1275281610783], [-86.3117383266055, 12.1272907653882], [-86.3120634269068, 12.1262712701365], [-86.3123275316004, 12.1255066461398], [-86.3124426057883, 12.1251735167131], [-86.3129842899046, 12.1237522008038], [-86.3131016098807, 12.123419420498], [-86.3131270322032, 12.1233444153255], [-86.312838493334, 12.1232322588398], [-86.312761148388, 12.1232026607616], [-86.3122695902645, 12.1230183094535], [-86.3122011386399, 12.1229925757924], [-86.3120429453184, 12.122931096046], [-86.3118385785912, 12.1228656640147], [-86.31158812829, 12.1228209594363], [-86.3108767524165, 12.1227127550036], [-86.3106029459179, 12.1226997564162], [-86.3103319241967, 12.1227007225275], [-86.3102215212483, 12.1227010738407], [-86.3095659307539, 12.1227524533883], [-86.309287812342, 12.1227998806542], [-86.3088827619804, 12.122891046375], [-86.3085291850845, 12.1230077700704], [-86.3083048757581, 12.1230804918051], [-86.3067595938063, 12.123564161099], [-86.3058517563802, 12.1238403800499], [-86.3057454856821, 12.1238690119502], [-86.3051357990987, 12.1240335135757], [-86.3043849871843, 12.124236132363], [-86.304308091396, 12.1242571232039], [-86.3037285882062, 12.1244176723422], [-86.3025125388061, 12.1246974035146], [-86.3009527041467, 12.1250115627893], [-86.300787683629, 12.125040370219], [-86.2994383242408, 12.1252645059678], [-86.2991807772488, 12.1253033256982], [-86.2989186488489, 12.1253410036665], [-86.2983770545641, 12.125423824916], [-86.2979398445153, 12.1254905737304], [-86.2978271957787, 12.1254635228971], [-86.2977467067292, 12.1254347155132], [-86.2976475327219, 12.1254189065817], [-86.2973894467407, 12.1254633472424], [-86.2971359421676, 12.1255050652471], [-86.2969421755608, 12.1255265829523], [-86.296435256246, 12.1255868325176], [-86.2963779437308, 12.1256801929687], [-86.2958699464377, 12.1257266536137], [-86.2956187774842, 12.1257495765377], [-86.2951989049204, 12.1257812821879], [-86.2944658796486, 12.125830289806], [-86.2938279859653, 12.1258711294808], [-86.2931969194782, 12.1258972141731], [-86.2926052890321, 12.1259127595946], [-86.2919206829541, 12.125932432895], [-86.2908189890896, 12.1259391955917], [-86.2900921621932, 12.1259344529213], [-86.2896352790397, 12.1259225084178], [-86.2895844343947, 12.1259218057999], [-86.2887484621913, 12.1259217179727], [-86.2883664985325, 12.1259023959804], [-86.2873054085189, 12.1258420586591], [-86.2860987015977, 12.1257715333595], [-86.2846065999108, 12.1256058032234], [-86.2843081795734, 12.1255690913934], [-86.2841279775274, 12.125535453516], [-86.2838650406437, 12.1254717786712], [-86.2836990319792, 12.1253643657607], [-86.2836069546626, 12.1252355229074], [-86.2834505579716, 12.1251577955936], [-86.2832991020147, 12.1251432162305], [-86.2829855001491, 12.1251399666134], [-86.2828368289695, 12.1252177817598], [-86.2827094478622, 12.1252441299984], [-86.2825897024349, 12.1252761870185], [-86.2824347430484, 12.125291117684], [-86.2822099845643, 12.1252587971834], [-86.2819112049008, 12.1252193626542], [-86.2817596591124, 12.1252351715976], [-86.2816455730713, 12.1252154982457], [-86.2811434148274, 12.1251285490392], [-86.2800705568836, 12.1249429694764], [-86.2795679494822, 12.1248641003187], [-86.2788300733078, 12.1247412295022], [-86.2784614945467, 12.1246447069269], [-86.2781213025486, 12.1245407189631], [-86.2775582385285, 12.124403619905], [-86.277284611693, 12.1243368708186], [-86.2768589899114, 12.124291727348], [-86.2767068153022, 12.1242735469987], [-86.2761009016431, 12.1242662572931], [-86.2755010965279, 12.1244098556741], [-86.2752607971894, 12.1244913597972], [-86.2750714323275, 12.1245736543445], [-86.2747279165628, 12.1247528227482], [-86.2746485953232, 12.1247998105204], [-86.2741102349735, 12.1251188880145], [-86.2735248927343, 12.1254596584921], [-86.2731108592199, 12.1257288492962], [-86.2725698937558, 12.1260805095652], [-86.2725195880999, 12.1261139717195], [-86.271612648989, 12.12667641633], [-86.2715362921899, 12.1267236672442], [-86.2710370983865, 12.1270332571347], [-86.2710071844875, 12.1270517886033], [-86.2709114240783, 12.1271111595555], [-86.270135818662, 12.1275950850194], [-86.2700478735956, 12.1276499766908], [-86.2699469927892, 12.1277026726847], [-86.2694691788896, 12.1279928517711], [-86.2692698427281, 12.1280769895949], [-86.2689546238949, 12.1282195320061], [-86.2685117544598, 12.1284080075603], [-86.2679428513904, 12.1286140482514], [-86.2675446282249, 12.128737092936], [-86.2675033057218, 12.1287493886187], [-86.2673460107156, 12.1287630895217], [-86.2671472135432, 12.128811569634], [-86.2669079023515, 12.1288504766743], [-86.2666543977783, 12.1288026991793], [-86.2665089605339, 12.1287138189636], [-86.2663983779224, 12.128675087556], [-86.2661284341795, 12.1287095154742], [-86.2659806613153, 12.1288135896385], [-86.2659084367664, 12.1289159950635], [-86.265872504155, 12.1290488761438], [-86.2658046813511, 12.1291314327631], [-86.2657059565014, 12.1292238258855], [-86.2655350071028, 12.1292989172304], [-86.2653314488594, 12.1293634694222], [-86.2648280329742, 12.1295229615734], [-86.2643960331541, 12.1296547884392], [-86.2639678960897, 12.1297935534906], [-86.2628529969905, 12.1301750691836], [-86.262498611611, 12.1303258660968], [-86.2617464522235, 12.1307332017702], [-86.2614422826684, 12.1309167573144], [-86.2613423001772, 12.1309763030571], [-86.2611502403695, 12.1310889832387], [-86.2611112534862, 12.1311093587614], [-86.2608211874809, 12.1312614725282], [-86.2606091850739, 12.1313521084035], [-86.2605266298993, 12.1313868872776], [-86.2602483318242, 12.1315052759365], [-86.2598667274915, 12.1316399122331], [-86.2593339366965, 12.1318295270978], [-86.2587215551674, 12.132049090228], [-86.2583328541439, 12.1322296588107], [-86.2580412610027, 12.1323360150539], [-86.2578085973441, 12.1323420749872], [-86.2576732212308, 12.1322945615933], [-86.2575493435531, 12.132304222358], [-86.2574061520968, 12.1323544583287], [-86.2572547859714, 12.1324824194909], [-86.2571974734563, 12.1326138935929], [-86.2571021622047, 12.1327537110036], [-86.2568986937928, 12.1329340156342], [-86.2567364580525, 12.1330302717338], [-86.2564752279679, 12.1331760610156], [-86.2562652018544, 12.1333155268322], [-86.2560152905424, 12.1336147457529], [-86.2556227267632, 12.1340172460488], [-86.2555703549822, 12.1340710825032], [-86.2555055864502, 12.1341372143808], [-86.2553067892778, 12.1343427236965], [-86.2552448055232, 12.1344067477202], [-86.2551812946326, 12.1344762168424], [-86.2551273957156, 12.1345350591946], [-86.2550213945121, 12.1346510751973], [-86.2549471936696, 12.1347339813788], [-86.2547319573275, 12.1349625001903], [-86.2546686261, 12.1350210789625], [-86.2545813996859, 12.1351017015993], [-86.254300406665, 12.1353136213335], [-86.2538746950519, 12.1355770057994], [-86.2536622434872, 12.1357070731905], [-86.2532581812724, 12.135970896387], [-86.253021295532, 12.1360718938798], [-86.2528392070239, 12.1361888752757], [-86.2525854329561, 12.1363235092062], [-86.2518549229671, 12.1367393546086], [-86.2516138151448, 12.1369063951768], [-86.2512189157459, 12.137153706362], [-86.2511391453487, 12.137207103065], [-86.250873154193, 12.1373700156372], [-86.2501684258526, 12.1377798874201], [-86.2501452493183, 12.1377934122121], [-86.2497927504008, 12.1380048906891], [-86.2495112183908, 12.1381793954355], [-86.2493821304845, 12.1382698533114], [-86.2493071211582, 12.1383136770674], [-86.2492117200751, 12.1383692691162], [-86.2487573522044, 12.1385742482293], [-86.2481693150194, 12.1388118095148], [-86.2467951621293, 12.139268049541], [-86.2456209742214, 12.1396432284342], [-86.2450285352915, 12.1398323106677], [-86.2445042784917, 12.139999876232], [-86.243449117359, 12.1403217458489], [-86.2429143502703, 12.1404849199835], [-86.2427687333628, 12.1405506989794], [-86.2426504252399, 12.1406375553323], [-86.2425419985851, 12.1407741191058], [-86.2424593535789, 12.1409401910988], [-86.242424678609, 12.1410735931165], [-86.2423176892586, 12.1415422121829], [-86.2422985551431, 12.1416276630594], [-86.2422637005101, 12.1417572883862], [-86.2421826724714, 12.142033751948], [-86.2420907748179, 12.1423476273213], [-86.2418373600762, 12.1432137247115], [-86.241536424456, 12.1442968255044], [-86.241435274155, 12.144690703197], [-86.2413334950333, 12.1451983961927], [-86.2413264881741, 12.1452556554008], [-86.2413124744557, 12.1453771116251], [-86.2412875911223, 12.145593150759], [-86.2412759130236, 12.1457704607953], [-86.241253185647, 12.1461128734534], [-86.2412228225903, 12.1465965009432], [-86.2412101563448, 12.1468057769207], [-86.2411841052016, 12.1472355693691], [-86.2411814102557, 12.147280006391], [-86.2411655100752, 12.1475417982608], [-86.2411311944314, 12.1480971720424], [-86.2409252107367, 12.1488439916322], [-86.2405475589913, 12.1492298710177], [-86.24042817289, 12.1493280532573], [-86.239895202432, 12.1497669748479], [-86.2395847446697, 12.1500825096698], [-86.2391372938267, 12.1506225976283], [-86.2389252914197, 12.151032449011], [-86.2388297106734, 12.1514642544666], [-86.2387924305892, 12.1515111497088], [-86.2387295485193, 12.151590274434], [-86.2386767275806, 12.1516580705172], [-86.2385982148247, 12.1516995209636], [-86.2385003882903, 12.1517321017126], [-86.2378739032112, 12.1516733509791], [-86.2369555554962, 12.151589484065], [-86.2360800574203, 12.1515139599104], [-86.2355994587433, 12.1514635519161], [-86.2349908501383, 12.1514173592162], [-86.2347022214375, 12.1513954923269], [-86.232870017584, 12.1512118630773], [-86.2325807600625, 12.1511849904936], [-86.2319687378594, 12.1511279960178], [-86.2310675479664, 12.1510441289318], [-86.2306656417083, 12.1510088257108], [-86.2301889956186, 12.1509668482428], [-86.2290762524761, 12.1508595334307], [-86.2285916113803, 12.1508157995586], [-86.228206503618, 12.1507811110405], [-86.2273188782858, 12.1507070795805], [-86.2263720539763, 12.1506085465733], [-86.2254832608342, 12.1505279286312], [-86.225209184841, 12.1505207274631], [-86.2251300432645, 12.1505128237417], [-86.2246004864045, 12.1504599566218], [-86.2242344229262, 12.150429571196], [-86.223955585862, 12.1503876814558], [-86.2238678204588, 12.1503660779394], [-86.2237635260543, 12.1503300720749], [-86.2236652503622, 12.1503322675546], [-86.2234951992789, 12.1503835539549], [-86.223343743322, 12.1503936531592], [-86.2231985755721, 12.1503587011286], [-86.2228020592057, 12.1502894117879], [-86.222692285078, 12.1502822984326], [-86.2209738079395, 12.1501127194967], [-86.2209314972896, 12.1501086798108], [-86.2207125778549, 12.1500882179222], [-86.2201670309828, 12.1500371949229], [-86.2188624076957, 12.1499281233495], [-86.218762335373, 12.1499190779593], [-86.2175577844086, 12.149810621073], [-86.2174411830847, 12.1498007853046], [-86.2167595414471, 12.1497435270742], [-86.2160998187024, 12.1496752035868], [-86.2151189482437, 12.1495686786287], [-86.2149315596754, 12.1494986865267], [-86.2148001361494, 12.149401558184], [-86.2147368049218, 12.149324277018], [-86.2146071780263, 12.1489506925196], [-86.2138542101552, 12.1468782287], [-86.2137375189998, 12.1465232587032], [-86.2137047304919, 12.1463497254499], [-86.2136604435484, 12.1454212854948], [-86.2136380754978, 12.1449532880017], [-86.2137038321766, 12.1447246021195], [-86.2138593305523, 12.1444410278399], [-86.2139328127425, 12.1443409117322], [-86.2140230934286, 12.1442153274386], [-86.2144330845243, 12.1436450159224], [-86.2146317918651, 12.1433566981327], [-86.2149130543806, 12.1429361206935], [-86.215066127305, 12.1426672985578], [-86.2152032102173, 12.1421724227307], [-86.2152685177385, 12.1418003211704], [-86.2153092114209, 12.1415518726122], [-86.2153515220707, 12.1413159823917], [-86.2154400061262, 12.1408224213884], [-86.2154616555246, 12.1406993822841], [-86.2154896829614, 12.1405392820654], [-86.2153787410239, 12.1405051191429], [-86.2151237093147, 12.1404262545903], [-86.2139719792889, 12.1401734136235], [-86.2130309940288, 12.139970894774], [-86.2125960297682, 12.1398884293354], [-86.2115084394538, 12.1396661501612], [-86.2110961127383, 12.1395848263238], [-86.2110588326541, 12.1395780639733], [-86.2109649587069, 12.1395641001582], [-86.2102654405951, 12.1394584493824], [-86.2091160461891, 12.1393214458202], [-86.2090268434814, 12.1393109070818], [-86.2085137257911, 12.1392606724226], [-86.2079141901705, 12.1392448643112], [-86.2074964735634, 12.1392362576723], [-86.2068420508789, 12.1392337108097], [-86.2067993809029, 12.1392321299985], [-86.2062479949815, 12.1392143897825], [-86.2059565815033, 12.1391751329638], [-86.2057507774717, 12.1391399159918], [-86.2054242398659, 12.1390482288906], [-86.2052293952808, 12.1389691882608], [-86.204950109059, 12.1388155859032], [-86.2044803799969, 12.138485810388], [-86.2043233544853, 12.1383755045586], [-86.2041899546656, 12.1382840806638], [-86.2037194171198, 12.1379494742107], [-86.2033568570711, 12.1376916249617], [-86.2031979450973, 12.1375858856199], [-86.2030993999107, 12.1375203693621], [-86.2029254860716, 12.1373947818524], [-86.2028351155541, 12.1373319880754], [-86.2021136785494, 12.1368308668572], [-86.2018123836031, 12.136621583041], [-86.2015258210275, 12.1364224866185], [-86.200804923012, 12.1359217149854], [-86.2003299837212, 12.1355935167209], [-86.2000221310734, 12.1353771181792], [-86.1995998330583, 12.1350799211944], [-86.1991778045378, 12.1347828117024], [-86.1987059195191, 12.134450659936], [-86.1983898922021, 12.1342508592955], [-86.1983226083874, 12.1342082644143], [-86.1982202902765, 12.1341547792858], [-86.1979120783025, 12.1339935334146], [-86.1978501843794, 12.1339720163928], [-86.1976281208412, 12.1338920960111], [-86.197219746713, 12.1337786265926], [-86.196286936122, 12.1336630493335], [-86.1959781851589, 12.1336326619911], [-86.195469559045, 12.1335826019108], [-86.1946472412339, 12.1335030327112], [-86.1944523068172, 12.1334826573715], [-86.1944488033876, 12.1336149214023], [-86.1944207759508, 12.1346662688109], [-86.1944130504393, 12.1349568794379]]}, "type": "Feature", "properties": {"name": "120"}}, {"geometry": {"type": "Point", "coordinates": [-86.1944131402709, 12.1349568794379]}, "type": "Feature", "properties": {"name": null, "popupContent": "This is where the Rockies play!"}}, {"geometry": {"type": "Point", "coordinates": [-86.1943968807642, 12.1349561768438]}, "type": "Feature", "properties": {"name": "Mercado Mayoreo", "popupContent": "This is where the Rockies play!"}}, {"geometry": {"type": "Point", "coordinates": [-86.1978502742109, 12.1339720163928]}, "type": "Feature", "properties": {"name": null, "popupContent": "This is where the Rockies play!"}}, {"geometry": {"type": "Point", "coordinates": [-86.1978660845599, 12.133912120021]}, "type": "Feature", "properties": {"name": "Parque Concepci\u00f3n de Mar\u00eda", "popupContent": "This is where the Rockies play!"}}, {"geometry": {"type": "Point", "coordinates": [-86.1995999228898, 12.1350799211944]}, "type": "Feature", "properties": {"name": null, "popupContent": "This is where the Rockies play!"}}, {"geometry": {"type": "Point", "coordinates": [-86.199643311518, 12.134961709772]}, "type": "Feature", "properties": {"name": "Farmacia Alvarenga", "popupContent": "This is where the Rockies play!"}}, {"geometry": {"type": "Point", "coordinates": [-86.201525910859, 12.1364224866185]}, "type": "Feature", "properties": {"name": null, "popupContent": "This is where the Rockies play!"}}, {"geometry": {"type": "Point", "coordinates": [-86.2015579807146, 12.1363836685073]}, "type": "Feature", "properties": {"name": "Gerald Repuestos", "popupContent": "This is where the Rockies play!"}}, {"geometry": {"type": "Point", "coordinates": [-86.2037195069513, 12.1379494742107]}, "type": "Feature", "properties": {"name": null, "popupContent": "This is where the Rockies play!"}}, {"geometry": {"type": "Point", "coordinates": [-86.2037948756036, 12.1378375873397]}, "type": "Feature", "properties": {"name": "MATEPSA", "popupContent": "This is where the Rockies play!"}}, {"geometry": {"type": "Point", "coordinates": [-86.2059566713348, 12.1391751329638]}, "type": "Feature", "properties": {"name": null, "popupContent": "This is where the Rockies play!"}}, {"geometry": {"type": "Point", "coordinates": [-86.205961971395, 12.1391025034428]}, "type": "Feature", "properties": {"name": "Howard", "popupContent": "This is where the Rockies play!"}}, {"geometry": {"type": "Point", "coordinates": [-86.2067994707344, 12.1392321299985]}, "type": "Feature", "properties": {"name": null, "popupContent": "This is where the Rockies play!"}}, {"geometry": {"type": "Point", "coordinates": [-86.2067989317452, 12.139172322632]}, "type": "Feature", "properties": {"name": "Villa Fraternidad", "popupContent": "This is where the Rockies play!"}}, {"geometry": {"type": "Point", "coordinates": [-86.2091161360206, 12.1393214458202]}, "type": "Feature", "properties": {"name": null, "popupContent": "This is where the Rockies play!"}}, {"geometry": {"type": "Point", "coordinates": [-86.2091207174286, 12.1392694547064]}, "type": "Feature", "properties": {"name": "Maxi Pali", "popupContent": "This is where the Rockies play!"}}, {"geometry": {"type": "Point", "coordinates": [-86.2110962025699, 12.1395848263238]}, "type": "Feature", "properties": {"name": null, "popupContent": "This is where the Rockies play!"}}, {"geometry": {"type": "Point", "coordinates": [-86.2110986280211, 12.1395322205021]}, "type": "Feature", "properties": {"name": "Puente San Jacinto", "popupContent": "This is where the Rockies play!"}}, {"geometry": {"type": "Point", "coordinates": [-86.2139720691205, 12.1401734136235]}, "type": "Feature", "properties": {"name": null, "popupContent": "This is where the Rockies play!"}}, {"geometry": {"type": "Point", "coordinates": [-86.2139776386752, 12.1401340691236]}, "type": "Feature", "properties": {"name": "Asados Las Primas 2", "popupContent": "This is where the Rockies play!"}}, {"geometry": {"type": "Point", "coordinates": [-86.2153093012524, 12.1415518726122]}, "type": "Feature", "properties": {"name": null, "popupContent": "This is where the Rockies play!"}}, {"geometry": {"type": "Point", "coordinates": [-86.2153651764631, 12.141563465127]}, "type": "Feature", "properties": {"name": "Miguel Gutierrez", "popupContent": "This is where the Rockies play!"}}, {"geometry": {"type": "Point", "coordinates": [-86.2146072678579, 12.1489506925196]}, "type": "Feature", "properties": {"name": null, "popupContent": "This is where the Rockies play!"}}, {"geometry": {"type": "Point", "coordinates": [-86.2146486801924, 12.1489311965582]}, "type": "Feature", "properties": {"name": "Pollo Estrella", "popupContent": "This is where the Rockies play!"}}, {"geometry": {"type": "Point", "coordinates": [-86.2174412729162, 12.1498007853046]}, "type": "Feature", "properties": {"name": null, "popupContent": "This is where the Rockies play!"}}, {"geometry": {"type": "Point", "coordinates": [-86.2174427102207, 12.1497525724703]}, "type": "Feature", "properties": {"name": "Gemina", "popupContent": "This is where the Rockies play!"}}, {"geometry": {"type": "Point", "coordinates": [-86.2207126676864, 12.1500882179222]}, "type": "Feature", "properties": {"name": null, "popupContent": "This is where the Rockies play!"}}, {"geometry": {"type": "Point", "coordinates": [-86.2207165304421, 12.1500578324539]}, "type": "Feature", "properties": {"name": "Enacal", "popupContent": "This is where the Rockies play!"}}, {"geometry": {"type": "Point", "coordinates": [-86.225130133096, 12.1505128237417]}, "type": "Feature", "properties": {"name": null, "popupContent": "This is where the Rockies play!"}}, {"geometry": {"type": "Point", "coordinates": [-86.2251330975365, 12.150439319122]}, "type": "Feature", "properties": {"name": "Casa de las Mangueras", "popupContent": "This is where the Rockies play!"}}, {"geometry": {"type": "Point", "coordinates": [-86.2306657315398, 12.1510088257108]}, "type": "Feature", "properties": {"name": null, "popupContent": "This is where the Rockies play!"}}, {"geometry": {"type": "Point", "coordinates": [-86.2306721994099, 12.1509518311972]}, "type": "Feature", "properties": {"name": "Iglesia Adventista", "popupContent": "This is where the Rockies play!"}}, {"geometry": {"type": "Point", "coordinates": [-86.232580849894, 12.1511849904936]}, "type": "Feature", "properties": {"name": null, "popupContent": "This is where the Rockies play!"}}, {"geometry": {"type": "Point", "coordinates": [-86.2325849821443, 12.1511410810372]}, "type": "Feature", "properties": {"name": "Futec", "popupContent": "This is where the Rockies play!"}}, {"geometry": {"type": "Point", "coordinates": [-86.2360801472518, 12.1515139599104]}, "type": "Feature", "properties": {"name": null, "popupContent": "This is where the Rockies play!"}}, {"geometry": {"type": "Point", "coordinates": [-86.2360803269149, 12.1514822573228]}, "type": "Feature", "properties": {"name": "RARPE", "popupContent": "This is where the Rockies play!"}}, {"geometry": {"type": "Point", "coordinates": [-86.2387925204207, 12.1515111497088]}, "type": "Feature", "properties": {"name": null, "popupContent": "This is where the Rockies play!"}}, {"geometry": {"type": "Point", "coordinates": [-86.2387729371475, 12.1514985038016]}, "type": "Feature", "properties": {"name": "La Vuelta", "popupContent": "This is where the Rockies play!"}}, {"geometry": {"type": "Point", "coordinates": [-86.2420908646494, 12.1423476273213]}, "type": "Feature", "properties": {"name": null, "popupContent": "This is where the Rockies play!"}}, {"geometry": {"type": "Point", "coordinates": [-86.2419957330608, 12.1423171531476]}, "type": "Feature", "properties": {"name": "INDECNISA", "popupContent": "This is where the Rockies play!"}}, {"geometry": {"type": "Point", "coordinates": [-86.2456210640529, 12.1396432284342]}, "type": "Feature", "properties": {"name": null, "popupContent": "This is where the Rockies play!"}}, {"geometry": {"type": "Point", "coordinates": [-86.2455708482285, 12.1395361725258]}, "type": "Feature", "properties": {"name": "Iglesia de Dios", "popupContent": "This is where the Rockies play!"}}, {"geometry": {"type": "Point", "coordinates": [-86.2501685156842, 12.1377798874201]}, "type": "Feature", "properties": {"name": null, "popupContent": "This is where the Rockies play!"}}, {"geometry": {"type": "Point", "coordinates": [-86.2501501002208, 12.1377518717773]}, "type": "Feature", "properties": {"name": "Bar El Pulpo", "popupContent": "This is where the Rockies play!"}}, {"geometry": {"type": "Point", "coordinates": [-86.2553068791094, 12.1343427236965]}, "type": "Feature", "properties": {"name": null, "popupContent": "This is where the Rockies play!"}}, {"geometry": {"type": "Point", "coordinates": [-86.2552232459564, 12.1342898533663]}, "type": "Feature", "properties": {"name": "Diesel Motors", "popupContent": "This is where the Rockies play!"}}, {"geometry": {"type": "Point", "coordinates": [-86.2614423724999, 12.1309167573144]}, "type": "Feature", "properties": {"name": null, "popupContent": "This is where the Rockies play!"}}, {"geometry": {"type": "Point", "coordinates": [-86.2614085060137, 12.1308273508498]}, "type": "Feature", "properties": {"name": "Plaza El Sol", "popupContent": "This is where the Rockies play!"}}, {"geometry": {"type": "Point", "coordinates": [-86.2648281228057, 12.1295229615734]}, "type": "Feature", "properties": {"name": null, "popupContent": "This is where the Rockies play!"}}, {"geometry": {"type": "Point", "coordinates": [-86.2648081802064, 12.1294066798603]}, "type": "Feature", "properties": {"name": "Metrocentro Norte", "popupContent": "This is where the Rockies play!"}}, {"geometry": {"type": "Point", "coordinates": [-86.2725699835873, 12.1260805095652]}, "type": "Feature", "properties": {"name": null, "popupContent": "This is where the Rockies play!"}}, {"geometry": {"type": "Point", "coordinates": [-86.2725067421913, 12.1259882031808]}, "type": "Feature", "properties": {"name": "UCA", "popupContent": "This is where the Rockies play!"}}, {"geometry": {"type": "Point", "coordinates": [-86.2768590797429, 12.124291727348]}, "type": "Feature", "properties": {"name": null, "popupContent": "This is where the Rockies play!"}}, {"geometry": {"type": "Point", "coordinates": [-86.2768492881063, 12.1241589317249]}, "type": "Feature", "properties": {"name": "ENEL Central", "popupContent": "This is where the Rockies play!"}}, {"geometry": {"type": "Point", "coordinates": [-86.2846066897423, 12.1256058032234]}, "type": "Feature", "properties": {"name": null, "popupContent": "This is where the Rockies play!"}}, {"geometry": {"type": "Point", "coordinates": [-86.2845950116436, 12.1255372978906]}, "type": "Feature", "properties": {"name": "Rotonda El Periodista", "popupContent": "This is where the Rockies play!"}}, {"geometry": {"type": "Point", "coordinates": [-86.2895845242262, 12.1259218057999]}, "type": "Feature", "properties": {"name": null, "popupContent": "This is where the Rockies play!"}}, {"geometry": {"type": "Point", "coordinates": [-86.2895858716991, 12.1258664746365]}, "type": "Feature", "properties": {"name": "Excel Automotriz", "popupContent": "This is where the Rockies play!"}}, {"geometry": {"type": "Point", "coordinates": [-86.2969422653923, 12.1255265829523]}, "type": "Feature", "properties": {"name": null, "popupContent": "This is where the Rockies play!"}}, {"geometry": {"type": "Point", "coordinates": [-86.2969348093754, 12.1254914520042]}, "type": "Feature", "properties": {"name": "El Zumen Norte", "popupContent": "This is where the Rockies play!"}}, {"geometry": {"type": "Point", "coordinates": [-86.2989187386804, 12.1253410036665]}, "type": "Feature", "properties": {"name": null, "popupContent": "This is where the Rockies play!"}}, {"geometry": {"type": "Point", "coordinates": [-86.2989039164782, 12.1252618711442]}, "type": "Feature", "properties": {"name": "Hospital Bertha Calder\u00f3n", "popupContent": "This is where the Rockies play!"}}, {"geometry": {"type": "Point", "coordinates": [-86.3043081812275, 12.1242571232039]}, "type": "Feature", "properties": {"name": null, "popupContent": "This is where the Rockies play!"}}, {"geometry": {"type": "Point", "coordinates": [-86.3042846453671, 12.1241764094595]}, "type": "Feature", "properties": {"name": "Centro Comercial Nejapa", "popupContent": "This is where the Rockies play!"}}, {"geometry": {"type": "Point", "coordinates": [-86.3103320140282, 12.1227007225275]}, "type": "Feature", "properties": {"name": null, "popupContent": "This is where the Rockies play!"}}, {"geometry": {"type": "Point", "coordinates": [-86.3103287800932, 12.1226380131174]}, "type": "Feature", "properties": {"name": "Banco Central", "popupContent": "This is where the Rockies play!"}}, {"geometry": {"type": "Point", "coordinates": [-86.3120430351499, 12.122931096046]}, "type": "Feature", "properties": {"name": null, "popupContent": "This is where the Rockies play!"}}, {"geometry": {"type": "Point", "coordinates": [-86.3120521979658, 12.1228336945331]}, "type": "Feature", "properties": {"name": "7 Sur", "popupContent": "This is where the Rockies play!"}}, {"geometry": {"type": "Point", "coordinates": [-86.3112731789514, 12.1286575222899]}, "type": "Feature", "properties": {"name": null, "popupContent": "This is where the Rockies play!"}}, {"geometry": {"type": "Point", "coordinates": [-86.3113775631874, 12.1286953754369]}, "type": "Feature", "properties": {"name": "Las Piedrecitas", "popupContent": "This is where the Rockies play!"}}, {"geometry": {"type": "Point", "coordinates": [-86.3100485955561, 12.1320742082386]}, "type": "Feature", "properties": {"name": null, "popupContent": "This is where the Rockies play!"}}, {"geometry": {"type": "Point", "coordinates": [-86.3101533391182, 12.1321233903503]}, "type": "Feature", "properties": {"name": "Asososca", "popupContent": "This is where the Rockies play!"}}, {"geometry": {"type": "Point", "coordinates": [-86.3045709384481, 12.1381318830825]}, "type": "Feature", "properties": {"name": null, "popupContent": "This is where the Rockies play!"}}, {"geometry": {"type": "Point", "coordinates": [-86.3046012116732, 12.1381970478972]}, "type": "Feature", "properties": {"name": "Aldea SOS", "popupContent": "This is where the Rockies play!"}}, {"geometry": {"type": "Point", "coordinates": [-86.3022487036071, 12.138522608262]}, "type": "Feature", "properties": {"name": null, "popupContent": "This is where the Rockies play!"}}, {"geometry": {"type": "Point", "coordinates": [-86.3022560697924, 12.1385897050883]}, "type": "Feature", "properties": {"name": "Sitel", "popupContent": "This is where the Rockies play!"}}, {"geometry": {"type": "Point", "coordinates": [-86.2998265761066, 12.1389174605471]}, "type": "Feature", "properties": {"name": null, "popupContent": "This is where the Rockies play!"}}, {"geometry": {"type": "Point", "coordinates": [-86.2998287320632, 12.1389930760981]}, "type": "Feature", "properties": {"name": "INVUR", "popupContent": "This is where the Rockies play!"}}, {"geometry": {"type": "Point", "coordinates": [-86.2996377502338, 12.1402897784609]}, "type": "Feature", "properties": {"name": null, "popupContent": "This is where the Rockies play!"}}, {"geometry": {"type": "Point", "coordinates": [-86.299701530619, 12.1402989120007]}, "type": "Feature", "properties": {"name": "UCEM", "popupContent": "This is where the Rockies play!"}}, {"geometry": {"type": "Point", "coordinates": [-86.2994219749026, 12.1450368057231]}, "type": "Feature", "properties": {"name": null, "popupContent": "This is where the Rockies play!"}}, {"geometry": {"type": "Point", "coordinates": [-86.2994836891626, 12.1450135331745]}, "type": "Feature", "properties": {"name": "Taller Murillo", "popupContent": "This is where the Rockies play!"}}, {"geometry": {"type": "Point", "coordinates": [-86.300147274663, 12.1452614515776]}, "type": "Feature", "properties": {"name": null, "popupContent": "This is where the Rockies play!"}}, {"geometry": {"type": "Point", "coordinates": [-86.3001476339891, 12.1451918974475]}, "type": "Feature", "properties": {"name": "Lubricantes Gary's", "popupContent": "This is where the Rockies play!"}}, {"geometry": {"type": "Point", "coordinates": [-86.3045308735864, 12.1444942474397]}, "type": "Feature", "properties": {"name": null, "popupContent": "This is where the Rockies play!"}}, {"geometry": {"type": "Point", "coordinates": [-86.3045085953674, 12.1444116077595]}, "type": "Feature", "properties": {"name": "El Seminario", "popupContent": "This is where the Rockies play!"}}]}