{"type": "FeatureCollection", "features": [{"geometry": {"type": "LineString", "coordinates": [[-86.244856058757, 12.1230237548012], [-86.2449079813804, 12.123078910898], [-86.2450972564108, 12.1233073518718], [-86.2453117741006, 12.123550811241], [-86.2455778550878, 12.1238108698672], [-86.2456099249434, 12.123845649725], [-86.245809620431, 12.1240626724223], [-86.2459126571941, 12.1242053926349], [-86.2459661967851, 12.1243050771689], [-86.2459837139331, 12.1244440206598], [-86.2459809291557, 12.1246578810748], [-86.2459113995527, 12.1250063809648], [-86.2457997389629, 12.1254887293555], [-86.2457171837883, 12.1255448510435], [-86.2456313946787, 12.1256367184447], [-86.2456019299374, 12.125741584254], [-86.2455548582165, 12.1259835483385], [-86.245483891309, 12.1263474162381], [-86.2454662843295, 12.1265524924242], [-86.2454375382404, 12.1266018512086], [-86.245317792813, 12.1267569536638], [-86.2451767573134, 12.1269151299706], [-86.2450433574937, 12.1270428302632], [-86.2448258753634, 12.1272335023192], [-86.2445135311391, 12.1275619743577], [-86.2441229436536, 12.1279974187518], [-86.243980381018, 12.1281569117202], [-86.2437058558672, 12.1279492019711], [-86.2429359996687, 12.1273668233719], [-86.2427216616419, 12.1272045194729], [-86.2417126739148, 12.1264412155582], [-86.2414219790888, 12.126221296501], [-86.2409295226501, 12.1258486457036], [-86.2404595240934, 12.1254788926891], [-86.2401638885334, 12.1254257571188], [-86.2400031799291, 12.1254187309269], [-86.239811748942, 12.1255791037111], [-86.2385494363048, 12.1266065060401], [-86.2382878468941, 12.1268139533543], [-86.2379829586866, 12.1270177117785], [-86.237585723668, 12.127230955342], [-86.2370029865432, 12.127428214269], [-86.2365103504414, 12.1275920989121], [-86.2363562893701, 12.1276416331574], [-86.235949622041, 12.1277578278138], [-86.2348949998975, 12.1280749695848], [-86.2346441004386, 12.1281505003858], [-86.2341246047098, 12.128313594147], [-86.2337497377417, 12.1284353215741], [-86.2329968597021, 12.1286966928317], [-86.2329775459235, 12.1287030163267], [-86.2326414861757, 12.1288126235494], [-86.2323445929743, 12.1289245142094], [-86.2323161163798, 12.1289440116352], [-86.2322022100018, 12.1290122526141], [-86.2319626293155, 12.1291605910524], [-86.2317839544055, 12.1293654015964], [-86.2316251322633, 12.1295566867738], [-86.2314626270284, 12.1297964517472], [-86.2313009302772, 12.1300768798839], [-86.2311537862337, 12.13041298926], [-86.2309273209506, 12.1309896525433], [-86.2307106473041, 12.1314819143804], [-86.2306748943557, 12.131538298283], [-86.2303185326825, 12.13237509723], [-86.2302465776283, 12.1325460926613], [-86.2299494149323, 12.1332429835387], [-86.2297633738369, 12.133680262971], [-86.2295586477837, 12.1341619808965], [-86.229422014029, 12.1344831549711], [-86.2292326491671, 12.1349286878497], [-86.2289766293111, 12.1355338841857], [-86.2288231970606, 12.1358964216895], [-86.2285527143285, 12.1365356914398], [-86.2285196563261, 12.1365989245231], [-86.2284715066268, 12.1366908759383], [-86.2279925249174, 12.1377487979605], [-86.2278111550615, 12.1380329063053], [-86.2275810965172, 12.138392981361], [-86.2268707986221, 12.1391310458809], [-86.2267841111971, 12.1392211521422], [-86.2264473327972, 12.1395711259772], [-86.2255040119173, 12.1405120571146], [-86.2254379857439, 12.1405780117486], [-86.2252104424824, 12.140919552861], [-86.2250138910983, 12.1413499695659], [-86.2249149865855, 12.1417716911963], [-86.2248858811703, 12.1419411876235], [-86.2247544576442, 12.1423185582969], [-86.2245839574033, 12.1424552090303], [-86.2244192962117, 12.1425190554607], [-86.2243248832753, 12.1425959873152], [-86.2241918427818, 12.1427887559628], [-86.2241433337564, 12.1430684678524], [-86.2241861833955, 12.1432362948452], [-86.2243012575834, 12.1434132551651], [-86.2244079774391, 12.1436222701807], [-86.2244701408568, 12.1438977657719], [-86.2244405862839, 12.1441024771662], [-86.224436004876, 12.144134268454], [-86.2244321421203, 12.1441610539284], [-86.224415613119, 12.1442702156861], [-86.2243694397134, 12.1445069815007], [-86.2243517429023, 12.1445922557838], [-86.2242743979564, 12.1449660220408], [-86.2242602045749, 12.1450345223788], [-86.224201903913, 12.1453164274303], [-86.2241911241296, 12.1453683295427], [-86.2241416269574, 12.1456522541176], [-86.224045686885, 12.1462016600441], [-86.2239757979559, 12.1467393847275], [-86.2239642995203, 12.1468275563667], [-86.2238710543938, 12.1476855597382], [-86.2238655746706, 12.1477357049879], [-86.2238043095682, 12.1485976573213], [-86.2237400800254, 12.1491704171753], [-86.223727773106, 12.1494689157274], [-86.2237217543936, 12.1495785144057], [-86.2237266052961, 12.1496830195136], [-86.2238283844178, 12.1502016803916], [-86.2238678204588, 12.1503660779394], [-86.2238849782807, 12.1508463605784], [-86.223899980146, 12.1511382708317], [-86.2239026750918, 12.1512966082991], [-86.2239066276791, 12.1515187899442], [-86.2239060886899, 12.1518238722644], [-86.2238973750316, 12.1523679963403], [-86.2238707848992, 12.1533998618917], [-86.2240066101702, 12.1534046918913], [-86.2241137791836, 12.1534149666173], [-86.2255535090895, 12.1535538949252], [-86.2255209002446, 12.1538964732051], [-86.2267135934473, 12.1539886821002], [-86.2270403107162, 12.1540138858593], [-86.227052348141, 12.1539016544677], [-86.2270845976597, 12.1535328185747], [-86.228508247722, 12.1536671802807], [-86.2289247965192, 12.1537066105985], [-86.2294974725128, 12.15376053089], [-86.22977002137, 12.1537861737609], [-86.2295485866525, 12.1546235175213], [-86.2295059166765, 12.1547972210148], [-86.2294777095766, 12.1550238784361], [-86.2294970233552, 12.1557729618371], [-86.2295041200459, 12.1559759955679], [-86.2295056471819, 12.156019816409], [-86.2295342136079, 12.15683932628], [-86.2298649732956, 12.1568324765509], [-86.2300757180612, 12.1568280856987], [-86.2304822955588, 12.1568195674455], [-86.2308877052465, 12.156811224826], [-86.2313395578344, 12.1568018284017], [-86.2320904595805, 12.1568524988355], [-86.2329990156588, 12.1569137951187], [-86.2339086497155, 12.1569851025249], [-86.2344878834107, 12.1570232150962], [-86.234785944422, 12.1570427982816], [-86.2356618916555, 12.1571004940259], [-86.2357967287797, 12.1563827651021], [-86.2358251155427, 12.1562316316755], [-86.2361312613915, 12.1562627189765], [-86.2370259834145, 12.1563524681699], [-86.2378979780608, 12.1564402853552], [-86.2381398045352, 12.1564646985275], [-86.2383022199386, 12.1564855111943], [-86.2383164133201, 12.1563265620947], [-86.2383237795054, 12.156244013906], [-86.2383423746318, 12.1560360626108], [-86.2383612392528, 12.1558500654954], [-86.2384017532721, 12.1554489154665], [-86.2384435249328, 12.1550352947289], [-86.238480625354, 12.1546682167628], [-86.2385038018884, 12.1544310208985], [-86.2386228286635, 12.153217551299], [-86.2386501374481, 12.1529074649316], [-86.2386693613952, 12.1526894997298], [-86.23870960592, 12.1523479737181], [-86.2387404181342, 12.1522589257222], [-86.2387688947287, 12.1521460788601], [-86.2388063544761, 12.1520801270921], [-86.238864834801, 12.1520493905767], [-86.2389517917205, 12.1520507956747], [-86.2390612065222, 12.15205808462], [-86.2391646924429, 12.15205808462], [-86.2392427560411, 12.1520334075874], [-86.2394638314325, 12.152052112954], [-86.2396598438275, 12.1520687106725], [-86.2397323378709, 12.1520747701568], [-86.2422398053235, 12.1522867642014], [-86.2428463478033, 12.1523405969621], [-86.2430199023162, 12.1523577215738], [-86.2436632757227, 12.1524211265366], [-86.2444829884194, 12.1524949818828], [-86.2453175233184, 12.1525571573545], [-86.2463001005762, 12.1526460296138], [-86.2464412259073, 12.1526587632849], [-86.2480867598448, 12.1528076154637], [-86.2491019459473, 12.1529021958313], [-86.2494490549731, 12.1529341617047], [-86.2497901452865, 12.1529656006644], [-86.2506034799448, 12.1530334842154], [-86.2512684129181, 12.1530937275593], [-86.25146424565, 12.1531128719427], [-86.2521060919205, 12.153169426902], [-86.2529956935464, 12.1532475851336], [-86.2539322770616, 12.1533303977066], [-86.2544771951129, 12.1533851962562], [-86.2548534095539, 12.1534185671623], [-86.2552803788085, 12.1534565046083], [-86.2558154153917, 12.1534989207741], [-86.2571804952974, 12.1536072883391], [-86.258522937658, 12.153715831496], [-86.2595886989111, 12.1538017175548], [-86.2601283169023, 12.1538461534803], [-86.2609523415124, 12.1539091189983], [-86.2612190513203, 12.1539621610689], [-86.2617941527651, 12.1540732508017], [-86.2619518070975, 12.1541097830673], [-86.2624542348359, 12.1541997086228], [-86.2625612241863, 12.1542188529266], [-86.2626653389277, 12.1542188529266], [-86.2634515444643, 12.15419057556], [-86.2637355917572, 12.1541559752998], [-86.2638775255721, 12.1541431538825], [-86.2642521230455, 12.1540930098402], [-86.2647671271979, 12.1540593755649], [-86.2653562423612, 12.1541241852091], [-86.2654290957308, 12.1541321766411], [-86.2659444592093, 12.1541889070196], [-86.2670508243132, 12.1543086906274], [-86.2678699081893, 12.1543973866659], [-86.2686349134852, 12.1544810770593], [-86.2687260924866, 12.1544910882903], [-86.2689112352666, 12.1545055782292], [-86.2695786835227, 12.1545580054564], [-86.2703975877357, 12.1546719929262], [-86.2706964572308, 12.1546782279867], [-86.2708304858712, 12.1546813016081], [-86.2712044545239, 12.1546886782991], [-86.2720001822026, 12.1546643527815], [-86.2725777090988, 12.1546467892295], [-86.2737258458634, 12.1546964940786], [-86.2744623745649, 12.1547764960337], [-86.2748156819661, 12.1548090764058], [-86.2750028010398, 12.154823127239], [-86.2763117362403, 12.1549141941831], [-86.2767272070592, 12.1549509897863], [-86.2774771206584, 12.1550474135622], [-86.2776193239678, 12.1550614643827], [-86.2782386225247, 12.1551044071984], [-86.2787536266771, 12.1551412905928], [-86.2796492470154, 12.1551947715056], [-86.28044650183, 12.1552589661503], [-86.2805045329974, 12.1552637082985], [-86.2813961109169, 12.1553192089902], [-86.2817833746358, 12.1553394070238], [-86.2818483228309, 12.1553425684551], [-86.2819836989442, 12.1553980691302], [-86.2820735304726, 12.1554548870563], [-86.2821649789685, 12.1555666787054], [-86.282250049426, 12.1557114896562], [-86.2822310949734, 12.1559305940075], [-86.2821928267423, 12.1563753006408], [-86.2821634518326, 12.1566814311969], [-86.2821278785473, 12.1570514043447], [-86.2821105410623, 12.1572333610423], [-86.282563202134, 12.1572617259024], [-86.2830426330011, 12.1572916714635], [-86.2835185604387, 12.1573089713902], [-86.2839237904633, 12.1573238124432], [-86.2841927460594, 12.1573335601166], [-86.2850509964818, 12.1573923974169], [-86.2862267115257, 12.1574178643041], [-86.2867830381811, 12.1574479854812], [-86.2872984914912, 12.1574759112343], [-86.2873002881217, 12.1574884690405], [-86.2873093611061, 12.1575086669094], [-86.2873249019605, 12.1575246495698], [-86.2873451140544, 12.1575344850527], [-86.287367661768, 12.1575370317401], [-86.2873833822855, 12.1575340459686], [-86.2874034147164, 12.1575237714017], [-86.2874185962446, 12.1575073496571], [-86.2874272200714, 12.1574868883377], [-86.2885393343931, 12.1575336947014], [-86.2892261862594, 12.1575625864302], [-86.2895583832514, 12.1575765493011], [-86.2896952865007, 12.1575824330264], [-86.2897023831915, 12.1573421661703], [-86.2897031916752, 12.1573139769525], [-86.2897234936006, 12.1567027707492], [-86.2897415497379, 12.1563759153612], [-86.2897533176681, 12.1556747819757], [-86.2897719127945, 12.155271963149], [-86.2898069470905, 12.1545113742046], [-86.2898715359595, 12.153605619795], [-86.2899027973314, 12.1524727638081], [-86.2899084567176, 12.1523116168476], [-86.2899405265733, 12.151385129704], [-86.2899689133363, 12.1505304753857], [-86.2899810405926, 12.1501553996534], [-86.2899980187515, 12.1496306791454], [-86.2909477176698, 12.1496802971122], [-86.2909003764544, 12.1505815861096], [-86.2920424046751, 12.1506401614459], [-86.2921287327739, 12.1497573147167], [-86.2923753203194, 12.1497765471594], [-86.293028754857, 12.1498276580281], [-86.2939485398765, 12.1498885168331], [-86.2948240379523, 12.1499891577701], [-86.2951228176158, 12.1500169964868], [-86.2957252278454, 12.1500731130078], [-86.2964032762218, 12.1501402069235], [-86.2973261155132, 12.1502051053416], [-86.2975075752006, 12.1502123065182], [-86.2982080814592, 12.1502402330308], [-86.2991515820021, 12.1502785222068], [-86.3000795416906, 12.1503269984034], [-86.3010119929555, 12.1503540467121], [-86.3010036386233, 12.1506923259775], [-86.3009942961444, 12.1510666105826], [-86.3009462362767, 12.1519651725066], [-86.3008561352537, 12.1527904030626], [-86.3007769038456, 12.1535980674378], [-86.3009210834487, 12.1535601300119], [-86.3016914786364, 12.1533572700737], [-86.3018621585404, 12.1533118680663], [-86.3024651077591, 12.1531739056328], [-86.302760383993, 12.1531135744888], [-86.3036143225021, 12.1529390795311], [-86.3037620055348, 12.1529057085649], [-86.3038791458478, 12.1528791874256], [-86.3040337459082, 12.1528432697195], [-86.3041635524667, 12.1528148165699], [-86.3045104818295, 12.1527502700619], [-86.3045173988572, 12.152403650655], [-86.3045213514444, 12.1522401325516], [-86.3045234175696, 12.1521762884527], [-86.3045278193145, 12.1519046654512], [-86.3045361736466, 12.1517043509941], [-86.3045401262339, 12.1516232064714], [-86.3045748012038, 12.1509775621579], [-86.3045808199162, 12.1508712133591], [-86.3045852216611, 12.1507932300676], [-86.3045922285203, 12.1506708103049], [-86.3045999540318, 12.1505355688947], [-86.304635347654, 12.1499361149075], [-86.304679724429, 12.1490335064299], [-86.3047148485566, 12.1481625978781], [-86.3047489845374, 12.1472845730411], [-86.3047810543931, 12.1464053158212], [-86.3047859052956, 12.1463001946827], [-86.3048071953678, 12.145839048747], [-86.3048209395917, 12.1455156928458], [-86.3048565128769, 12.1449515315825], [-86.3048865166074, 12.1444033525722], [-86.3048888522272, 12.1442559886534], [-86.3049406850191, 12.1437879012907], [-86.3049465240684, 12.1437572516392], [-86.3051869132384, 12.1433712764994], [-86.3052105389304, 12.1433400998709], [-86.3059808442865, 12.1423203147335], [-86.3062769290042, 12.1419281021519], [-86.3067277036138, 12.1413344250449], [-86.3069328788246, 12.1410551504452], [-86.3072039005459, 12.140694552054], [-86.307405213001, 12.1403812016673], [-86.3074355760576, 12.1403337775296], [-86.3075051056606, 12.1401518971009], [-86.3075482247943, 12.140038957284], [-86.3075987101132, 12.1399058182159], [-86.3077291454925, 12.1394445733838], [-86.3077427998848, 12.1391588857329], [-86.3077537593313, 12.1388504516262], [-86.3077631018102, 12.1385828548896], [-86.3077834037356, 12.1384912554198], [-86.3078009208837, 12.1383014696491], [-86.3078686538561, 12.1380166590047], [-86.3079823805711, 12.1377025150577], [-86.3080704154689, 12.1374597712005], [-86.308102395493, 12.1373787979833], [-86.308336316793, 12.1367369833695], [-86.30863177269, 12.1358845654563], [-86.3093201516922, 12.134082763168], [-86.3096229737745, 12.1332500973492], [-86.3097966181189, 12.1327740863991], [-86.3098086555437, 12.1327277148072], [-86.3098471034378, 12.1326307559981], [-86.3099176211877, 12.1324342035214], [-86.3099906542203, 12.1322300101113], [-86.3100485057246, 12.1320742082386], [-86.3101278269641, 12.1318632520064], [-86.3101675324997, 12.1317545242912], [-86.3104122335831, 12.1310845041366], [-86.310596837374, 12.1305964571989], [-86.3106880163753, 12.1304940524195], [-86.3107923107798, 12.1301590848815], [-86.3108966950158, 12.1298236777928], [-86.310949426123, 12.1296545249612], [-86.3110251541014, 12.1294936276717], [-86.3111370841859, 12.129138371031], [-86.3111554098176, 12.1289975856355], [-86.3111669980848, 12.1289657047153], [-86.31121667492, 12.1288236896607], [-86.3112730891199, 12.1286575222899], [-86.311656130757, 12.1275281610783], [-86.3117383266055, 12.1272907653882], [-86.3120634269068, 12.1262712701365], [-86.3123275316004, 12.1255066461398], [-86.3124426057883, 12.1251735167131], [-86.3129842899046, 12.1237522008038], [-86.3131016098807, 12.123419420498], [-86.3131270322032, 12.1233444153255], [-86.312838493334, 12.1232322588398], [-86.312761148388, 12.1232026607616], [-86.3122695902645, 12.1230183094535], [-86.3122011386399, 12.1229925757924], [-86.3120429453184, 12.122931096046], [-86.3118385785912, 12.1228656640147], [-86.31158812829, 12.1228209594363], [-86.3108767524165, 12.1227127550036], [-86.3106029459179, 12.1226997564162], [-86.3103319241967, 12.1227007225275], [-86.3102215212483, 12.1227010738407], [-86.3095659307539, 12.1227524533883], [-86.309287812342, 12.1227998806542], [-86.3088827619804, 12.122891046375], [-86.3085291850845, 12.1230077700704], [-86.3083048757581, 12.1230804918051], [-86.3067595938063, 12.123564161099], [-86.3058517563802, 12.1238403800499], [-86.3057454856821, 12.1238690119502], [-86.3051357990987, 12.1240335135757], [-86.3043849871843, 12.124236132363], [-86.304308091396, 12.1242571232039], [-86.3037285882062, 12.1244176723422], [-86.3025125388061, 12.1246974035146], [-86.3009527041467, 12.1250115627893], [-86.300787683629, 12.125040370219], [-86.2994383242408, 12.1252645059678], [-86.2991807772488, 12.1253033256982], [-86.2989186488489, 12.1253410036665], [-86.2983770545641, 12.125423824916], [-86.2979398445153, 12.1254905737304], [-86.2978271957787, 12.1254635228971], [-86.2977467067292, 12.1254347155132], [-86.2976475327219, 12.1254189065817], [-86.2973894467407, 12.1254633472424], [-86.2971359421676, 12.1255050652471], [-86.2971133944539, 12.1253641901058], [-86.2971095316982, 12.1253396862551], [-86.2971050401218, 12.1253114058224], [-86.2970709939725, 12.1250989511715], [-86.297018891686, 12.1247087332797], [-86.2969931100374, 12.1244652749674], [-86.2970275155128, 12.1241967855104], [-86.2970704549833, 12.1238526759584], [-86.2971219284491, 12.1235170852811], [-86.2971647780882, 12.1232066130275], [-86.2972849726732, 12.1227283006107], [-86.2973451597972, 12.1223170882587], [-86.2974223250801, 12.1218891000178], [-86.2974967954172, 12.1214528551921], [-86.2976369326015, 12.1210080024256], [-86.2977741951769, 12.1206471134271], [-86.2978342924694, 12.1204540652785], [-86.2978599842866, 12.1201855717842], [-86.2978768726139, 12.12012725324], [-86.2979315800147, 12.119938332688], [-86.2978253093166, 12.1198959111788], [-86.2975850099781, 12.1197531886606], [-86.297515121049, 12.1197382576851], [-86.2971734019149, 12.1196904785577], [-86.2972261330221, 12.1191698260416], [-86.2972591910245, 12.1188429246005], [-86.2973536039609, 12.1179533852825], [-86.2974394829021, 12.1170721868633], [-86.2975709962597, 12.1170858883661], [-86.298297823156, 12.1171615979389], [-86.2992013486688, 12.1172552248288], [-86.300142693255, 12.1173530675285], [-86.3001681155776, 12.1171438562544], [-86.3002502215946, 12.1164665973064], [-86.3003316089593, 12.1155824955671], [-86.3004007792362, 12.114696195126], [-86.3004102115466, 12.1146154784893], [-86.3005037261677, 12.1138151616152], [-86.3006091883821, 12.1129613529633], [-86.3006719806204, 12.112311311236], [-86.3006927317035, 12.1120961234489], [-86.3006947978287, 12.1120746046606]]}, "type": "Feature", "properties": {"name": "123"}}, {"geometry": {"type": "Point", "coordinates": [-86.2449613413083, 12.1239579816086]}, "type": "Feature", "properties": {"name": "Mercado Huembes", "popupContent": "This is where the Rockies play!"}}, {"geometry": {"type": "Point", "coordinates": [-86.245554948048, 12.1259835483385]}, "type": "Feature", "properties": {"name": null, "popupContent": "This is where the Rockies play!"}}, {"geometry": {"type": "Point", "coordinates": [-86.2454952999131, 12.1259781030512]}, "type": "Feature", "properties": {"name": "Polic\u00eda de Tr\u00e1nsito", "popupContent": "This is where the Rockies play!"}}, {"geometry": {"type": "Point", "coordinates": [-86.2417127637463, 12.1264412155582]}, "type": "Feature", "properties": {"name": null, "popupContent": "This is where the Rockies play!"}}, {"geometry": {"type": "Point", "coordinates": [-86.2417919053228, 12.126369724319]}, "type": "Feature", "properties": {"name": "Audi Huembes", "popupContent": "This is where the Rockies play!"}}, {"geometry": {"type": "Point", "coordinates": [-86.2401204100737, 12.1254627324507]}, "type": "Feature", "properties": {"name": null, "popupContent": "This is where the Rockies play!"}}, {"geometry": {"type": "Point", "coordinates": [-86.2397519211441, 12.1255050652471]}, "type": "Feature", "properties": {"name": "Ferreter\u00eda Jenny", "popupContent": "This is where the Rockies play!"}}, {"geometry": {"type": "Point", "coordinates": [-86.2398118387736, 12.1255791037111]}, "type": "Feature", "properties": {"name": null, "popupContent": "This is where the Rockies play!"}}, {"geometry": {"type": "Point", "coordinates": [-86.2348892506797, 12.1280422102889]}, "type": "Feature", "properties": {"name": "Colonia Nicarao", "popupContent": "This is where the Rockies play!"}}, {"geometry": {"type": "Point", "coordinates": [-86.234895089729, 12.1280749695848]}, "type": "Feature", "properties": {"name": null, "popupContent": "This is where the Rockies play!"}}, {"geometry": {"type": "Point", "coordinates": [-86.2302466674598, 12.1325460926613]}, "type": "Feature", "properties": {"name": null, "popupContent": "This is where the Rockies play!"}}, {"geometry": {"type": "Point", "coordinates": [-86.2301701309976, 12.1325174616928]}, "type": "Feature", "properties": {"name": "Hotel Estrella", "popupContent": "This is where the Rockies play!"}}, {"geometry": {"type": "Point", "coordinates": [-86.2289767191426, 12.1355338841857]}, "type": "Feature", "properties": {"name": null, "popupContent": "This is where the Rockies play!"}}, {"geometry": {"type": "Point", "coordinates": [-86.2289125794314, 12.1355296686305]}, "type": "Feature", "properties": {"name": "UCyT", "popupContent": "This is where the Rockies play!"}}, {"geometry": {"type": "Point", "coordinates": [-86.2267842010287, 12.1392211521422]}, "type": "Feature", "properties": {"name": null, "popupContent": "This is where the Rockies play!"}}, {"geometry": {"type": "Point", "coordinates": [-86.2267185341814, 12.1392159705939]}, "type": "Feature", "properties": {"name": "Villa Progreso", "popupContent": "This is where the Rockies play!"}}, {"geometry": {"type": "Point", "coordinates": [-86.224915076417, 12.1417716911963]}, "type": "Feature", "properties": {"name": null, "popupContent": "This is where the Rockies play!"}}, {"geometry": {"type": "Point", "coordinates": [-86.2248649504242, 12.1417597474026]}, "type": "Feature", "properties": {"name": "Rotonda La Virgen", "popupContent": "This is where the Rockies play!"}}, {"geometry": {"type": "Point", "coordinates": [-86.2242602944064, 12.1450345223788]}, "type": "Feature", "properties": {"name": null, "popupContent": "This is where the Rockies play!"}}, {"geometry": {"type": "Point", "coordinates": [-86.2241944478961, 12.1450258281061]}, "type": "Feature", "properties": {"name": "La Uni\u00f3n", "popupContent": "This is where the Rockies play!"}}, {"geometry": {"type": "Point", "coordinates": [-86.223925312637, 12.1467278802584]}, "type": "Feature", "properties": {"name": "Peluquer\u00eda El Sevillano", "popupContent": "This is where the Rockies play!"}}, {"geometry": {"type": "Point", "coordinates": [-86.2239758877875, 12.1467393847275]}, "type": "Feature", "properties": {"name": null, "popupContent": "This is where the Rockies play!"}}, {"geometry": {"type": "Point", "coordinates": [-86.2237401698569, 12.1491704171753]}, "type": "Feature", "properties": {"name": null, "popupContent": "This is where the Rockies play!"}}, {"geometry": {"type": "Point", "coordinates": [-86.2237019914573, 12.149165148001]}, "type": "Feature", "properties": {"name": "Paso a Desnivel", "popupContent": "This is where the Rockies play!"}}, {"geometry": {"type": "Point", "coordinates": [-86.2239027649233, 12.1512966082991]}, "type": "Feature", "properties": {"name": null, "popupContent": "This is where the Rockies play!"}}, {"geometry": {"type": "Point", "coordinates": [-86.2238581186537, 12.1512954666538]}, "type": "Feature", "properties": {"name": "Sucursal Norte - DISSUR", "popupContent": "This is where the Rockies play!"}}, {"geometry": {"type": "Point", "coordinates": [-86.2241138690151, 12.1534149666173]}, "type": "Feature", "properties": {"name": null, "popupContent": "This is where the Rockies play!"}}, {"geometry": {"type": "Point", "coordinates": [-86.2241171029501, 12.1534493035194]}, "type": "Feature", "properties": {"name": "Disagro", "popupContent": "This is where the Rockies play!"}}, {"geometry": {"type": "Point", "coordinates": [-86.2294975623444, 12.15376053089]}, "type": "Feature", "properties": {"name": null, "popupContent": "This is where the Rockies play!"}}, {"geometry": {"type": "Point", "coordinates": [-86.2267038916423, 12.1540454125094]}, "type": "Feature", "properties": {"name": "Pulper\u00eda Guadalupe", "popupContent": "This is where the Rockies play!"}}, {"geometry": {"type": "Point", "coordinates": [-86.2267136832789, 12.1539886821002]}, "type": "Feature", "properties": {"name": null, "popupContent": "This is where the Rockies play!"}}, {"geometry": {"type": "Point", "coordinates": [-86.2294974725128, 12.1538378985856]}, "type": "Feature", "properties": {"name": "Agricons", "popupContent": "This is where the Rockies play!"}}, {"geometry": {"type": "Point", "coordinates": [-86.2298626376758, 12.1568950900939]}, "type": "Feature", "properties": {"name": "Materiales de Construcci\u00f3n Santa Clara", "popupContent": "This is where the Rockies play!"}}, {"geometry": {"type": "Point", "coordinates": [-86.2298650631271, 12.1568324765509]}, "type": "Feature", "properties": {"name": null, "popupContent": "This is where the Rockies play!"}}, {"geometry": {"type": "Point", "coordinates": [-86.2344736900292, 12.1570696702737]}, "type": "Feature", "properties": {"name": "Pulper\u00eda La Chontale\u00f1a", "popupContent": "This is where the Rockies play!"}}, {"geometry": {"type": "Point", "coordinates": [-86.2344879732422, 12.1570232150962]}, "type": "Feature", "properties": {"name": null, "popupContent": "This is where the Rockies play!"}}, {"geometry": {"type": "Point", "coordinates": [-86.2358365241468, 12.1563903173803]}, "type": "Feature", "properties": {"name": "Pulper\u00eda Ortega", "popupContent": "This is where the Rockies play!"}}, {"geometry": {"type": "Point", "coordinates": [-86.2357968186112, 12.1563827651021]}, "type": "Feature", "properties": {"name": null, "popupContent": "This is where the Rockies play!"}}, {"geometry": {"type": "Point", "coordinates": [-86.2383926802877, 12.1562412915717]}, "type": "Feature", "properties": {"name": "Colegio Jos\u00e9 de la Cruz Mena", "popupContent": "This is where the Rockies play!"}}, {"geometry": {"type": "Point", "coordinates": [-86.238323869337, 12.156244013906]}, "type": "Feature", "properties": {"name": null, "popupContent": "This is where the Rockies play!"}}, {"geometry": {"type": "Point", "coordinates": [-86.2387027787238, 12.1529185300418]}, "type": "Feature", "properties": {"name": "Pl\u00e1sticos Modernos", "popupContent": "This is where the Rockies play!"}}, {"geometry": {"type": "Point", "coordinates": [-86.2386502272797, 12.1529074649316]}, "type": "Feature", "properties": {"name": null, "popupContent": "This is where the Rockies play!"}}, {"geometry": {"type": "Point", "coordinates": [-86.2385038917199, 12.1544310208985]}, "type": "Feature", "properties": {"name": null, "popupContent": "This is where the Rockies play!"}}, {"geometry": {"type": "Point", "coordinates": [-86.2385503346201, 12.1544380463252]}, "type": "Feature", "properties": {"name": "Gym M Kono", "popupContent": "This is where the Rockies play!"}}, {"geometry": {"type": "Point", "coordinates": [-86.2430024749997, 12.1524172625227]}, "type": "Feature", "properties": {"name": "SINSA", "popupContent": "This is where the Rockies play!"}}, {"geometry": {"type": "Point", "coordinates": [-86.2430199921478, 12.1523577215738]}, "type": "Feature", "properties": {"name": null, "popupContent": "This is where the Rockies play!"}}, {"geometry": {"type": "Point", "coordinates": [-86.246267940889, 12.1527313891076]}, "type": "Feature", "properties": {"name": "Super de los Militares", "popupContent": "This is where the Rockies play!"}}, {"geometry": {"type": "Point", "coordinates": [-86.2463001904077, 12.1526460296138]}, "type": "Feature", "properties": {"name": null, "popupContent": "This is where the Rockies play!"}}, {"geometry": {"type": "Point", "coordinates": [-86.2494427667662, 12.1530259318419]}, "type": "Feature", "properties": {"name": "Provinco", "popupContent": "This is where the Rockies play!"}}, {"geometry": {"type": "Point", "coordinates": [-86.2494491448047, 12.1529341617047]}, "type": "Feature", "properties": {"name": null, "popupContent": "This is where the Rockies play!"}}, {"geometry": {"type": "Point", "coordinates": [-86.2544571626821, 12.1534882947788]}, "type": "Feature", "properties": {"name": "Ceibo", "popupContent": "This is where the Rockies play!"}}, {"geometry": {"type": "Point", "coordinates": [-86.2544772849445, 12.1533851962562]}, "type": "Feature", "properties": {"name": null, "popupContent": "This is where the Rockies play!"}}, {"geometry": {"type": "Point", "coordinates": [-86.2571786088353, 12.153649792299]}, "type": "Feature", "properties": {"name": "Planta El\u00e9ctrica", "popupContent": "This is where the Rockies play!"}}, {"geometry": {"type": "Point", "coordinates": [-86.257180585129, 12.1536072883391]}, "type": "Feature", "properties": {"name": null, "popupContent": "This is where the Rockies play!"}}, {"geometry": {"type": "Point", "coordinates": [-86.2639060919981, 12.1542010258915]}, "type": "Feature", "properties": {"name": "Cortinas de Madera", "popupContent": "This is where the Rockies play!"}}, {"geometry": {"type": "Point", "coordinates": [-86.2638776154036, 12.1541431538825]}, "type": "Feature", "properties": {"name": null, "popupContent": "This is where the Rockies play!"}}, {"geometry": {"type": "Point", "coordinates": [-86.2654221787031, 12.1542122665838]}, "type": "Feature", "properties": {"name": "Autolote Usa2", "popupContent": "This is where the Rockies play!"}}, {"geometry": {"type": "Point", "coordinates": [-86.2654291855623, 12.1541321766411]}, "type": "Feature", "properties": {"name": null, "popupContent": "This is where the Rockies play!"}}, {"geometry": {"type": "Point", "coordinates": [-86.2720091653555, 12.1547471649135]}, "type": "Feature", "properties": {"name": "Palacio Nacional", "popupContent": "This is where the Rockies play!"}}, {"geometry": {"type": "Point", "coordinates": [-86.2720002720341, 12.1546643527815]}, "type": "Feature", "properties": {"name": null, "popupContent": "This is where the Rockies play!"}}, {"geometry": {"type": "Point", "coordinates": [-86.2748157717976, 12.1548090764058]}, "type": "Feature", "properties": {"name": null, "popupContent": "This is where the Rockies play!"}}, {"geometry": {"type": "Point", "coordinates": [-86.2747831629528, 12.1549055880509]}, "type": "Feature", "properties": {"name": null, "popupContent": "This is where the Rockies play!"}}, {"geometry": {"type": "Point", "coordinates": [-86.2774689459893, 12.1551110813368]}, "type": "Feature", "properties": {"name": "Cine Gonz\u00e1lez", "popupContent": "This is where the Rockies play!"}}, {"geometry": {"type": "Point", "coordinates": [-86.2774772104899, 12.1550474135622]}, "type": "Feature", "properties": {"name": null, "popupContent": "This is where the Rockies play!"}}, {"geometry": {"type": "Point", "coordinates": [-86.2804408424437, 12.1553126226745]}, "type": "Feature", "properties": {"name": "Pulper\u00eda Albertina", "popupContent": "This is where the Rockies play!"}}, {"geometry": {"type": "Point", "coordinates": [-86.2804465916615, 12.1552589661503]}, "type": "Feature", "properties": {"name": null, "popupContent": "This is where the Rockies play!"}}, {"geometry": {"type": "Point", "coordinates": [-86.2834875685613, 12.1573794005218]}, "type": "Feature", "properties": {"name": "Ferreter\u00eda El Serrucho", "popupContent": "This is where the Rockies play!"}}, {"geometry": {"type": "Point", "coordinates": [-86.2835186502702, 12.1573089713902]}, "type": "Feature", "properties": {"name": null, "popupContent": "This is where the Rockies play!"}}, {"geometry": {"type": "Point", "coordinates": [-86.2867815110452, 12.1575166582397]}, "type": "Feature", "properties": {"name": "Pal\u00ed", "popupContent": "This is where the Rockies play!"}}, {"geometry": {"type": "Point", "coordinates": [-86.2867831280127, 12.1574479854812]}, "type": "Feature", "properties": {"name": null, "popupContent": "This is where the Rockies play!"}}, {"geometry": {"type": "Point", "coordinates": [-86.2892262760909, 12.1575625864302]}, "type": "Feature", "properties": {"name": null, "popupContent": "This is where the Rockies play!"}}, {"geometry": {"type": "Point", "coordinates": [-86.289209297932, 12.1576354743644]}, "type": "Feature", "properties": {"name": "Iglesia", "popupContent": "This is where the Rockies play!"}}, {"geometry": {"type": "Point", "coordinates": [-86.2899085465492, 12.1523116168476]}, "type": "Feature", "properties": {"name": null, "popupContent": "This is where the Rockies play!"}}, {"geometry": {"type": "Point", "coordinates": [-86.2899654997382, 12.1523112655735]}, "type": "Feature", "properties": {"name": "Agrosa", "popupContent": "This is where the Rockies play!"}}, {"geometry": {"type": "Point", "coordinates": [-86.2899811304241, 12.1501553996534]}, "type": "Feature", "properties": {"name": null, "popupContent": "This is where the Rockies play!"}}, {"geometry": {"type": "Point", "coordinates": [-86.2900441921571, 12.150160668808]}, "type": "Feature", "properties": {"name": "Desarme El Rubio", "popupContent": "This is where the Rockies play!"}}, {"geometry": {"type": "Point", "coordinates": [-86.2923631032315, 12.1498154511377]}, "type": "Feature", "properties": {"name": "Blanca's Salon", "popupContent": "This is where the Rockies play!"}}, {"geometry": {"type": "Point", "coordinates": [-86.2923754101509, 12.1497765471594]}, "type": "Feature", "properties": {"name": null, "popupContent": "This is where the Rockies play!"}}, {"geometry": {"type": "Point", "coordinates": [-86.2951080852452, 12.1500846173322]}, "type": "Feature", "properties": {"name": "Pulper\u00eda Cinthia", "popupContent": "This is where the Rockies play!"}}, {"geometry": {"type": "Point", "coordinates": [-86.2951229074474, 12.1500169964868]}, "type": "Feature", "properties": {"name": null, "popupContent": "This is where the Rockies play!"}}, {"geometry": {"type": "Point", "coordinates": [-86.2974893394003, 12.1502664031563]}, "type": "Feature", "properties": {"name": "Impresiones Universales", "popupContent": "This is where the Rockies play!"}}, {"geometry": {"type": "Point", "coordinates": [-86.2975076650321, 12.1502123065182]}, "type": "Feature", "properties": {"name": null, "popupContent": "This is where the Rockies play!"}}, {"geometry": {"type": "Point", "coordinates": [-86.3010037284549, 12.1506923259775]}, "type": "Feature", "properties": {"name": null, "popupContent": "This is where the Rockies play!"}}, {"geometry": {"type": "Point", "coordinates": [-86.3009578245438, 12.1506842466231]}, "type": "Feature", "properties": {"name": "Cine Le\u00f3n", "popupContent": "This is where the Rockies play!"}}, {"geometry": {"type": "Point", "coordinates": [-86.3009211732802, 12.1535601300119]}, "type": "Feature", "properties": {"name": null, "popupContent": "This is where the Rockies play!"}}, {"geometry": {"type": "Point", "coordinates": [-86.3009333903681, 12.1536543588397]}, "type": "Feature", "properties": {"name": "Tortiller\u00eda Alicia", "popupContent": "This is where the Rockies play!"}}, {"geometry": {"type": "Point", "coordinates": [-86.3046241187129, 12.1516419118668]}, "type": "Feature", "properties": {"name": "Asados El Toro", "popupContent": "This is where the Rockies play!"}}, {"geometry": {"type": "Point", "coordinates": [-86.3045402160654, 12.1516232064714]}, "type": "Feature", "properties": {"name": null, "popupContent": "This is where the Rockies play!"}}, {"geometry": {"type": "Point", "coordinates": [-86.3049015184727, 12.1463025658367]}, "type": "Feature", "properties": {"name": "Universidad Paulo Freire", "popupContent": "This is where the Rockies play!"}}, {"geometry": {"type": "Point", "coordinates": [-86.3047859951271, 12.1463001946827]}, "type": "Feature", "properties": {"name": null, "popupContent": "This is where the Rockies play!"}}, {"geometry": {"type": "Point", "coordinates": [-86.3050193774379, 12.1438295286055]}, "type": "Feature", "properties": {"name": "Ferreter\u00eda 35 Avenida", "popupContent": "This is where the Rockies play!"}}, {"geometry": {"type": "Point", "coordinates": [-86.3049407748506, 12.1437879012907]}, "type": "Feature", "properties": {"name": null, "popupContent": "This is where the Rockies play!"}}, {"geometry": {"type": "Point", "coordinates": [-86.3075449908593, 12.1402621143721]}, "type": "Feature", "properties": {"name": "ENACAL", "popupContent": "This is where the Rockies play!"}}, {"geometry": {"type": "Point", "coordinates": [-86.3075051954922, 12.1401518971009]}, "type": "Feature", "properties": {"name": null, "popupContent": "This is where the Rockies play!"}}, {"geometry": {"type": "Point", "coordinates": [-86.3101533391182, 12.1321233903503]}, "type": "Feature", "properties": {"name": "Asososca", "popupContent": "This is where the Rockies play!"}}, {"geometry": {"type": "Point", "coordinates": [-86.3100485955561, 12.1320742082386]}, "type": "Feature", "properties": {"name": null, "popupContent": "This is where the Rockies play!"}}, {"geometry": {"type": "Point", "coordinates": [-86.3112731789514, 12.1286575222899]}, "type": "Feature", "properties": {"name": null, "popupContent": "This is where the Rockies play!"}}, {"geometry": {"type": "Point", "coordinates": [-86.3113775631874, 12.1286953754369]}, "type": "Feature", "properties": {"name": "Las Piedrecitas", "popupContent": "This is where the Rockies play!"}}, {"geometry": {"type": "Point", "coordinates": [-86.3120521979658, 12.1228336945331]}, "type": "Feature", "properties": {"name": "7 Sur", "popupContent": "This is where the Rockies play!"}}, {"geometry": {"type": "Point", "coordinates": [-86.3120430351499, 12.122931096046]}, "type": "Feature", "properties": {"name": null, "popupContent": "This is where the Rockies play!"}}]}