{"type": "FeatureCollection", "features": [{"geometry": {"type": "LineString", "coordinates": [[-86.2141638594336, 12.1280176188577], [-86.2132783900581, 12.127927157502], [-86.2131797550399, 12.1284190736884], [-86.2130535417424, 12.1290501057107], [-86.2128808855448, 12.129978602722], [-86.2128842093114, 12.1300826763909], [-86.2129001993235, 12.1305878502807], [-86.2129359522718, 12.1310930232132], [-86.2129152910202, 12.1312048250906], [-86.2128741481802, 12.1314287800064], [-86.2126911613568, 12.1317576860024], [-86.212525781513, 12.131997800297], [-86.2122744328965, 12.1323544583287], [-86.2122200848218, 12.1324502755122], [-86.2121609756761, 12.1326477062272], [-86.2120630593102, 12.1329826706378], [-86.2120569507662, 12.1330249144153], [-86.2120202096711, 12.1332763569692], [-86.2120169757361, 12.1334082698033], [-86.2120227249539, 12.1334733479485], [-86.2120631491417, 12.1336069293545], [-86.2121122869877, 12.1337694050047], [-86.2123441421626, 12.1339203755335], [-86.2125274883121, 12.133975968499], [-86.2132565609967, 12.133999856784], [-86.2147622272444, 12.1340493898385], [-86.21629304632, 12.1340996254802], [-86.2170681127472, 12.1341250945957], [-86.2170449362128, 12.1345195142759], [-86.2170168189444, 12.1349955221084], [-86.2169700167181, 12.1357875199718], [-86.2169054278492, 12.1368811897981], [-86.2168689562487, 12.136991320599], [-86.2168376948768, 12.1370852918206], [-86.2167364547443, 12.1372267755319], [-86.2161456327819, 12.1381072925823], [-86.2159052436119, 12.1384883572577], [-86.2156565001097, 12.1389633041241], [-86.2155864315175, 12.1393861712299], [-86.2154883354885, 12.1399247879025], [-86.2153959886773, 12.140413695979], [-86.2153787410239, 12.1405051191429], [-86.2153496356087, 12.1406666245401], [-86.2154616555246, 12.1406993822841], [-86.2155776280278, 12.1407347746946], [-86.2162176776677, 12.141006584738], [-86.2166427604601, 12.1411870594278], [-86.2173024832048, 12.1414673877546], [-86.2177583782115, 12.1416609476175], [-86.2181128534226, 12.1418048879144], [-86.2182971877189, 12.1418495014866], [-86.2185565313414, 12.1419122941987], [-86.2187462555294, 12.1419269604664], [-86.2200280616083, 12.1419095717178], [-86.220585106916, 12.1419049171536], [-86.2210157592633, 12.1419012286309], [-86.2211742220794, 12.1419109768692], [-86.2212819300819, 12.1419236232319], [-86.2215764876636, 12.1419507602164], [-86.2219033845955, 12.1420196126178], [-86.2221437737655, 12.142084073906], [-86.2232195063182, 12.1424926211083], [-86.2236119802659, 12.1426407763984], [-86.2238065553564, 12.1427258756357], [-86.2239074361628, 12.142807461979], [-86.2241433337564, 12.1430684678524], [-86.2241861833955, 12.1432362948452], [-86.2243012575834, 12.1434132551651], [-86.2244351065607, 12.1435131959787], [-86.2246153086067, 12.1435718606919], [-86.2248512960318, 12.1435632541929], [-86.2249917027108, 12.1435103856928], [-86.2250951886315, 12.1434428509987], [-86.2252161917003, 12.1434041217322], [-86.2253963937463, 12.1433872600089], [-86.2256110012676, 12.1434293264936], [-86.2259937734102, 12.1436221823593], [-86.2261584346018, 12.1437144826353], [-86.2264907214253, 12.1439756632623], [-86.2269759015103, 12.1443899159369], [-86.2271451441099, 12.144548520882], [-86.2272618352653, 12.1446447727848], [-86.2274669206446, 12.1448140917412], [-86.2276702093934, 12.1449345821362], [-86.22785220807, 12.1450409333069], [-86.2281408367708, 12.1451232215082], [-86.228365954581, 12.1451759140463], [-86.2287113568077, 12.145160896674], [-86.2288451159535, 12.145169766584], [-86.2289917210079, 12.1451918974475], [-86.2293436809362, 12.1452242155304], [-86.2296297045227, 12.1452526694915], [-86.2297472041618, 12.1452661060832], [-86.2298134998298, 12.1452736586769], [-86.2299313587951, 12.1452850753879], [-86.2301930380373, 12.1453090504795], [-86.230407016738, 12.1453315326146], [-86.2315934217337, 12.1454224271653], [-86.2319447528414, 12.1454589606184], [-86.232098544418, 12.1454777542678], [-86.2327778504359, 12.1455522262861], [-86.2328426189679, 12.1455595154095], [-86.2330587536252, 12.1455840174008], [-86.2331571191488, 12.1455951706363], [-86.2333701097027, 12.1456193213414], [-86.2336165175851, 12.1456663932549], [-86.2337050914721, 12.145741304324], [-86.2337092237224, 12.1458223628193], [-86.2337410240835, 12.1458959565347], [-86.2337665362376, 12.1459277476083], [-86.2338318437587, 12.1459757854942], [-86.233900744541, 12.1459978284699], [-86.2339823115688, 12.1459966868019], [-86.2340619921345, 12.1459663886872], [-86.2341317014006, 12.1459260790162], [-86.2342462365993, 12.1459175604139], [-86.234438296407, 12.1459468046866], [-86.2345053107272, 12.1459468925072], [-86.2346394291991, 12.1459901002555], [-86.2346922501378, 12.1460027464245], [-86.2348635588625, 12.1460391041568], [-86.2350609187304, 12.1460716855986], [-86.2350796036884, 12.14607484714], [-86.2352052779966, 12.1460967144664], [-86.2357058192729, 12.1461603843825], [-86.2358653600674, 12.1461796170852], [-86.236049245206, 12.1462279183872], [-86.2366062006822, 12.1462956280158], [-86.2371307269766, 12.1463534139109], [-86.2374550187942, 12.1463952164655], [-86.2378933966528, 12.1464472940086], [-86.2381738506845, 12.1464807536051], [-86.2383746241505, 12.1465067484593], [-86.2386360338982, 12.1465387151008], [-86.2389260999034, 12.1465770926298], [-86.2392397916006, 12.1465830644187], [-86.2396185213244, 12.1465138619156], [-86.2400396515296, 12.1463529748084], [-86.240293695092, 12.1462430235198], [-86.2406035240335, 12.1461602087413], [-86.2408152569459, 12.1461293837218], [-86.2411391894374, 12.1461343894944], [-86.241253185647, 12.1461128734534], [-86.2413579292091, 12.1461169132], [-86.2414583608578, 12.1461236753844], [-86.2415596009903, 12.1461278029514], [-86.2416182609784, 12.1461545882252], [-86.242341045456, 12.1462045581222], [-86.2426311114612, 12.1462186094097], [-86.2431498885378, 12.1462437260841], [-86.2439912506329, 12.1462887780152], [-86.2439465145318, 12.1472088720243], [-86.2439324109818, 12.1474995567856], [-86.2438895613428, 12.1486995282226], [-86.2438209300551, 12.1495804464333], [-86.2437608327625, 12.1504950842774], [-86.2439189362526, 12.1504999143297], [-86.2445933015364, 12.1505202883674], [-86.2454259499732, 12.1505454924551], [-86.2459447270498, 12.1505674472333], [-86.2461391224773, 12.1505757900486], [-86.2462154792764, 12.1505789515364], [-86.246647209602, 12.1506788018407], [-86.2470656448613, 12.1508151848254], [-86.2475806490137, 12.1508257231085], [-86.2479989944415, 12.1508257231085], [-86.2485569380645, 12.1508151848254], [-86.2489071013622, 12.1507805841263], [-86.2489348593045, 12.1507782130123], [-86.2491113782578, 12.1507629324989], [-86.2491391362001, 12.1501683969014], [-86.2491367107488, 12.1493311269404], [-86.2491568330112, 12.1491224676856], [-86.2492315728428, 12.1488665612885], [-86.2493428741065, 12.1486090738897], [-86.2493527555747, 12.1485863285721], [-86.249453277055, 12.1484297458885], [-86.2496496487761, 12.1481850797722], [-86.2497674179098, 12.148055457575], [-86.2500162512435, 12.1478134257152], [-86.2502027414965, 12.1476200459652], [-86.2502872729648, 12.1475324893292], [-86.2504053115931, 12.1473861809845], [-86.250479242941, 12.1472290706736], [-86.2505746440241, 12.1470488635399], [-86.2506007849989, 12.1469995085434], [-86.2506571991987, 12.1468297518753], [-86.2506687874659, 12.146794887197], [-86.2507180151435, 12.1465537323954], [-86.250757541016, 12.1458704007241], [-86.2507782920991, 12.1456407496016], [-86.2507831430016, 12.1456003520605], [-86.2508268011244, 12.1454774029847], [-86.2508877967322, 12.1453518192272], [-86.2509858029297, 12.1452495957613], [-86.2510405103305, 12.1452019968488], [-86.2512547585257, 12.1451477235397], [-86.251348812136, 12.1451239240754], [-86.2515239836164, 12.1451004758927], [-86.2515498550966, 12.145097050877], [-86.2517782068418, 12.1451019688482], [-86.2518946285026, 12.1450795745145], [-86.2521434618363, 12.1451244510008], [-86.2526417573244, 12.1452750638106], [-86.2529716186968, 12.1453764968793], [-86.2530812131614, 12.1454085514774], [-86.2532421014288, 12.1454592240808], [-86.2532809086491, 12.145471431171], [-86.2535364793474, 12.1455517871823], [-86.2536044818144, 12.1453694712135], [-86.2536624231502, 12.1452142917716], [-86.2537158729096, 12.145082384784], [-86.2538018416823, 12.1449397635733], [-86.253998303235, 12.1447983717804], [-86.2541365539572, 12.1447468208409], [-86.2545228295294, 12.1446628639233], [-86.2548469416839, 12.1445893576881], [-86.2550635254989, 12.1445537901476], [-86.255476481035, 12.1444826550525], [-86.255810205163, 12.144419511662], [-86.2560717945738, 12.1443741081299], [-86.2561386292309, 12.1443662920472], [-86.2563413789905, 12.1443425803343], [-86.2566669284495, 12.1442752214937], [-86.2572521808571, 12.1441761591783], [-86.2576126747806, 12.14401676362], [-86.2578271924705, 12.1438657109919], [-86.2580417101603, 12.143671801446], [-86.2582391598598, 12.1438250497175], [-86.2584576301369, 12.1439948961228], [-86.2588163274298, 12.1442829497579], [-86.2594323022201, 12.1447047545643], [-86.2598726563724, 12.1449993061816], [-86.2602547098628, 12.1452974581278], [-86.2603148969868, 12.145329161452], [-86.2603456193695, 12.1453353967314], [-86.2603806536656, 12.1453331133897], [-86.2604532375405, 12.1452821772998], [-86.2606050528236, 12.1451463184053], [-86.2607818412715, 12.1449878894583], [-86.2610304949421, 12.1447873063325], [-86.2613597274938, 12.1444924910174], [-86.2616170049911, 12.144271093898], [-86.2618713180481, 12.1441209196265], [-86.2619863024044, 12.1440632210681], [-86.2624363583618, 12.1439495803396], [-86.2627003732238, 12.143930698761], [-86.2629665440424, 12.1439476482712], [-86.2631401883869, 12.1439580111836], [-86.2635961732251, 12.1440639236381], [-86.2634978077015, 12.144441115661], [-86.2632210367624, 12.1455028710122], [-86.2633625214197, 12.1454997094641], [-86.2643283001816, 12.1454860972426], [-86.265222573047, 12.1454506176428], [-86.2661093898955, 12.1454427137709], [-86.2664185900162, 12.1443525041255], [-86.2664875806301, 12.1441090637593], [-86.266746654758, 12.144153852588], [-86.267129157406, 12.1442200697836], [-86.2672873507275, 12.1442474699977], [-86.2678954203434, 12.1443526797678], [-86.2684273128231, 12.1444447163273], [-86.2692119912238, 12.1445883038351], [-86.2700418548832, 12.1447361066751], [-86.2701287219712, 12.1447745722848], [-86.2701863938125, 12.1448002160216], [-86.2704014504915, 12.1449481943859], [-86.2706332158348, 12.1452335245427], [-86.2708365944151, 12.1453896700023], [-86.2713108150536, 12.1456051822016], [-86.2716224406256, 12.1456697304425], [-86.2721212751029, 12.1456371489514], [-86.272300309339, 12.1455644333721], [-86.2724848232984, 12.1455014658797], [-86.2725589343093, 12.1454508811052], [-86.2727350939365, 12.1453483942148], [-86.2728511562713, 12.1452964920984], [-86.2730189615663, 12.1452978094112], [-86.2732033856942, 12.1453182716679], [-86.2733125310012, 12.1453347819856], [-86.2734647954418, 12.1453627968307], [-86.273631253264, 12.1454098687896], [-86.2737439918321, 12.1454628247333], [-86.2737682463448, 12.1454741536155], [-86.273861940629, 12.1455370332935], [-86.2739696486315, 12.1456423303748], [-86.274046903746, 12.1457213690239], [-86.2741396098833, 12.1458121756208], [-86.2742015936379, 12.145888316138], [-86.2743513427957, 12.1460751984223], [-86.2744126078981, 12.1461668831041], [-86.2744791730607, 12.1462208049232], [-86.2745767301005, 12.1462600607033], [-86.2746459902089, 12.1462792933988], [-86.2747864867194, 12.1462449555716], [-86.2748867387051, 12.1461733818255], [-86.2750105265512, 12.1461061112687], [-86.2751747385852, 12.1460153925928], [-86.2755493360586, 12.1458760212462], [-86.2758039186102, 12.1457769595265], [-86.2764701092249, 12.1458861206216], [-86.2778475858815, 12.1461134881975], [-86.2779939214413, 12.1461432593721], [-86.2787478774593, 12.1462972087851], [-86.2793581030318, 12.146403471591], [-86.2802870508671, 12.146571384302], [-86.2811745863678, 12.146721732832], [-86.2822651411227, 12.1469079997891], [-86.2831837583323, 12.1470805666556], [-86.2835941985856, 12.1471582875742], [-86.2840756955779, 12.1472493571415], [-86.2849403240388, 12.1474098046062], [-86.2852414393221, 12.1474702248634], [-86.2853403438348, 12.1474868228677], [-86.2856957173612, 12.1475473309275], [-86.2859553304783, 12.1475194041324], [-86.2863474450999, 12.1474157763764], [-86.2866479315624, 12.1472939698015], [-86.28704804119, 12.1470889974004], [-86.2873434072554, 12.1469341702422], [-86.2874587509379, 12.1468737498633], [-86.2875860422136, 12.146807094226], [-86.2878133159805, 12.1466716752117], [-86.2878940745245, 12.1466118695162], [-86.2882363326478, 12.1463515696804], [-86.2888571583406, 12.1458793584312], [-86.2889834614696, 12.1457832826161], [-86.2891198257297, 12.1456794785428], [-86.2895480526257, 12.1453537512854], [-86.2896913339135, 12.1452447656137], [-86.289874859726, 12.1451052182219], [-86.290208404191, 12.1448514156667], [-86.291232842941, 12.1440720910147], [-86.2912791960097, 12.144036786869], [-86.2914528403541, 12.1439047914766], [-86.291920503291, 12.1435420892298], [-86.2920647727257, 12.1434223007763], [-86.2923226790437, 12.1432225068649], [-86.2924743146637, 12.1431050894501], [-86.2924488025096, 12.1430215711228], [-86.2924585043147, 12.142542064762], [-86.292497491198, 12.1416272239492], [-86.2925414188154, 12.1407302079322], [-86.2925561511861, 12.1404195800837], [-86.2925840887914, 12.1398257239688], [-86.2926146315111, 12.139268576478], [-86.292601875434, 12.1391788215242], [-86.292543395109, 12.1391214731866], [-86.2924475448682, 12.139049809703], [-86.2924192479368, 12.1390114310892], [-86.2923808898741, 12.1389467934115], [-86.2924200564205, 12.1383022600575], [-86.2924516771185, 12.1381130889147], [-86.2924749434844, 12.1378938820743], [-86.2925420476361, 12.1372603241103], [-86.2926489471549, 12.1363465190426], [-86.2927507262766, 12.1354764472394], [-86.2927729146641, 12.1352870106178], [-86.2928612190565, 12.1345327757603], [-86.2929638964935, 12.1337226822873], [-86.2930039613552, 12.133663751931], [-86.2931007099113, 12.133650314754], [-86.2938251113564, 12.1337411254662], [-86.2944955240529, 12.1338234171583], [-86.294661802212, 12.1338024270706], [-86.2947774153891, 12.1329391973047], [-86.2948817097936, 12.1321608038792], [-86.2949300391559, 12.1321031027303], [-86.2950266080489, 12.1320612101075], [-86.2954500738739, 12.1321005557995], [-86.2957882895783, 12.1321320850441], [-86.296666123274, 12.1322138502821], [-86.2967433783884, 12.1313160121429], [-86.2968472236352, 12.1304167657674], [-86.2969331025764, 12.1295337641771], [-86.2971300132867, 12.129552471124], [-86.2976256138289, 12.1295991945724], [-86.2978171346475, 12.1296177258626], [-86.2987507537223, 12.1297290892288], [-86.2992054809191, 12.1297649222264], [-86.2993621471047, 12.1297772178617], [-86.3000658872982, 12.129760355276], [-86.300343287058, 12.1297593891903], [-86.3004206320039, 12.1297759004722], [-86.30055205553, 12.1298040047795], [-86.3007868751453, 12.1299449654009], [-86.3008086143752, 12.1299582271129], [-86.3008723947603, 12.1299967826823], [-86.3011868051098, 12.1301871891483], [-86.3012141138944, 12.1301446814435], [-86.3013045742435, 12.1300926007133], [-86.3013848836299, 12.1300095174364], [-86.3014701337504, 12.1298209551884], [-86.3014861237624, 12.1297636926628], [-86.3015474786963, 12.1295435128679], [-86.3015817943402, 12.1292665972155], [-86.3015975148577, 12.1291076318681], [-86.3016020064341, 12.1290061926051], [-86.3015990419937, 12.1287882956681], [-86.3015647263498, 12.1285198105638], [-86.301513252884, 12.128209256308], [-86.3014616895867, 12.1278401213531], [-86.3014290807419, 12.1275278975982], [-86.3014218942196, 12.1274588657988], [-86.3013582934975, 12.1270858654236], [-86.3013183184674, 12.1268510163207], [-86.3012213902482, 12.1263882558337], [-86.3011441351338, 12.1259854805372], [-86.3010832293575, 12.1255446753888], [-86.3010070522214, 12.1251085243694], [-86.3025270016821, 12.124791906036], [-86.3037504172676, 12.1245007573615], [-86.3040086829118, 12.1244390144796], [-86.3040850397109, 12.1244213611068], [-86.3045663570402, 12.1242884777205], [-86.3047869832739, 12.1242276130673], [-86.3051611315898, 12.1241244153914], [-86.3057790826737, 12.1239537658703], [-86.3058859821925, 12.1239242557001], [-86.3067829500037, 12.1236391662097], [-86.30812278725, 12.123213200137], [-86.3083232013899, 12.1231485586282], [-86.3085471513902, 12.1230803161488], [-86.3089106995857, 12.1229794015622], [-86.3092487356271, 12.1229034301555], [-86.3095716799718, 12.1228432678123], [-86.3102289772651, 12.1227877603537], [-86.3106029459179, 12.1227880238385], [-86.3111077092761, 12.1228487131636], [-86.3111961933315, 12.1228594282095], [-86.3115572262442, 12.1229140573709], [-86.3117780321411, 12.1229614846081], [-86.3124881503732, 12.1231929996672], [-86.3126905408067, 12.1232615934302], [-86.3131016098807, 12.123419420498], [-86.3131270322032, 12.1233444153255], [-86.3132171332262, 12.1230648583904], [-86.3135840950198, 12.1219648960563], [-86.3140562495331, 12.1206253318413], [-86.3142141733601, 12.120144204264], [-86.3142662756465, 12.1199809298488], [-86.3142835233, 12.1199321846436], [-86.31429762685, 12.1198923980101], [-86.3143232288356, 12.1198202023817], [-86.3148487432768, 12.1183345665935], [-86.3148601518809, 12.1183119065215], [-86.3149384849737, 12.1180961965932], [-86.31521157282, 12.1172526777563], [-86.3152455291378, 12.1171980474356], [-86.3153258385242, 12.1169380701938], [-86.3154181853354, 12.116565494259], [-86.3154555552512, 12.1163932589564], [-86.3154594180069, 12.1163619913424], [-86.3155078372007, 12.1161454893638], [-86.3155271509793, 12.1160204187696], [-86.3155342476701, 12.1159404930081], [-86.3155250848542, 12.1158590741033], [-86.3155160118698, 12.1157658858765], [-86.3155217610876, 12.1157340912055], [-86.3155856313043, 12.115376883964], [-86.3156752831697, 12.1147834990559], [-86.3157187616294, 12.1141600745921], [-86.3157278346138, 12.1140294697052], [-86.315748945023, 12.1137707190144], [-86.3157926031458, 12.1132340696334], [-86.315619407959, 12.1132265161319], [-86.3150363115081, 12.1132011328523], [-86.3146715955027, 12.1131644193155], [-86.3144475556709, 12.1131104908097], [-86.3142766062723, 12.1130364488858], [-86.3141415894851, 12.1130055322045], [-86.3140045964043, 12.1130195852419], [-86.3139952539253, 12.1130205513882], [-86.3139523144548, 12.1130252064566], [-86.313739683227, 12.1130478669774], [-86.3129228451391, 12.1130700005074], [-86.3121379870754, 12.1130897625863], [-86.3115765400228, 12.1131128622588], [-86.3113401034401, 12.1131226115497], [-86.3113141421283, 12.112533788876], [-86.3113030030188, 12.1122823267687], [-86.3113032725134, 12.1114837595399], [-86.3113081234159, 12.11105592959], [-86.3113146811175, 12.1107125935831], [-86.3113295033197, 12.1099491546585], [-86.3113056979647, 12.1091582219014], [-86.3112866536807, 12.1085224876884], [-86.3112276343665, 12.1083703609571], [-86.3112057154736, 12.1083290794389], [-86.3111572962797, 12.1082625898312], [-86.3111114822002, 12.1082064645088], [-86.3109326276272, 12.1079874965889], [-86.3106584618025, 12.1076857017608], [-86.3103259054843, 12.107218867704], [-86.3100769823191, 12.1069407870484], [-86.3099701726318, 12.1068214213212], [-86.3098919293705, 12.1067338512873], [-86.3097623923066, 12.1065165509989], [-86.3096439045206, 12.1063178712757], [-86.3095962938105, 12.1062380304435], [-86.3094700805131, 12.1060337291513], [-86.3094246257597, 12.1059599487667], [-86.3092530475405, 12.1056347878286], [-86.3092320269628, 12.1055589871533], [-86.309140937793, 12.1053545096738], [-86.3090818286473, 12.1051761187552], [-86.3090550588518, 12.1050345302112], [-86.3090658386352, 12.10491384612], [-86.3090168804523, 12.1047693589085], [-86.3089417812945, 12.1045857853782], [-86.3088345224496, 12.104370767035], [-86.3087600521125, 12.1041532891555], [-86.3086253048199, 12.1038776646743], [-86.3085175968174, 12.1036390182638], [-86.3083630865885, 12.1031185979506], [-86.3083216742539, 12.102987987664], [-86.3083048757581, 12.1029350232861], [-86.3080656543979, 12.1021798186265], [-86.3078739539163, 12.1015744588028], [-86.3077279776826, 12.1008610599896], [-86.3077696595118, 12.1002572782206], [-86.3078396382724, 12.0992413688374], [-86.3074705205222, 12.098368628798], [-86.3069812081869, 12.0973110776693], [-86.3068996411591, 12.0971063303685], [-86.3065863986196, 12.0963208054855], [-86.3065563948891, 12.096185624352], [-86.3064577598709, 12.0957416957045], [-86.3065092333367, 12.0955487173902], [-86.3067578870073, 12.0950399636974], [-86.306937011075, 12.0948085120682], [-86.3071022112557, 12.0947052151854], [-86.3071613204014, 12.0946966949475]]}, "type": "Feature", "properties": {"name": "154"}}, {"geometry": {"type": "Point", "coordinates": [-86.2141639492651, 12.1280176188577]}, "type": "Feature", "properties": {"name": null, "popupContent": "This is where the Rockies play!"}}, {"geometry": {"type": "Point", "coordinates": [-86.2141772443314, 12.1278806972404]}, "type": "Feature", "properties": {"name": "Mercado Iv\u00e1n Montenegro Sureste", "popupContent": "This is where the Rockies play!"}}, {"geometry": {"type": "Point", "coordinates": [-86.2128842991429, 12.1300826763909]}, "type": "Feature", "properties": {"name": null, "popupContent": "This is where the Rockies play!"}}, {"geometry": {"type": "Point", "coordinates": [-86.2128280646061, 12.1300834668237]}, "type": "Feature", "properties": {"name": "Am\u00e9ricas 3", "popupContent": "This is where the Rockies play!"}}, {"geometry": {"type": "Point", "coordinates": [-86.2129153808518, 12.1312048250906]}, "type": "Feature", "properties": {"name": null, "popupContent": "This is where the Rockies play!"}}, {"geometry": {"type": "Point", "coordinates": [-86.2128541157494, 12.1311929686486]}, "type": "Feature", "properties": {"name": "Farmacia Santa Luc\u00eda", "popupContent": "This is where the Rockies play!"}}, {"geometry": {"type": "Point", "coordinates": [-86.2120570405978, 12.1330249144153]}, "type": "Feature", "properties": {"name": null, "popupContent": "This is where the Rockies play!"}}, {"geometry": {"type": "Point", "coordinates": [-86.2120297318131, 12.1330179762486]}, "type": "Feature", "properties": {"name": "Tri\u00e1ngulo 9 Junio", "popupContent": "This is where the Rockies play!"}}, {"geometry": {"type": "Point", "coordinates": [-86.2169676810984, 12.1349930630295]}, "type": "Feature", "properties": {"name": "Colegio Miguel Larreynaga", "popupContent": "This is where the Rockies play!"}}, {"geometry": {"type": "Point", "coordinates": [-86.217016908776, 12.1349955221084]}, "type": "Feature", "properties": {"name": null, "popupContent": "This is where the Rockies play!"}}, {"geometry": {"type": "Point", "coordinates": [-86.2166786930715, 12.1372036779479]}, "type": "Feature", "properties": {"name": "Rafaela Herrera", "popupContent": "This is where the Rockies play!"}}, {"geometry": {"type": "Point", "coordinates": [-86.2167365445758, 12.1372267755319]}, "type": "Feature", "properties": {"name": null, "popupContent": "This is where the Rockies play!"}}, {"geometry": {"type": "Point", "coordinates": [-86.2166245246599, 12.1412128791545]}, "type": "Feature", "properties": {"name": "Maderas Pablo", "popupContent": "This is where the Rockies play!"}}, {"geometry": {"type": "Point", "coordinates": [-86.2166428502917, 12.1411870594278]}, "type": "Feature", "properties": {"name": null, "popupContent": "This is where the Rockies play!"}}, {"geometry": {"type": "Point", "coordinates": [-86.2205863645574, 12.1419517262579]}, "type": "Feature", "properties": {"name": "Pulper\u00eda El Manguito", "popupContent": "This is where the Rockies play!"}}, {"geometry": {"type": "Point", "coordinates": [-86.2205851967476, 12.1419049171536]}, "type": "Feature", "properties": {"name": null, "popupContent": "This is where the Rockies play!"}}, {"geometry": {"type": "Point", "coordinates": [-86.2272146737128, 12.1446949186073]}, "type": "Feature", "properties": {"name": "Santa Rosa", "popupContent": "This is where the Rockies play!"}}, {"geometry": {"type": "Point", "coordinates": [-86.2272619250968, 12.1446447727848]}, "type": "Feature", "properties": {"name": null, "popupContent": "This is where the Rockies play!"}}, {"geometry": {"type": "Point", "coordinates": [-86.229727171731, 12.1453505897356]}, "type": "Feature", "properties": {"name": "Iglesia Pio X", "popupContent": "This is where the Rockies play!"}}, {"geometry": {"type": "Point", "coordinates": [-86.2297472939934, 12.1452661060832]}, "type": "Feature", "properties": {"name": null, "popupContent": "This is where the Rockies play!"}}, {"geometry": {"type": "Point", "coordinates": [-86.2319448426729, 12.1454589606184]}, "type": "Feature", "properties": {"name": null, "popupContent": "This is where the Rockies play!"}}, {"geometry": {"type": "Point", "coordinates": [-86.2319318171013, 12.1455631160607]}, "type": "Feature", "properties": {"name": "Parque Amistad", "popupContent": "This is where the Rockies play!"}}, {"geometry": {"type": "Point", "coordinates": [-86.2378889949079, 12.1464725863024]}, "type": "Feature", "properties": {"name": "EL Colonial", "popupContent": "This is where the Rockies play!"}}, {"geometry": {"type": "Point", "coordinates": [-86.2378934864843, 12.1464472940086]}, "type": "Feature", "properties": {"name": null, "popupContent": "This is where the Rockies play!"}}, {"geometry": {"type": "Point", "coordinates": [-86.2426251825804, 12.1462691940383]}, "type": "Feature", "properties": {"name": "Sellos de Hule", "popupContent": "This is where the Rockies play!"}}, {"geometry": {"type": "Point", "coordinates": [-86.2426312012928, 12.1462186094097]}, "type": "Feature", "properties": {"name": null, "popupContent": "This is where the Rockies play!"}}, {"geometry": {"type": "Point", "coordinates": [-86.2439466043633, 12.1472088720243]}, "type": "Feature", "properties": {"name": null, "popupContent": "This is where the Rockies play!"}}, {"geometry": {"type": "Point", "coordinates": [-86.2438881240383, 12.1472066765189]}, "type": "Feature", "properties": {"name": "Auto Servicios Pacheco", "popupContent": "This is where the Rockies play!"}}, {"geometry": {"type": "Point", "coordinates": [-86.2439211820408, 12.1505290702798]}, "type": "Feature", "properties": {"name": "Farmacia Potenza", "popupContent": "This is where the Rockies play!"}}, {"geometry": {"type": "Point", "coordinates": [-86.2439190260841, 12.1504999143297]}, "type": "Feature", "properties": {"name": null, "popupContent": "This is where the Rockies play!"}}, {"geometry": {"type": "Point", "coordinates": [-86.2459364625492, 12.1506277789546]}, "type": "Feature", "properties": {"name": "CECNA", "popupContent": "This is where the Rockies play!"}}, {"geometry": {"type": "Point", "coordinates": [-86.2459448168813, 12.1505674472333]}, "type": "Feature", "properties": {"name": null, "popupContent": "This is where the Rockies play!"}}, {"geometry": {"type": "Point", "coordinates": [-86.2493990188118, 12.1486233885095]}, "type": "Feature", "properties": {"name": "Hospital Solidaridad", "popupContent": "This is where the Rockies play!"}}, {"geometry": {"type": "Point", "coordinates": [-86.2493429639381, 12.1486090738897]}, "type": "Feature", "properties": {"name": null, "popupContent": "This is where the Rockies play!"}}, {"geometry": {"type": "Point", "coordinates": [-86.2515319786224, 12.14513700939]}, "type": "Feature", "properties": {"name": "Profamilia", "popupContent": "This is where the Rockies play!"}}, {"geometry": {"type": "Point", "coordinates": [-86.2515240734479, 12.1451004758927]}, "type": "Feature", "properties": {"name": null, "popupContent": "This is where the Rockies play!"}}, {"geometry": {"type": "Point", "coordinates": [-86.2536352041971, 12.1453801853538]}, "type": "Feature", "properties": {"name": "Supermercado La Colonia", "popupContent": "This is where the Rockies play!"}}, {"geometry": {"type": "Point", "coordinates": [-86.253604571646, 12.1453694712135]}, "type": "Feature", "properties": {"name": null, "popupContent": "This is where the Rockies play!"}}, {"geometry": {"type": "Point", "coordinates": [-86.2561481513729, 12.1444066897756]}, "type": "Feature", "properties": {"name": "Boutique Inter Fashion", "popupContent": "This is where the Rockies play!"}}, {"geometry": {"type": "Point", "coordinates": [-86.2561387190624, 12.1443662920472]}, "type": "Feature", "properties": {"name": null, "popupContent": "This is where the Rockies play!"}}, {"geometry": {"type": "Point", "coordinates": [-86.2608565811031, 12.145000272212]}, "type": "Feature", "properties": {"name": "Polic\u00eda Nacional Distrito IV", "popupContent": "This is where the Rockies play!"}}, {"geometry": {"type": "Point", "coordinates": [-86.260781931103, 12.1449878894583]}, "type": "Feature", "properties": {"name": null, "popupContent": "This is where the Rockies play!"}}, {"geometry": {"type": "Point", "coordinates": [-86.2633521907939, 12.1455354525197]}, "type": "Feature", "properties": {"name": "El Panal", "popupContent": "This is where the Rockies play!"}}, {"geometry": {"type": "Point", "coordinates": [-86.2633626112512, 12.1454997094641]}, "type": "Feature", "properties": {"name": null, "popupContent": "This is where the Rockies play!"}}, {"geometry": {"type": "Point", "coordinates": [-86.2667233883922, 12.1442184011808]}, "type": "Feature", "properties": {"name": "El Redentor", "popupContent": "This is where the Rockies play!"}}, {"geometry": {"type": "Point", "coordinates": [-86.2667467445896, 12.144153852588]}, "type": "Feature", "properties": {"name": null, "popupContent": "This is where the Rockies play!"}}, {"geometry": {"type": "Point", "coordinates": [-86.2736917098826, 12.145506910768]}, "type": "Feature", "properties": {"name": "Plaza Inter", "popupContent": "This is where the Rockies play!"}}, {"geometry": {"type": "Point", "coordinates": [-86.2737440816637, 12.1454628247333]}, "type": "Feature", "properties": {"name": null, "popupContent": "This is where the Rockies play!"}}, {"geometry": {"type": "Point", "coordinates": [-86.2779683194557, 12.1462022747879]}, "type": "Feature", "properties": {"name": "INSS", "popupContent": "This is where the Rockies play!"}}, {"geometry": {"type": "Point", "coordinates": [-86.2779940112728, 12.1461432593721]}, "type": "Feature", "properties": {"name": null, "popupContent": "This is where the Rockies play!"}}, {"geometry": {"type": "Point", "coordinates": [-86.2835525167564, 12.147228807213]}, "type": "Feature", "properties": {"name": "Estadio Cranshaw", "popupContent": "This is where the Rockies play!"}}, {"geometry": {"type": "Point", "coordinates": [-86.2835942884171, 12.1471582875742]}, "type": "Feature", "properties": {"name": null, "popupContent": "This is where the Rockies play!"}}, {"geometry": {"type": "Point", "coordinates": [-86.2874865088801, 12.1469283741018]}, "type": "Feature", "properties": {"name": "Licuados Amanda", "popupContent": "This is where the Rockies play!"}}, {"geometry": {"type": "Point", "coordinates": [-86.2874588407694, 12.1468737498633]}, "type": "Feature", "properties": {"name": null, "popupContent": "This is where the Rockies play!"}}, {"geometry": {"type": "Point", "coordinates": [-86.2891924994362, 12.1457332248193]}, "type": "Feature", "properties": {"name": "Budget", "popupContent": "This is where the Rockies play!"}}, {"geometry": {"type": "Point", "coordinates": [-86.2891199155613, 12.1456794785428]}, "type": "Feature", "properties": {"name": null, "popupContent": "This is where the Rockies play!"}}, {"geometry": {"type": "Point", "coordinates": [-86.2912516177305, 12.1441204805203]}, "type": "Feature", "properties": {"name": "Centro de Documentaci\u00f3n Hist\u00f3rico", "popupContent": "This is where the Rockies play!"}}, {"geometry": {"type": "Point", "coordinates": [-86.2912329327725, 12.1440720910147]}, "type": "Feature", "properties": {"name": null, "popupContent": "This is where the Rockies play!"}}, {"geometry": {"type": "Point", "coordinates": [-86.2926145416795, 12.1404221269349]}, "type": "Feature", "properties": {"name": "Pulper\u00eda Nanda", "popupContent": "This is where the Rockies play!"}}, {"geometry": {"type": "Point", "coordinates": [-86.2925562410176, 12.1404195800837]}, "type": "Feature", "properties": {"name": null, "popupContent": "This is where the Rockies play!"}}, {"geometry": {"type": "Point", "coordinates": [-86.2925271356024, 12.1378976584757]}, "type": "Feature", "properties": {"name": "Panader\u00eda Levi", "popupContent": "This is where the Rockies play!"}}, {"geometry": {"type": "Point", "coordinates": [-86.2924750333159, 12.1378938820743]}, "type": "Feature", "properties": {"name": null, "popupContent": "This is where the Rockies play!"}}, {"geometry": {"type": "Point", "coordinates": [-86.2928263644235, 12.135284200245]}, "type": "Feature", "properties": {"name": "Ferreter\u00eda Avil\u00e9s", "popupContent": "This is where the Rockies play!"}}, {"geometry": {"type": "Point", "coordinates": [-86.2927730044956, 12.1352870106178]}, "type": "Feature", "properties": {"name": null, "popupContent": "This is where the Rockies play!"}}, {"geometry": {"type": "Point", "coordinates": [-86.2954488162325, 12.1321448196961]}, "type": "Feature", "properties": {"name": "Pal\u00ed", "popupContent": "This is where the Rockies play!"}}, {"geometry": {"type": "Point", "coordinates": [-86.2954501637054, 12.1321005557995]}, "type": "Feature", "properties": {"name": null, "popupContent": "This is where the Rockies play!"}}, {"geometry": {"type": "Point", "coordinates": [-86.2971270488462, 12.1295972623998]}, "type": "Feature", "properties": {"name": "Colegio Madre del Divino Pastor", "popupContent": "This is where the Rockies play!"}}, {"geometry": {"type": "Point", "coordinates": [-86.2971301031182, 12.129552471124]}, "type": "Feature", "properties": {"name": null, "popupContent": "This is where the Rockies play!"}}, {"geometry": {"type": "Point", "coordinates": [-86.3003754467452, 12.1298115578115]}, "type": "Feature", "properties": {"name": "Bomberos Palo Alto", "popupContent": "This is where the Rockies play!"}}, {"geometry": {"type": "Point", "coordinates": [-86.3004207218355, 12.1297759004722]}, "type": "Feature", "properties": {"name": null, "popupContent": "This is where the Rockies play!"}}, {"geometry": {"type": "Point", "coordinates": [-86.301358383329, 12.1270858654236]}, "type": "Feature", "properties": {"name": null, "popupContent": "This is where the Rockies play!"}}, {"geometry": {"type": "Point", "coordinates": [-86.3014032990932, 12.1270763801235]}, "type": "Feature", "properties": {"name": "Mercado Israel Lewites Oeste", "popupContent": "This is where the Rockies play!"}}, {"geometry": {"type": "Point", "coordinates": [-86.3040412917566, 12.1244869684119]}, "type": "Feature", "properties": {"name": "Centro Comercial Nejapa", "popupContent": "This is where the Rockies play!"}}, {"geometry": {"type": "Point", "coordinates": [-86.3040087727433, 12.1244390144796]}, "type": "Feature", "properties": {"name": null, "popupContent": "This is where the Rockies play!"}}, {"geometry": {"type": "Point", "coordinates": [-86.3111127398416, 12.1229210836288]}, "type": "Feature", "properties": {"name": "7 Sur", "popupContent": "This is where the Rockies play!"}}, {"geometry": {"type": "Point", "coordinates": [-86.3111077991076, 12.1228487131636]}, "type": "Feature", "properties": {"name": null, "popupContent": "This is where the Rockies play!"}}, {"geometry": {"type": "Point", "coordinates": [-86.3143454172231, 12.1199605534758]}, "type": "Feature", "properties": {"name": "Puente", "popupContent": "This is where the Rockies play!"}}, {"geometry": {"type": "Point", "coordinates": [-86.3142836131315, 12.1199321846436]}, "type": "Feature", "properties": {"name": null, "popupContent": "This is where the Rockies play!"}}, {"geometry": {"type": "Point", "coordinates": [-86.3156187791383, 12.1131920862157]}, "type": "Feature", "properties": {"name": "Entrada a San Patricio", "popupContent": "This is where the Rockies play!"}}, {"geometry": {"type": "Point", "coordinates": [-86.3156194977905, 12.1132265161319]}, "type": "Feature", "properties": {"name": null, "popupContent": "This is where the Rockies play!"}}, {"geometry": {"type": "Point", "coordinates": [-86.313997409882, 12.1129660080328]}, "type": "Feature", "properties": {"name": "Parque", "popupContent": "This is where the Rockies play!"}}, {"geometry": {"type": "Point", "coordinates": [-86.3140046862358, 12.1130195852419]}, "type": "Feature", "properties": {"name": null, "popupContent": "This is where the Rockies play!"}}, {"geometry": {"type": "Point", "coordinates": [-86.3115766298544, 12.1131128622588]}, "type": "Feature", "properties": {"name": null, "popupContent": "This is where the Rockies play!"}}, {"geometry": {"type": "Point", "coordinates": [-86.3115678263646, 12.1130302128509]}, "type": "Feature", "properties": {"name": "Centro Kairos", "popupContent": "This is where the Rockies play!"}}, {"geometry": {"type": "Point", "coordinates": [-86.3077697493433, 12.1002572782206]}, "type": "Feature", "properties": {"name": null, "popupContent": "This is where the Rockies play!"}}, {"geometry": {"type": "Point", "coordinates": [-86.3078108023518, 12.1002607916477]}, "type": "Feature", "properties": {"name": "La Cooperativa", "popupContent": "This is where the Rockies play!"}}, {"geometry": {"type": "Point", "coordinates": [-86.3083603916426, 12.1029169293171]}, "type": "Feature", "properties": {"name": "Pre-escolar Hossana", "popupContent": "This is where the Rockies play!"}}, {"geometry": {"type": "Point", "coordinates": [-86.3083049655896, 12.1029350232861]}, "type": "Feature", "properties": {"name": null, "popupContent": "This is where the Rockies play!"}}, {"geometry": {"type": "Point", "coordinates": [-86.3096695065062, 12.1063008315401]}, "type": "Feature", "properties": {"name": "Campo de b\u00e9isbol", "popupContent": "This is where the Rockies play!"}}, {"geometry": {"type": "Point", "coordinates": [-86.3096439943521, 12.1063178712757]}, "type": "Feature", "properties": {"name": null, "popupContent": "This is where the Rockies play!"}}, {"geometry": {"type": "Point", "coordinates": [-86.3071858444087, 12.0947301610349]}, "type": "Feature", "properties": {"name": "Plazoleta Camilo Ortega", "popupContent": "This is where the Rockies play!"}}, {"geometry": {"type": "Point", "coordinates": [-86.3071614102329, 12.0946966949475]}, "type": "Feature", "properties": {"name": null, "popupContent": "This is where the Rockies play!"}}, {"geometry": {"type": "Point", "coordinates": [-86.311235719204, 12.1083137964922]}, "type": "Feature", "properties": {"name": "Barrio Germ\u00e1n Pomares", "popupContent": "This is where the Rockies play!"}}, {"geometry": {"type": "Point", "coordinates": [-86.3112058053051, 12.1083290794389]}, "type": "Feature", "properties": {"name": null, "popupContent": "This is where the Rockies play!"}}]}