{"type": "FeatureCollection", "features": [{"geometry": {"type": "MultiLineString", "coordinates": [[[-86.2934806972765, 12.1633214620134], [-86.293534506362, 12.162623771731], [-86.293624607385, 12.1617882972834], [-86.2936317040758, 12.1617234016914], [-86.2936755418616, 12.16132586096], [-86.293727284822, 12.1608554326025], [-86.2938252910195, 12.1600638605888], [-86.2938397538955, 12.1599475043974], [-86.2939165598523, 12.1597781950711], [-86.2938138824154, 12.1597477228935], [-86.2929311079857, 12.1597554507083], [-86.2930098004045, 12.1590619662509], [-86.2930316294659, 12.1588701753714], [-86.2930592975767, 12.1585319943214], [-86.2931235271195, 12.1577488457983], [-86.2923352554577, 12.1577105576975], [-86.2921815537126, 12.1577031810903], [-86.2920779779603, 12.1576980877185], [-86.2913332745898, 12.1576619950295], [-86.2913031810278, 12.1576605021445], [-86.290453195106, 12.1576192282604], [-86.2896952865007, 12.1575824330264], [-86.2895583832514, 12.1575765493011], [-86.2892261862594, 12.1575625864302], [-86.2885393343931, 12.1575336947014], [-86.2874272200714, 12.1574868883377], [-86.2874280285551, 12.1574647584968], [-86.2874212911905, 12.1574441215403], [-86.2874075469667, 12.157426470355], [-86.2873884128511, 12.1574147028975], [-86.2873663142951, 12.1574098729708], [-86.2873466411904, 12.157412068392], [-86.2873262494334, 12.157421376978], [-86.2873102594214, 12.1574370083762], [-86.2873007372794, 12.1574570306154], [-86.2872984914912, 12.1574759112343], [-86.2867830381811, 12.1574479854812], [-86.2862267115257, 12.1574178643041], [-86.2850509964818, 12.1573923974169], [-86.2841927460594, 12.1573335601166], [-86.2839237904633, 12.1573238124432], [-86.2835185604387, 12.1573089713902], [-86.2830426330011, 12.1572916714635], [-86.282563202134, 12.1572617259024], [-86.2821105410623, 12.1572333610423], [-86.2821278785473, 12.1570514043447], [-86.2821634518326, 12.1566814311969], [-86.2821928267423, 12.1563753006408], [-86.2822310949734, 12.1559305940075], [-86.282250049426, 12.1557114896562], [-86.2822615478616, 12.1556029473136], [-86.2822867905211, 12.1553642593849], [-86.2823472471397, 12.1547606010259], [-86.2820500844437, 12.1547452329235], [-86.2815998488233, 12.154717570337], [-86.2814103042983, 12.1547003580594], [-86.2805804406389, 12.154664177146], [-86.2796805083872, 12.1546242200635], [-86.2788312411176, 12.154587863504], [-86.2785105425612, 12.1545644161551], [-86.278264853331, 12.1545544927446], [-86.2776522023072, 12.1545115498402], [-86.2771993615725, 12.1544703632853], [-86.2767793093457, 12.154419516762], [-86.2766424060964, 12.1544036217329], [-86.2762433744471, 12.1543570782719], [-86.2741203859362, 12.1541244486629], [-86.2737957347925, 12.1541147886898], [-86.2734971347921, 12.1540988936425], [-86.2728985873183, 12.154059199929], [-86.2726146298569, 12.1540403190676], [-86.2725313560301, 12.1540378601646], [-86.2720081772086, 12.1540262681931], [-86.2716329509145, 12.1540172229423], [-86.2715168885798, 12.154020999115], [-86.270969185751, 12.1540557750286], [-86.2706404921886, 12.1540606928342], [-86.2702225959184, 12.1540809787814], [-86.269922648445, 12.1540715822606], [-86.2698533883366, 12.1540725482581], [-86.2695914395998, 12.1540653471859], [-86.2685546939304, 12.1539629514308], [-86.2679130273229, 12.1539034108279], [-86.2675931372502, 12.1538760116079], [-86.2671579933266, 12.1538313122333], [-86.2670770551195, 12.1538229695201], [-86.2667092848422, 12.1537867006692], [-86.2664803042763, 12.153762199433], [-86.2659706900156, 12.153703624784], [-86.2648600129983, 12.1535942912591], [-86.2642636214812, 12.1535783961806], [-86.2637749379666, 12.1536178265116], [-86.2632883205772, 12.153696687156], [-86.2628219152817, 12.1537722985092], [-86.2625332865809, 12.1538338589562], [-86.2621789910329, 12.153895682843], [-86.26184733303, 12.1538198958889], [-86.261000042054, 12.1537409474629], [-86.2609623128121, 12.1537375225585], [-86.260136940729, 12.1536636675572], [-86.2592886616062, 12.1535864754471], [-86.2585410836268, 12.153513322949]], [[-86.2585333581153, 12.1536475968467], [-86.2585410836268, 12.153513322949]], [[-86.2585410836268, 12.153513322949], [-86.2586836462624, 12.1527399953102], [-86.2587280230374, 12.1524993728064], [-86.2588224359737, 12.151920472811], [-86.2586677460818, 12.1519101102086], [-86.2578003328435, 12.1518518864265], [-86.2575845575122, 12.1518418750962], [-86.2568725528181, 12.1518088552672], [-86.2562528949351, 12.1517745181534], [-86.2558612294712, 12.1517526512934], [-86.2549150339824, 12.1516917050961], [-86.2549427919247, 12.1510393867084], [-86.2549735143074, 12.1503041654133], [-86.2549804313351, 12.1501387139962], [-86.2540370206237, 12.1500856711634], [-86.2532279080473, 12.1500401807786], [-86.2532695898765, 12.1488750797964], [-86.2533134276624, 12.1481663741339], [-86.2533499890944, 12.1475754333599], [-86.2533640028129, 12.1471466074828], [-86.2533897844615, 12.1466682502163], [-86.2534028998647, 12.1462806985272], [-86.2534112541968, 12.146145103604], [-86.2534354188779, 12.1459895733318], [-86.2534536546782, 12.1458725962406], [-86.2534884194797, 12.1457377914959], [-86.2535364793474, 12.1455517871823], [-86.2532809086491, 12.145471431171], [-86.2532421014288, 12.1454592240808], [-86.2530812131614, 12.1454085514774], [-86.2529716186968, 12.1453764968793], [-86.2526417573244, 12.1452750638106], [-86.2521434618363, 12.1451244510008], [-86.2518946285026, 12.1450795745145], [-86.2517844950488, 12.1450410211279], [-86.2515372786826, 12.1450177485797], [-86.2514319961313, 12.1450116011138], [-86.2512804503429, 12.1450354884091], [-86.2511571116544, 12.1450275845248], [-86.2510924329539, 12.1450073857085], [-86.2509928996204, 12.1449440668006], [-86.2509288497407, 12.1448631836798], [-86.250884203471, 12.1447152930894], [-86.2509204954085, 12.1443379258126], [-86.250928400583, 12.1442467674282], [-86.2509356769368, 12.1441627225316], [-86.2509548110524, 12.1439435206704], [-86.2509987386698, 12.1435340096584], [-86.2510208372258, 12.1433281561475], [-86.251053176576, 12.1430317584281], [-86.2511351029299, 12.142172949662], [-86.2506456109316, 12.142128248322], [-86.250216755215, 12.1420890797547], [-86.2500262225432, 12.1420745891398], [-86.2494457312066, 12.1420305903587], [-86.2493326333123, 12.1420219838099], [-86.2484829168851, 12.1419381138551], [-86.247701921577, 12.1418709300502], [-86.2467904010582, 12.1417954031382], [-86.2456804426932, 12.1417553563018], [-86.245233979997, 12.1417392848723], [-86.2450668933541, 12.1417366502117], [-86.2447493389012, 12.141711533112], [-86.2445518892018, 12.141686328188], [-86.2443888449777, 12.1416360061549], [-86.2442538281905, 12.1415964862269], [-86.2439767877569, 12.1414848643542], [-86.2437451122451, 12.1413842202022], [-86.2435700305962, 12.1413020186677], [-86.2435305047237, 12.1412834881901], [-86.2434577411857, 12.1412581954034], [-86.2434067168775, 12.1412395771005], [-86.2430707469613, 12.141143411789], [-86.2427690926889, 12.1410966025426], [-86.2426640796322, 12.1410867664523], [-86.2425596055646, 12.1410786868064], [-86.242424678609, 12.1410735931165], [-86.2421501534581, 12.1410547991562], [-86.2420267249381, 12.1410455778201], [-86.2415907725307, 12.1410131714077], [-86.2413671818565, 12.1409965729998], [-86.2411852730115, 12.1409830483704], [-86.2410867278248, 12.140848416795], [-86.2407910922648, 12.1404685850101], [-86.2405880730106, 12.1402393683414], [-86.2405197112175, 12.1401621723384], [-86.2404503612775, 12.1400804973622], [-86.2399109229494, 12.1394410604727], [-86.2397204801092, 12.1392257189305], [-86.2390109008662, 12.1384505055017], [-86.2389424492416, 12.1383900831979], [-86.2390391977977, 12.137590188966], [-86.2390566251142, 12.1374270130581], [-86.2390755795667, 12.1372489948788], [-86.2391344192178, 12.1366971992436], [-86.239233054236, 12.135816326237], [-86.2393269281832, 12.135032496113], [-86.2393413012278, 12.1349431788533], [-86.2393706761375, 12.1346554664152], [-86.2393835220461, 12.1345502528148], [-86.2396429555002, 12.1324160237274], [-86.2397022443089, 12.1319278035773], [-86.2397698874498, 12.1315017629206], [-86.2404337424448, 12.1315068567936], [-86.2406017274029, 12.1315086133015], [-86.2412631569466, 12.1315152880313], [-86.2413491257193, 12.1315152002059], [-86.2420357979225, 12.1315141463012], [-86.242600119584, 12.1315072959206], [-86.2432319047233, 12.1314459059628], [-86.243510831619, 12.1314561815361], [-86.244552607854, 12.1315802788133], [-86.2445646452788, 12.131407965381], [-86.2445825217529, 12.1311517784869], [-86.2446575310792, 12.1307467269199], [-86.2449962857728, 12.1302195968774], [-86.2452020898044, 12.1299389054131], [-86.2452469157371, 12.129877778572], [-86.2453520186253, 12.1297349735694], [-86.2455368919108, 12.1294838789791], [-86.2456036367364, 12.1294460259441], [-86.2455647396846, 12.1294137937732], [-86.2454020547867, 12.1292781902648], [-86.2443747414277, 12.1284621964532], [-86.2440835974441, 12.1282349894657], [-86.243980381018, 12.1281569117202], [-86.2437058558672, 12.1279492019711], [-86.2429359996687, 12.1273668233719], [-86.2427216616419, 12.1272045194729], [-86.2417126739148, 12.1264412155582], [-86.2414219790888, 12.126221296501], [-86.2409295226501, 12.1258486457036], [-86.2404595240934, 12.1254788926891], [-86.2404279932269, 12.1253214181498], [-86.240477131073, 12.1251736045406], [-86.2406980268014, 12.1249680881564], [-86.241139458932, 12.1246097515179], [-86.2416893177174, 12.1241634109434], [-86.2422279475617, 12.1237407831702], [-86.2422617242164, 12.1236697303471], [-86.2422703480431, 12.123595427869], [-86.2422620835425, 12.1235461563562], [-86.2421664129648, 12.1234275885073], [-86.2418772452748, 12.1230691619709], [-86.2421036207264, 12.1228879723869], [-86.2425596055646, 12.1225075002083], [-86.2430119073102, 12.1221351955359], [-86.2435339183218, 12.1217249483844], [-86.2439096836051, 12.1221445053548], [-86.243090420066, 12.1228488888201], [-86.24249762181, 12.1233505632912], [-86.2422620835425, 12.1235461563562], [-86.2415558280662, 12.1241328468626], [-86.2410761277044, 12.1245379084771], [-86.2406469126617, 12.1248906242474], [-86.2400031799291, 12.1254187309269], [-86.239811748942, 12.1255791037111], [-86.2385494363048, 12.1266065060401], [-86.2382878468941, 12.1268139533543], [-86.2379829586866, 12.1270177117785], [-86.237585723668, 12.127230955342], [-86.2370029865432, 12.127428214269], [-86.2365103504414, 12.1275920989121], [-86.2363562893701, 12.1276416331574], [-86.235949622041, 12.1277578278138], [-86.2348949998975, 12.1280749695848], [-86.2346441004386, 12.1281505003858], [-86.2341246047098, 12.128313594147], [-86.2337497377417, 12.1284353215741], [-86.2329968597021, 12.1286966928317], [-86.2329775459235, 12.1287030163267], [-86.2326414861757, 12.1288126235494], [-86.2323445929743, 12.1289245142094], [-86.2323161163798, 12.1289440116352], [-86.2321582823844, 12.1289642994956], [-86.2319506817222, 12.1290927014162], [-86.2318623773298, 12.129190100643], [-86.2316353730575, 12.1294523494213], [-86.2315045783521, 12.129625805856], [-86.2313151236587, 12.1299254680484], [-86.231199061324, 12.130139324067], [-86.2310968330447, 12.1302599089251]], [[-86.2303061359316, 12.1302089699531], [-86.2299608235364, 12.1301408171064], [-86.2295648461591, 12.1300355138979], [-86.2290433741367, 12.1298978907095], [-86.2286868328004, 12.1298242925744], [-86.228317176061, 12.1297818726378], [-86.227197695554, 12.1296305484607], [-86.2270244105356, 12.1296064841322], [-86.2265031181763, 12.1295327102646], [-86.2264447276828, 12.1295284067884], [-86.2257039768995, 12.1294666650706], [-86.2254347518089, 12.1294320615981], [-86.2252515853224, 12.1294161650775], [-86.2251056989203, 12.1293941207296], [-86.2249952959719, 12.1292305884987], [-86.2248229092689, 12.1292023084787], [-86.2247602966936, 12.1291920328185], [-86.2246782805081, 12.1293257041962], [-86.2246256392325, 12.1293170094109], [-86.2244209131792, 12.1292825815712], [-86.2234078830333, 12.129127919716], [-86.2226709950058, 12.1290588005047], [-86.2222048592048, 12.1290162047938], [-86.222109008964, 12.1290070708673], [-86.2219139847158, 12.1289874856199], [-86.2218502941622, 12.1289826551775], [-86.2215534907923, 12.1289557803509], [-86.2211122383247, 12.1289270611705], [-86.2209633874822, 12.1289174002835], [-86.2206825741244, 12.1288991324233], [-86.2201222948816, 12.1288625966993], [-86.2195619258074, 12.1287689738836], [-86.2194162190683, 12.128745699914], [-86.2191872385024, 12.1287125015689], [-86.2185048782126, 12.1285952534124], [-86.2184377740609, 12.1285835725071], [-86.2182463430738, 12.1285518671901], [-86.2177802971044, 12.1284746678013], [-86.2175132279705, 12.1284304911217], [-86.2174056996309, 12.1284126623603], [-86.2171198557076, 12.128365323919], [-86.2169765744197, 12.1283439820958], [-86.2163967119038, 12.1282518521479], [-86.2156927022157, 12.1281833474949], [-86.2150460050426, 12.1281114175903], [-86.2149011067873, 12.1280904270528], [-86.2142774963171, 12.1280277189101], [-86.214269321648, 12.1280269284712], [-86.2141638594336, 12.1280176188577], [-86.2132783900581, 12.127927157502], [-86.2130530027533, 12.1278975599449], [-86.2123559999243, 12.1278061324557], [-86.2119668497432, 12.1277552808415], [-86.2118731554591, 12.1277430729396], [-86.2114020789241, 12.1276835264747], [-86.2105787729662, 12.1275360654817], [-86.2102859221836, 12.1274815250937], [-86.2101857600294, 12.1274651014965], [-86.2101119185131, 12.1274528935813], [-86.2097241158049, 12.1273899218084], [-86.2096243129769, 12.1273765721419], [-86.2095423866229, 12.127365681624], [-86.2088855384872, 12.1272651199662], [-86.2087747762127, 12.1272481693948], [-86.2084015262121, 12.1271909941435], [-86.2081500877641, 12.1271525259952], [-86.2077586917948, 12.1270684757066], [-86.2075677997969, 12.1270275483882], [-86.2074182303021, 12.1269954915786], [-86.2073000120107, 12.1269701096089], [-86.2069206534662, 12.1268356466078], [-86.2064854197111, 12.1266815102951], [-86.2052291257862, 12.1262163781813], [-86.2048529113452, 12.1260512631119], [-86.2046647142932, 12.1259687933661], [-86.2045048141727, 12.125898619409], [-86.2043844399246, 12.1258457474041], [-86.2042292110435, 12.126074186008], [-86.2039132735581, 12.1265604846835], [-86.2033758115236, 12.1273879896198], [-86.2031507835449, 12.1277344659293], [-86.2028945840259, 12.1281288950658], [-86.2026251792722, 12.1285436115113], [-86.2018299905827, 12.1297678204833], [-86.2017869612805, 12.1298342169065], [-86.201502285167, 12.1302775619114], [-86.2013803837829, 12.130467616874], [-86.201288755624, 12.1306136710345], [-86.2001455595934, 12.1322292196849], [-86.2000069495451, 12.1324320957193], [-86.1996355860066, 12.1330167467], [-86.1992073591107, 12.1336909775816], [-86.1990963273416, 12.1338596887285], [-86.198900045452, 12.1341566236007], [-86.1987615252352, 12.1342426037933], [-86.1986190524311, 12.134276064923], [-86.1984798135621, 12.1342593782709], [-86.1983898922021, 12.1342508592955], [-86.1983226083874, 12.1342082644143], [-86.1982202902765, 12.1341547792858], [-86.1979120783025, 12.1339935334146], [-86.1978501843794, 12.1339720163928], [-86.1976281208412, 12.1338920960111], [-86.197219746713, 12.1337786265926], [-86.196286936122, 12.1336630493335], [-86.1959781851589, 12.1336326619911], [-86.195469559045, 12.1335826019108], [-86.1946472412339, 12.1335030327112], [-86.1944523068172, 12.1334826573715], [-86.1944488033876, 12.1336149214023], [-86.1944207759508, 12.1346662688109], [-86.1944130504393, 12.1349568794379]]]}, "type": "Feature", "properties": {"name": "159"}}, {"geometry": {"type": "Point", "coordinates": [-86.2096244028084, 12.1273765721419]}, "type": "Feature", "properties": {"name": null, "popupContent": "This is where the Rockies play!"}}, {"geometry": {"type": "Point", "coordinates": [-86.293480787108, 12.1633214620134]}, "type": "Feature", "properties": {"name": null, "popupContent": "This is where the Rockies play!"}}, {"geometry": {"type": "Point", "coordinates": [-86.2935233672525, 12.1633231304964]}, "type": "Feature", "properties": {"name": "Pulper\u00eda Karla", "popupContent": "This is where the Rockies play!"}}, {"geometry": {"type": "Point", "coordinates": [-86.2937062642443, 12.1613287588734]}, "type": "Feature", "properties": {"name": "Huellas de Acahualinca", "popupContent": "This is where the Rockies play!"}}, {"geometry": {"type": "Point", "coordinates": [-86.2936756316931, 12.16132586096]}, "type": "Feature", "properties": {"name": null, "popupContent": "This is where the Rockies play!"}}, {"geometry": {"type": "Point", "coordinates": [-86.2938564625598, 12.1600671975958]}, "type": "Feature", "properties": {"name": "Parque Acahualinca", "popupContent": "This is where the Rockies play!"}}, {"geometry": {"type": "Point", "coordinates": [-86.293825380851, 12.1600638605888]}, "type": "Feature", "properties": {"name": null, "popupContent": "This is where the Rockies play!"}}, {"geometry": {"type": "Point", "coordinates": [-86.2930593874082, 12.1585319943214]}, "type": "Feature", "properties": {"name": null, "popupContent": "This is where the Rockies play!"}}, {"geometry": {"type": "Point", "coordinates": [-86.2930936132205, 12.1585355069805]}, "type": "Feature", "properties": {"name": "Pulper\u00eda La Providencia", "popupContent": "This is where the Rockies play!"}}, {"geometry": {"type": "Point", "coordinates": [-86.2923353452892, 12.1577105576975]}, "type": "Feature", "properties": {"name": null, "popupContent": "This is where the Rockies play!"}}, {"geometry": {"type": "Point", "coordinates": [-86.2923354351208, 12.1576144861541]}, "type": "Feature", "properties": {"name": "Mercado Oriental II", "popupContent": "This is where the Rockies play!"}}, {"geometry": {"type": "Point", "coordinates": [-86.2895599103874, 12.1574845172834]}, "type": "Feature", "properties": {"name": "Iglesia Santa Ana Norte", "popupContent": "This is where the Rockies play!"}}, {"geometry": {"type": "Point", "coordinates": [-86.289558473083, 12.1575765493011]}, "type": "Feature", "properties": {"name": null, "popupContent": "This is where the Rockies play!"}}, {"geometry": {"type": "Point", "coordinates": [-86.2867833975072, 12.1573982811462]}, "type": "Feature", "properties": {"name": "Pal\u00ed", "popupContent": "This is where the Rockies play!"}}, {"geometry": {"type": "Point", "coordinates": [-86.2867831280127, 12.1574479854812]}, "type": "Feature", "properties": {"name": null, "popupContent": "This is where the Rockies play!"}}, {"geometry": {"type": "Point", "coordinates": [-86.2839238802949, 12.1573238124432]}, "type": "Feature", "properties": {"name": null, "popupContent": "This is where the Rockies play!"}}, {"geometry": {"type": "Point", "coordinates": [-86.2838972003309, 12.1572300239998]}, "type": "Feature", "properties": {"name": "Ferreter\u00eda El Serrucho", "popupContent": "This is where the Rockies play!"}}, {"geometry": {"type": "Point", "coordinates": [-86.2821685722297, 12.1570479794829]}, "type": "Feature", "properties": {"name": "Vulcanizaci\u00f3n", "popupContent": "This is where the Rockies play!"}}, {"geometry": {"type": "Point", "coordinates": [-86.2821279683788, 12.1570514043447]}, "type": "Feature", "properties": {"name": null, "popupContent": "This is where the Rockies play!"}}, {"geometry": {"type": "Point", "coordinates": [-86.2815999386548, 12.154717570337]}, "type": "Feature", "properties": {"name": null, "popupContent": "This is where the Rockies play!"}}, {"geometry": {"type": "Point", "coordinates": [-86.281603711579, 12.1546533755616]}, "type": "Feature", "properties": {"name": "MITRAB", "popupContent": "This is where the Rockies play!"}}, {"geometry": {"type": "Point", "coordinates": [-86.2785106323927, 12.1545644161551]}, "type": "Feature", "properties": {"name": null, "popupContent": "This is where the Rockies play!"}}, {"geometry": {"type": "Point", "coordinates": [-86.2785172799258, 12.1545275326807]}, "type": "Feature", "properties": {"name": "Cafet\u00edn Do\u00f1a Chepita", "popupContent": "This is where the Rockies play!"}}, {"geometry": {"type": "Point", "coordinates": [-86.2728986771498, 12.154059199929]}, "type": "Feature", "properties": {"name": null, "popupContent": "This is where the Rockies play!"}}, {"geometry": {"type": "Point", "coordinates": [-86.2729057738405, 12.1539600534372]}, "type": "Feature", "properties": {"name": "Canciller\u00eda", "popupContent": "This is where the Rockies play!"}}, {"geometry": {"type": "Point", "coordinates": [-86.2632884104087, 12.153696687156]}, "type": "Feature", "properties": {"name": null, "popupContent": "This is where the Rockies play!"}}, {"geometry": {"type": "Point", "coordinates": [-86.2632648745483, 12.1536100985185]}, "type": "Feature", "properties": {"name": "Laboratorio Seprodi", "popupContent": "This is where the Rockies play!"}}, {"geometry": {"type": "Point", "coordinates": [-86.2667093746737, 12.1537867006692]}, "type": "Feature", "properties": {"name": null, "popupContent": "This is where the Rockies play!"}}, {"geometry": {"type": "Point", "coordinates": [-86.2667122492826, 12.1536967749741]}, "type": "Feature", "properties": {"name": "Instituto Loyola", "popupContent": "This is where the Rockies play!"}}, {"geometry": {"type": "Point", "coordinates": [-86.2587500317618, 12.1527529046135]}, "type": "Feature", "properties": {"name": "Llantera Vargas", "popupContent": "This is where the Rockies play!"}}, {"geometry": {"type": "Point", "coordinates": [-86.2586837360939, 12.1527399953102]}, "type": "Feature", "properties": {"name": null, "popupContent": "This is where the Rockies play!"}}, {"geometry": {"type": "Point", "coordinates": [-86.2586678359134, 12.1519101102086]}, "type": "Feature", "properties": {"name": null, "popupContent": "This is where the Rockies play!"}}, {"geometry": {"type": "Point", "coordinates": [-86.2586741241203, 12.1518577702784]}, "type": "Feature", "properties": {"name": "Panader\u00eda", "popupContent": "This is where the Rockies play!"}}, {"geometry": {"type": "Point", "coordinates": [-86.2562529847666, 12.1517745181534]}, "type": "Feature", "properties": {"name": null, "popupContent": "This is where the Rockies play!"}}, {"geometry": {"type": "Point", "coordinates": [-86.2562556797124, 12.151726217858]}, "type": "Feature", "properties": {"name": "Alcoh\u00f3licos An\u00f3nimos", "popupContent": "This is where the Rockies play!"}}, {"geometry": {"type": "Point", "coordinates": [-86.2550124113592, 12.1503068878084]}, "type": "Feature", "properties": {"name": "Bic", "popupContent": "This is where the Rockies play!"}}, {"geometry": {"type": "Point", "coordinates": [-86.2549736041389, 12.1503041654133]}, "type": "Feature", "properties": {"name": null, "popupContent": "This is where the Rockies play!"}}, {"geometry": {"type": "Point", "coordinates": [-86.2532421912603, 12.1454592240808]}, "type": "Feature", "properties": {"name": null, "popupContent": "This is where the Rockies play!"}}, {"geometry": {"type": "Point", "coordinates": [-86.253263211838, 12.1453930071933]}, "type": "Feature", "properties": {"name": "Gasolinera Uno", "popupContent": "This is where the Rockies play!"}}, {"geometry": {"type": "Point", "coordinates": [-86.2509877792233, 12.1441713290113]}, "type": "Feature", "properties": {"name": "Sal\u00f3n de Belleza Alma", "popupContent": "This is where the Rockies play!"}}, {"geometry": {"type": "Point", "coordinates": [-86.2509357667684, 12.1441627225316]}, "type": "Feature", "properties": {"name": null, "popupContent": "This is where the Rockies play!"}}, {"geometry": {"type": "Point", "coordinates": [-86.2500263123747, 12.1420745891398]}, "type": "Feature", "properties": {"name": null, "popupContent": "This is where the Rockies play!"}}, {"geometry": {"type": "Point", "coordinates": [-86.2500278395107, 12.1420060880404]}, "type": "Feature", "properties": {"name": "Infinitus", "popupContent": "This is where the Rockies play!"}}, {"geometry": {"type": "Point", "coordinates": [-86.2456805325247, 12.1417553563018]}, "type": "Feature", "properties": {"name": null, "popupContent": "This is where the Rockies play!"}}, {"geometry": {"type": "Point", "coordinates": [-86.2457119735597, 12.1417088106291]}, "type": "Feature", "properties": {"name": "Bar Neptuno", "popupContent": "This is where the Rockies play!"}}, {"geometry": {"type": "Point", "coordinates": [-86.2420268147696, 12.1410455778201]}, "type": "Feature", "properties": {"name": null, "popupContent": "This is where the Rockies play!"}}, {"geometry": {"type": "Point", "coordinates": [-86.2420297792101, 12.1409508175951]}, "type": "Feature", "properties": {"name": "Plaza El Ed\u00e9n", "popupContent": "This is where the Rockies play!"}}, {"geometry": {"type": "Point", "coordinates": [-86.2390891441275, 12.137429559938]}, "type": "Feature", "properties": {"name": "Pulper\u00eda Rosita", "popupContent": "This is where the Rockies play!"}}, {"geometry": {"type": "Point", "coordinates": [-86.2390567149457, 12.1374270130581]}, "type": "Feature", "properties": {"name": null, "popupContent": "This is where the Rockies play!"}}, {"geometry": {"type": "Point", "coordinates": [-86.2406015477398, 12.131541284346]}, "type": "Feature", "properties": {"name": "Don Bosco", "popupContent": "This is where the Rockies play!"}}, {"geometry": {"type": "Point", "coordinates": [-86.2406018172344, 12.1315086133015]}, "type": "Feature", "properties": {"name": null, "popupContent": "This is where the Rockies play!"}}, {"geometry": {"type": "Point", "coordinates": [-86.2446395647735, 12.1314150792405]}, "type": "Feature", "properties": {"name": "Farmacia San Miguel", "popupContent": "This is where the Rockies play!"}}, {"geometry": {"type": "Point", "coordinates": [-86.2445647351103, 12.131407965381]}, "type": "Feature", "properties": {"name": null, "popupContent": "This is where the Rockies play!"}}, {"geometry": {"type": "Point", "coordinates": [-86.2452429631498, 12.1299702592616]}, "type": "Feature", "properties": {"name": "Colegio Rep\u00fablica de Colombia", "popupContent": "This is where the Rockies play!"}}, {"geometry": {"type": "Point", "coordinates": [-86.2435109214505, 12.1314561815361]}, "type": "Feature", "properties": {"name": null, "popupContent": "This is where the Rockies play!"}}, {"geometry": {"type": "Point", "coordinates": [-86.2435084061677, 12.1314984255556]}, "type": "Feature", "properties": {"name": "Parque Colombia", "popupContent": "This is where the Rockies play!"}}, {"geometry": {"type": "Point", "coordinates": [-86.2452021796359, 12.1299389054131]}, "type": "Feature", "properties": {"name": null, "popupContent": "This is where the Rockies play!"}}, {"geometry": {"type": "Point", "coordinates": [-86.2417127637463, 12.1264412155582]}, "type": "Feature", "properties": {"name": null, "popupContent": "This is where the Rockies play!"}}, {"geometry": {"type": "Point", "coordinates": [-86.2417919053228, 12.126369724319]}, "type": "Feature", "properties": {"name": "Audi Huembes", "popupContent": "This is where the Rockies play!"}}, {"geometry": {"type": "Point", "coordinates": [-86.2430505348674, 12.1227913613126]}, "type": "Feature", "properties": {"name": "Mercado Roberto Huembes", "popupContent": "This is where the Rockies play!"}}, {"geometry": {"type": "Point", "coordinates": [-86.2430905098976, 12.1228488888201]}, "type": "Feature", "properties": {"name": null, "popupContent": "This is where the Rockies play!"}}, {"geometry": {"type": "Point", "coordinates": [-86.2422153711478, 12.1233820935705]}, "type": "Feature", "properties": {"name": "Fama", "popupContent": "This is where the Rockies play!"}}, {"geometry": {"type": "Point", "coordinates": [-86.2421665027963, 12.1234275885073]}, "type": "Feature", "properties": {"name": null, "popupContent": "This is where the Rockies play!"}}, {"geometry": {"type": "Point", "coordinates": [-86.2398118387736, 12.1255791037111]}, "type": "Feature", "properties": {"name": null, "popupContent": "This is where the Rockies play!"}}, {"geometry": {"type": "Point", "coordinates": [-86.2397519211441, 12.1255050652471]}, "type": "Feature", "properties": {"name": "Ferreter\u00eda Jenny", "popupContent": "This is where the Rockies play!"}}, {"geometry": {"type": "Point", "coordinates": [-86.234895089729, 12.1280749695848]}, "type": "Feature", "properties": {"name": null, "popupContent": "This is where the Rockies play!"}}, {"geometry": {"type": "Point", "coordinates": [-86.2348892506797, 12.1280422102889]}, "type": "Feature", "properties": {"name": "Colonia Nicarao", "popupContent": "This is where the Rockies play!"}}, {"geometry": {"type": "Point", "coordinates": [-86.2295649359907, 12.1300355138979]}, "type": "Feature", "properties": {"name": null, "popupContent": "This is where the Rockies play!"}}, {"geometry": {"type": "Point", "coordinates": [-86.2296061686622, 12.1299663949219]}, "type": "Feature", "properties": {"name": "Foto Estudio Garc\u00eda", "popupContent": "This is where the Rockies play!"}}, {"geometry": {"type": "Point", "coordinates": [-86.2248291076443, 12.1291331014605]}, "type": "Feature", "properties": {"name": "Conchita Palacios", "popupContent": "This is where the Rockies play!"}}, {"geometry": {"type": "Point", "coordinates": [-86.2248229991004, 12.1292023084787]}, "type": "Feature", "properties": {"name": null, "popupContent": "This is where the Rockies play!"}}, {"geometry": {"type": "Point", "coordinates": [-86.2219140745474, 12.1289874856199]}, "type": "Feature", "properties": {"name": null, "popupContent": "This is where the Rockies play!"}}, {"geometry": {"type": "Point", "coordinates": [-86.2219242255101, 12.1288759462914]}, "type": "Feature", "properties": {"name": "Primero de Mayo", "popupContent": "This is where the Rockies play!"}}, {"geometry": {"type": "Point", "coordinates": [-86.2195620156389, 12.1287689738836]}, "type": "Feature", "properties": {"name": null, "popupContent": "This is where the Rockies play!"}}, {"geometry": {"type": "Point", "coordinates": [-86.2196043262888, 12.1286691153657]}, "type": "Feature", "properties": {"name": "Frente a Telerepuestos Electr\u00f3nicos", "popupContent": "This is where the Rockies play!"}}, {"geometry": {"type": "Point", "coordinates": [-86.2141639492651, 12.1280176188577]}, "type": "Feature", "properties": {"name": null, "popupContent": "This is where the Rockies play!"}}, {"geometry": {"type": "Point", "coordinates": [-86.2141772443314, 12.1278806972404]}, "type": "Feature", "properties": {"name": "Mercado Iv\u00e1n Montenegro Sureste", "popupContent": "This is where the Rockies play!"}}, {"geometry": {"type": "Point", "coordinates": [-86.2096188332536, 12.1273063107285]}, "type": "Feature", "properties": {"name": "Colegio Inmaculada Concepci\u00f3n", "popupContent": "This is where the Rockies play!"}}, {"geometry": {"type": "Point", "coordinates": [-86.2075678896285, 12.1270275483882]}, "type": "Feature", "properties": {"name": null, "popupContent": "This is where the Rockies play!"}}, {"geometry": {"type": "Point", "coordinates": [-86.2075934017825, 12.1269305875059]}, "type": "Feature", "properties": {"name": "El Madro\u00f1o", "popupContent": "This is where the Rockies play!"}}, {"geometry": {"type": "Point", "coordinates": [-86.2039133633896, 12.1265604846835]}, "type": "Feature", "properties": {"name": null, "popupContent": "This is where the Rockies play!"}}, {"geometry": {"type": "Point", "coordinates": [-86.2038353896229, 12.1265252660445]}, "type": "Feature", "properties": {"name": "Petrogas", "popupContent": "This is where the Rockies play!"}}, {"geometry": {"type": "Point", "coordinates": [-86.2018300804142, 12.1297678204833]}, "type": "Feature", "properties": {"name": null, "popupContent": "This is where the Rockies play!"}}, {"geometry": {"type": "Point", "coordinates": [-86.2017680966596, 12.1297163544614]}, "type": "Feature", "properties": {"name": "Entrada a Laureles Norte", "popupContent": "This is where the Rockies play!"}}, {"geometry": {"type": "Point", "coordinates": [-86.1996356758381, 12.1330167467]}, "type": "Feature", "properties": {"name": null, "popupContent": "This is where the Rockies play!"}}, {"geometry": {"type": "Point", "coordinates": [-86.1995643496046, 12.1329838123616]}, "type": "Feature", "properties": {"name": "Durman Esquivel", "popupContent": "This is where the Rockies play!"}}, {"geometry": {"type": "Point", "coordinates": [-86.1978502742109, 12.1339720163928]}, "type": "Feature", "properties": {"name": null, "popupContent": "This is where the Rockies play!"}}, {"geometry": {"type": "Point", "coordinates": [-86.1978660845599, 12.133912120021]}, "type": "Feature", "properties": {"name": "Parque Concepci\u00f3n de Mar\u00eda", "popupContent": "This is where the Rockies play!"}}, {"geometry": {"type": "Point", "coordinates": [-86.1944131402709, 12.1349568794379]}, "type": "Feature", "properties": {"name": null, "popupContent": "This is where the Rockies play!"}}, {"geometry": {"type": "Point", "coordinates": [-86.1943968807642, 12.1349561768438]}, "type": "Feature", "properties": {"name": "Mercado Mayoreo", "popupContent": "This is where the Rockies play!"}}]}