{"type": "FeatureCollection", "features": [{"geometry": {"type": "MultiLineString", "coordinates": [[[-86.2456099249434, 12.123845649725], [-86.245809620431, 12.1240626724223], [-86.2459126571941, 12.1242053926349], [-86.2459661967851, 12.1243050771689], [-86.2459837139331, 12.1244440206598], [-86.2459809291557, 12.1246578810748], [-86.2459113995527, 12.1250063809648], [-86.2457997389629, 12.1254887293555], [-86.2457171837883, 12.1255448510435], [-86.2456313946787, 12.1256367184447], [-86.2456019299374, 12.125741584254], [-86.2455548582165, 12.1259835483385], [-86.245483891309, 12.1263474162381], [-86.2454662843295, 12.1265524924242], [-86.2454375382404, 12.1266018512086], [-86.245317792813, 12.1267569536638], [-86.2451767573134, 12.1269151299706], [-86.2450433574937, 12.1270428302632], [-86.2448258753634, 12.1272335023192], [-86.2445135311391, 12.1275619743577], [-86.2441229436536, 12.1279974187518], [-86.243980381018, 12.1281569117202], [-86.2439741826425, 12.1282297198773], [-86.2439789437135, 12.1282448260304], [-86.2440074203081, 12.1283352872784], [-86.2442977558079, 12.1285566098139], [-86.24481509558, 12.1289441872877], [-86.245510750936, 12.1294651720275], [-86.2455368919108, 12.1294838789791], [-86.2457168244622, 12.1296178136886], [-86.2465509102035, 12.1302873984008], [-86.2469873117685, 12.130636681364], [-86.2475254026237, 12.1310996101279], [-86.2477772902294, 12.1313163634447], [-86.2480264828892, 12.1315822987968], [-86.2482812451038, 12.1318984699402], [-86.2483485289186, 12.1319947264138], [-86.2488427819879, 12.1327443137302], [-86.2490264874635, 12.1330812979915], [-86.2492405559957, 12.1334739627217], [-86.2493488928189, 12.1336682309898], [-86.2496752507617, 12.1342687754909], [-86.2499802288006, 12.134830149004], [-86.2504376509433, 12.1357940189465], [-86.2506432753118, 12.1362283081822], [-86.2507840413169, 12.1365253282386], [-86.2508374012448, 12.1366447684991], [-86.2509497804868, 12.1369067464713], [-86.2510049370452, 12.1370197754397], [-86.2511391453487, 12.137207103065], [-86.2512332887904, 12.1372539129949], [-86.2514376555176, 12.1371424649495], [-86.2516781345192, 12.1369936040123], [-86.252298960212, 12.13662369081], [-86.2526274741114, 12.1364210814381], [-86.2528870872285, 12.1362524597367], [-86.2529489811516, 12.1363235092062], [-86.2529972206823, 12.136372954005], [-86.2530221938472, 12.1363830537408], [-86.253708955882, 12.1364916917438], [-86.2536405042573, 12.1367963521644], [-86.2536357431863, 12.1368176933109], [-86.2536246040768, 12.1368672258416], [-86.2536068174342, 12.1369462670951], [-86.2535482472776, 12.1372078056531], [-86.2534918330778, 12.1375540935504], [-86.2534480851235, 12.1378225695536], [-86.2533449585288, 12.1384558627111], [-86.2538131604549, 12.1385424562778], [-86.2542895370501, 12.1386307184543], [-86.2550960445122, 12.1387799297686], [-86.2557661877141, 12.138904111458], [-86.256410639099, 12.1390231115375], [-86.2566678267648, 12.1390639491908], [-86.2570567074513, 12.1391258643308], [-86.2577299947567, 12.1392337986326], [-86.2584037312198, 12.139341557245], [-86.2590508775505, 12.139445275966], [-86.259370228634, 12.139496388818], [-86.2595021911492, 12.1400397476872], [-86.2595355186463, 12.1402116164248], [-86.2595663308605, 12.1404193166163], [-86.2596153788751, 12.1407508461847], [-86.2596875135924, 12.1411084585439], [-86.2597304530629, 12.1415722473348], [-86.2597756383217, 12.1421515211228], [-86.2597818366972, 12.1422991496717], [-86.2597869570943, 12.1429239134871], [-86.2605159399474, 12.1430198146908], [-86.2606781756877, 12.1430411553386], [-86.2607922617288, 12.1437593593517], [-86.2609714756279, 12.1437853544717], [-86.2612407007186, 12.1437763088728], [-86.2613175965069, 12.1437709517704], [-86.2619631258701, 12.1434925579403], [-86.2619863024044, 12.1440632210681], [-86.2624363583618, 12.1439495803396], [-86.2627003732238, 12.143930698761], [-86.2629665440424, 12.1439476482712], [-86.2631401883869, 12.1439580111836], [-86.2635961732251, 12.1440639236381], [-86.2634978077015, 12.144441115661], [-86.2632210367624, 12.1455028710122], [-86.2633625214197, 12.1454997094641]], [[-86.2455778550878, 12.1238108698672], [-86.2453117741006, 12.123550811241], [-86.2450972564108, 12.1233073518718], [-86.2449079813804, 12.123078910898], [-86.244856058757, 12.1230237548012], [-86.2447195148338, 12.1228794530481], [-86.2443410546046, 12.1224298599279], [-86.2442980253025, 12.122380412543], [-86.2441851070712, 12.1223485308317], [-86.2441077621253, 12.1223385183926], [-86.2440457783707, 12.1223422950144], [-86.2439633130276, 12.1223611781226], [-86.2438089824618, 12.1224320556375], [-86.2437692769262, 12.1224656060779], [-86.242682405264, 12.1233842014442], [-86.2425965263228, 12.1235346508857], [-86.2422558851671, 12.1238237805725], [-86.2419350967791, 12.1240877033575], [-86.2416893177174, 12.1241634109434], [-86.241139458932, 12.1246097515179], [-86.2406980268014, 12.1249680881564], [-86.240477131073, 12.1251736045406], [-86.2401638885334, 12.1254257571188], [-86.2401203202421, 12.1254627324507], [-86.2396078313725, 12.1258771895611], [-86.2390598590492, 12.1263204533188], [-86.2387521860644, 12.1265692673857], [-86.2383455187353, 12.1268982672039], [-86.2379949062799, 12.1271497155366], [-86.2374840343778, 12.1274010758055], [-86.2370815891305, 12.1275300932658], [-86.2363920423185, 12.1277472007914], [-86.2358623057954, 12.1279109095853], [-86.2353982361196, 12.1280545938302], [-86.2347333929779, 12.1282595808769], [-86.2346766194519, 12.1282778487808], [-86.2341162503777, 12.1284621964532], [-86.2341246047098, 12.128313594147], [-86.2342603401492, 12.1272308675152], [-86.2343578971891, 12.1263382822201], [-86.2344142215574, 12.1258916810568], [-86.2344718933986, 12.1254911006947], [-86.2334971314839, 12.125352509059], [-86.2333234871394, 12.1253278295523], [-86.2325024269697, 12.1252110190448], [-86.2321487602424, 12.1251606939006], [-86.2319864346705, 12.1251375952711], [-86.2317075077748, 12.1250978972414], [-86.2310185897834, 12.1249998817271], [-86.2310936889412, 12.1246536653475], [-86.2311180332854, 12.1245799779373], [-86.2311725610231, 12.1244147740271], [-86.231246492371, 12.1241881783856], [-86.2313210525396, 12.1238470549717], [-86.231339827329, 12.1237866293575], [-86.2315300905062, 12.1231664755697], [-86.2315814741405, 12.1230115466827], [-86.2316160592789, 12.1229050988918], [-86.2317033755245, 12.1226357295812], [-86.2317137959818, 12.1226037600721], [-86.2318259955608, 12.1222305772496], [-86.2319561614455, 12.122009249464], [-86.232136453323, 12.1217155507223], [-86.231763472817, 12.1214167575915], [-86.2315093394232, 12.1212132583747], [-86.2314496912883, 12.1211644255659], [-86.2312896115046, 12.1210368102877], [-86.2311805560292, 12.1209497718901], [-86.2311515404455, 12.1209265850671], [-86.2309253446569, 12.1207453940277], [-86.2301566562683, 12.1217364539329], [-86.2301651902635, 12.1218624879621], [-86.2297929284098, 12.1218165536155], [-86.2295377170376, 12.1217902050383], [-86.2294127613815, 12.1218060141849], [-86.2292334576508, 12.1219264271542], [-86.2291045494076, 12.1219634029712], [-86.2288638009114, 12.1219365274373], [-86.2285559482635, 12.1218694264191], [-86.2281837762413, 12.1217882728092], [-86.2275452537374, 12.121649064449], [-86.2273203155902, 12.1215916245114], [-86.2261489124597, 12.1212744750307], [-86.2256735240114, 12.1210831839127], [-86.2256367829163, 12.1210684286693], [-86.225351298319, 12.1209705873319], [-86.225269192302, 12.1209424820937], [-86.2248747420608, 12.1208608012284], [-86.2245349093888, 12.1207903624406], [-86.223359374008, 12.1204437014522], [-86.2228272120337, 12.1205024590723], [-86.2217672898299, 12.1206903252774], [-86.221768996629, 12.1207552308687], [-86.2217769018035, 12.1210577135515], [-86.2217382742463, 12.1213967326431], [-86.2216627259309, 12.1217144089502], [-86.2216488918755, 12.1217664913167], [-86.2215795419356, 12.122101820711], [-86.2215605874831, 12.1221932501557], [-86.2215046224409, 12.122476057654], [-86.2214678813457, 12.122632919075], [-86.2214182943421, 12.1228255265056], [-86.2213473274346, 12.1231013070806], [-86.2213309780964, 12.1231708669768], [-86.221249141574, 12.1235211253702], [-86.2212318939206, 12.1235623167108], [-86.2211643406112, 12.1238705050247], [-86.2211292164836, 12.1240098878813], [-86.2210807972898, 12.1242266469616], [-86.2210678615497, 12.1242550153371], [-86.2209568297806, 12.124497068598], [-86.2189312186464, 12.1246649072867], [-86.2187981781529, 12.1245061148513], [-86.2186116878999, 12.1244802056784], [-86.2185863554089, 12.12447669257], [-86.21789582045, 12.1243809603486], [-86.2178411130492, 12.1243990528628], [-86.2177934125076, 12.1244321639172], [-86.2177543357927, 12.1244866171011], [-86.2177518205099, 12.1245278961202], [-86.2177227150947, 12.1250073470677], [-86.2176786078143, 12.1258149200342], [-86.2176605516771, 12.126233153164], [-86.2176358480068, 12.1266202948801], [-86.2175366739994, 12.1280986827456], [-86.2175132279705, 12.1284304911217], [-86.2174056996309, 12.1284126623603], [-86.2171198557076, 12.128365323919], [-86.2169765744197, 12.1283439820958], [-86.216792509618, 12.1284187223828], [-86.2165511323012, 12.1284920574267], [-86.2164330936728, 12.128502596593], [-86.2162184861514, 12.128502596593], [-86.2160361281488, 12.1284397128944], [-86.2159020096769, 12.128350481252], [-86.2156927022157, 12.1281833474949], [-86.2150460050426, 12.1281114175903], [-86.2149011067873, 12.1280904270528], [-86.2149440462579, 12.1278260690963], [-86.2149653363301, 12.1276924847933], [-86.2149983943326, 12.1274910982061], [-86.2150460948742, 12.127196966367], [-86.2151033175578, 12.126890011474], [-86.2151486824796, 12.1265645247265], [-86.2151970118419, 12.1262669666076], [-86.2152437242367, 12.1259796839411], [-86.2152900773053, 12.1256937183747], [-86.2153388558252, 12.1253937001167], [-86.2153976954764, 12.1250650497523], [-86.2154536605185, 12.1247641525109], [-86.2155061221311, 12.1244461285251], [-86.2155518463791, 12.1241828208895], [-86.2155901146102, 12.1239621973469], [-86.2140429461964, 12.1237189140091], [-86.2136179532355, 12.1236520769233], [-86.2133418111171, 12.1236086898968], [-86.2125464427646, 12.123483622801], [-86.2121382482995, 12.123419420498], [-86.2116231543155, 12.1233383551877], [-86.2114637931841, 12.1233133241823], [-86.2113501563007, 12.1232954950787], [-86.2110274814506, 12.1232447304325], [-86.2105383487784, 12.1231677929918], [-86.2103804249515, 12.1231430254548], [-86.2101656377671, 12.1231011314243], [-86.2098638038316, 12.1230422865484], [-86.2094597416168, 12.1229635924851], [-86.2096924951069, 12.1224302990698], [-86.2097869080433, 12.1220527245792], [-86.2097099224234, 12.1217052747736], [-86.209658179463, 12.1214653268681], [-86.209601046611, 12.1213717014555], [-86.2093984765144, 12.1210150287337], [-86.2092111777777, 12.120689007843], [-86.2091102969713, 12.1204951692636], [-86.2090982595465, 12.120471894572], [-86.2090356469711, 12.1203535888438], [-86.2089628834331, 12.1202316820698], [-86.208824812374, 12.119985672625], [-86.2087697456471, 12.1198871282568], [-86.2086196371631, 12.119702950316], [-86.2085114800029, 12.1196313694416], [-86.2084658455864, 12.1196011561588], [-86.2084008973914, 12.1195779692184], [-86.2083166354178, 12.119558998084], [-86.2081536810252, 12.1195330884305], [-86.2078901153209, 12.1194911938331], [-86.2078308265121, 12.1194817960923], [-86.2076460430582, 12.1194524610861], [-86.2075235128534, 12.1194329629665], [-86.2070758823473, 12.119361908996], [-86.2070474955844, 12.1193574296969], [-86.2069007108669, 12.1193339792472], [-86.2065645612876, 12.1192805789645], [-86.2062476356554, 12.1192302527015], [-86.206154749855, 12.1192154973556], [-86.2059352914311, 12.1191806290647], [-86.2057798828869, 12.1191558611575], [-86.2055703957627, 12.1191226616188], [-86.205547848049, 12.1191190606103], [-86.2052462836081, 12.1190711935426], [-86.2049440903466, 12.1190230629777], [-86.2048502163994, 12.1190082197909], [-86.2042927219341, 12.1189195997998], [-86.2042231923311, 12.1189086211071], [-86.2039510926315, 12.1188654089682], [-86.2034251290327, 12.1185161105886], [-86.2029050943147, 12.1181706762624], [-86.2027688198861, 12.1180801237373], [-86.2027293838451, 12.1180539504508], [-86.2024392280083, 12.1178611639157], [-86.2021130497287, 12.1176445753234], [-86.2017532744574, 12.1174055898966], [-86.2015742402213, 12.1172866679984], [-86.2013498410633, 12.1172621634057], [-86.2010478274648, 12.1172293149517], [-86.2006029817361, 12.1171808327342], [-86.2002839001472, 12.117144998046], [-86.2002356606164, 12.1171407822], [-86.2001151067053, 12.1171276076809], [-86.1999231367291, 12.1171067041092], [-86.199835910315, 12.1170972184543], [-86.1995444968368, 12.1170654239419], [-86.1989626580273, 12.1170020105659], [-86.1983877362455, 12.1169393876467], [-86.1982548754149, 12.1169248956647], [-86.1978231450894, 12.1168778186752], [-86.197744542502, 12.1168692113143], [-86.1969480961711, 12.1167823472178], [-86.1968499103105, 12.1167717197582], [-86.1964352479754, 12.1167264871773], [-86.1961194901531, 12.1166920577125], [-86.1960152855801, 12.1172595285031], [-86.195935874509, 12.11770324573], [-86.1959092843766, 12.1178361323964], [-86.1958211596472, 12.1183162980085], [-86.1957138109707, 12.1189006286186], [-86.1956182302245, 12.1194210181718], [-86.1955128578417, 12.1199948946897], [-86.1953885310063, 12.1206715298799], [-86.19519772884, 12.1217101931764], [-86.1949714432199, 12.1229415476039], [-86.1949620109094, 12.1229926636206], [-86.1949398225219, 12.1231137786795], [-86.1948876304039, 12.1231120221163], [-86.1934956010396, 12.1230627505141], [-86.1929456524227, 12.1230403543284], [-86.192387079979, 12.1230428135175], [-86.1918522230589, 12.1230578321363], [-86.191433518305, 12.123066175813], [-86.1912053462228, 12.1230708307062], [-86.1911018603021, 12.1230720603006], [-86.1906577332256, 12.1230776813036], [-86.1903090970638, 12.1230669662666], [-86.1897942725745, 12.123078910898], [-86.1893213994089, 12.1231300268884], [-86.1885780435113, 12.123248946182], [-86.1882127885168, 12.1233120945889], [-86.1881477504902, 12.1233232487566], [-86.1876688586123, 12.1234060706327], [-86.1874103234735, 12.123450775113], [-86.1871930210063, 12.1234757182775], [-86.1861627432069, 12.123593846965], [-86.1841591407972, 12.1237472824386], [-86.1838163436848, 12.1237734551666], [-86.1837952332756, 12.1237751238975], [-86.1837299257544, 12.1237801300901], [-86.1822840873047, 12.1238907932711], [-86.1815440551736, 12.1240395736977], [-86.1810290510212, 12.1242493943589], [-86.180642595786, 12.1244346230935], [-86.180557255834, 12.1244754629821], [-86.18016675818, 12.1246483078607], [-86.1796336978904, 12.1247908521047], [-86.1790831204528, 12.1248431095256], [-86.1769778287529, 12.1248766596628], [-86.1757059939737, 12.1249088923822], [-86.1747216200853, 12.1249337475827], [-86.1746096001694, 12.1249365580646], [-86.1733784590725, 12.1250145489255], [-86.1733063243552, 12.1250192037847], [-86.173145975077, 12.1250161298211], [-86.1725681786862, 12.1250048878967], [-86.1703775470344, 12.1244076599808], [-86.1696822510045, 12.1242182154934], [-86.1686630224831, 12.1240608280376], [-86.1675686049724, 12.1236727164982], [-86.1661313903494, 12.1229952106383], [-86.165761913273, 12.1228209594363], [-86.1655600618287, 12.1227257535904]], [[-86.1659303473888, 12.1206147923637], [-86.1650973396258, 12.120647464743], [-86.1650262828869, 12.1200549698461], [-86.1650035555102, 12.1194283080098], [-86.1649828044271, 12.1184785194861], [-86.1649916079169, 12.1182967998058], [-86.1650270015391, 12.1181756825602], [-86.1651243789159, 12.1179891320322], [-86.165377703826, 12.1177398708125], [-86.1656408203727, 12.1174809480587], [-86.1661990334903, 12.1169054851905], [-86.1662432306023, 12.1168599013114], [-86.1668457306633, 12.1174339589974], [-86.1669500250678, 12.1175245995717], [-86.1674405950445, 12.1181178905556], [-86.1669629608079, 12.1186332753463], [-86.1668640562951, 12.11874007616], [-86.1665553951635, 12.1191229251072], [-86.1664696060539, 12.1192226993698], [-86.166255088364, 12.1194723983511], [-86.1661604059331, 12.1195952715945], [-86.1660395825273, 12.1199919963266], [-86.1660382350544, 12.1200078934089], [-86.1659617884237, 12.1204373777614], [-86.1659303473888, 12.1206147923637]], [[-86.1659303473888, 12.1206147923637], [-86.1659254066547, 12.1206428976364], [-86.1658637822263, 12.1209942132955], [-86.1658348564741, 12.121281062188], [-86.1658146443802, 12.1214806968905], [-86.1657083736821, 12.1220343684204], [-86.1655600618287, 12.1227257535904]], [[-86.1659303473888, 12.1206147923637], [-86.1659254066547, 12.1206428976364], [-86.1658637822263, 12.1209942132955], [-86.1658348564741, 12.121281062188], [-86.1658146443802, 12.1214806968905], [-86.1657083736821, 12.1220343684204], [-86.1655600618287, 12.1227257535904]], [[-86.1588615044181, 12.1261585000915], [-86.1588737215059, 12.1262122503058], [-86.1588792012292, 12.1262677570517], [-86.1588809978597, 12.1262809311194], [-86.1589011201221, 12.126322385515], [-86.1589127982208, 12.1263327491129], [-86.1589665174748, 12.1263730617483], [-86.1589966110368, 12.1263749939442], [-86.1590364962354, 12.1263850062317], [-86.1590750339611, 12.1264153065732], [-86.1591432160912, 12.1264414790393], [-86.1592378086906, 12.126472657645], [-86.1594578061037, 12.126590872832], [-86.1594951760195, 12.1266258279813], [-86.1595180830592, 12.1266601683371], [-86.1595392832999, 12.126700480923], [-86.1595432358872, 12.1267942801189], [-86.1595024523733, 12.1269924176378], [-86.1594754130832, 12.1274767824508], [-86.1594675079087, 12.1275121766175], [-86.1594516975597, 12.1277629217583], [-86.1594650824575, 12.1277906749712], [-86.1594728978004, 12.1280793609111], [-86.159468226561, 12.1282135598056], [-86.1594808029749, 12.1286007864726], [-86.159446128005, 12.1286840458413], [-86.1594189090519, 12.128753252976], [-86.1594314854658, 12.1288043678788], [-86.1594761317355, 12.1288522331997], [-86.1595233831194, 12.1288537262463], [-86.1598694141668, 12.1285424697685], [-86.1599419980418, 12.1284190736884], [-86.160339502555, 12.128172281357], [-86.1608270182597, 12.1280551207894], [-86.1616663142297, 12.1279748473273], [-86.1617988157341, 12.1279254887971], [-86.1619187408245, 12.1277651174239], [-86.1619629379365, 12.12759851026], [-86.1620450439535, 12.1270431815706], [-86.1620701967814, 12.1264817916583], [-86.1622026982858, 12.1262410576058], [-86.164836918025, 12.12242213103], [-86.1649355530432, 12.122413084706], [-86.1651955254864, 12.1225432463479], [-86.1655600618287, 12.1227257535904]]]}, "type": "Feature", "properties": {"name": "163"}}, {"geometry": {"type": "Point", "coordinates": [-86.1659572968473, 12.1206487821775]}, "type": "Feature", "properties": {"name": "Campo de f\u00fatbol", "popupContent": "This is where the Rockies play!"}}, {"geometry": {"type": "Point", "coordinates": [-86.1659254964863, 12.1206428976364]}, "type": "Feature", "properties": {"name": null, "popupContent": "This is where the Rockies play!"}}, {"geometry": {"type": "Point", "coordinates": [-86.1661991233218, 12.1169054851905]}, "type": "Feature", "properties": {"name": null, "popupContent": "This is where the Rockies play!"}}, {"geometry": {"type": "Point", "coordinates": [-86.1661582499764, 12.1168705287675]}, "type": "Feature", "properties": {"name": "Transporte Gash", "popupContent": "This is where the Rockies play!"}}, {"geometry": {"type": "Point", "coordinates": [-86.1661218682074, 12.1230374559983]}, "type": "Feature", "properties": {"name": "Escuela Benito Pitito", "popupContent": "This is where the Rockies play!"}}, {"geometry": {"type": "Point", "coordinates": [-86.1661314801809, 12.1229952106383]}, "type": "Feature", "properties": {"name": null, "popupContent": "This is where the Rockies play!"}}, {"geometry": {"type": "Point", "coordinates": [-86.1731418428267, 12.1250950867612]}, "type": "Feature", "properties": {"name": "Los Cruces", "popupContent": "This is where the Rockies play!"}}, {"geometry": {"type": "Point", "coordinates": [-86.1731460649085, 12.1250161298211]}, "type": "Feature", "properties": {"name": null, "popupContent": "This is where the Rockies play!"}}, {"geometry": {"type": "Point", "coordinates": [-86.1810497122728, 12.124289795137]}, "type": "Feature", "properties": {"name": "Altos la Sabana", "popupContent": "This is where the Rockies play!"}}, {"geometry": {"type": "Point", "coordinates": [-86.1810291408528, 12.1242493943589]}, "type": "Feature", "properties": {"name": null, "popupContent": "This is where the Rockies play!"}}, {"geometry": {"type": "Point", "coordinates": [-86.1841670459717, 12.1237919868617]}, "type": "Feature", "properties": {"name": "Cortijo La Sabana", "popupContent": "This is where the Rockies play!"}}, {"geometry": {"type": "Point", "coordinates": [-86.1841592306287, 12.1237472824386]}, "type": "Feature", "properties": {"name": null, "popupContent": "This is where the Rockies play!"}}, {"geometry": {"type": "Point", "coordinates": [-86.1882108122232, 12.1233674262823]}, "type": "Feature", "properties": {"name": "Comercial Fern\u00e1ndez", "popupContent": "This is where the Rockies play!"}}, {"geometry": {"type": "Point", "coordinates": [-86.1882128783483, 12.1233120945889]}, "type": "Feature", "properties": {"name": null, "popupContent": "This is where the Rockies play!"}}, {"geometry": {"type": "Point", "coordinates": [-86.1914327098212, 12.12309990183]}, "type": "Feature", "properties": {"name": "Bayer", "popupContent": "This is where the Rockies play!"}}, {"geometry": {"type": "Point", "coordinates": [-86.1914336081365, 12.123066175813]}, "type": "Feature", "properties": {"name": null, "popupContent": "This is where the Rockies play!"}}, {"geometry": {"type": "Point", "coordinates": [-86.1950289353981, 12.1229518235049]}, "type": "Feature", "properties": {"name": "Autolavado Jehov\u00e1", "popupContent": "This is where the Rockies play!"}}, {"geometry": {"type": "Point", "coordinates": [-86.1949715330515, 12.1229415476039]}, "type": "Feature", "properties": {"name": null, "popupContent": "This is where the Rockies play!"}}, {"geometry": {"type": "Point", "coordinates": [-86.1960584945452, 12.1177228318059]}, "type": "Feature", "properties": {"name": "Pulper\u00eda La Ventecita", "popupContent": "This is where the Rockies play!"}}, {"geometry": {"type": "Point", "coordinates": [-86.1959359643405, 12.11770324573]}, "type": "Feature", "properties": {"name": null, "popupContent": "This is where the Rockies play!"}}, {"geometry": {"type": "Point", "coordinates": [-86.1969427062794, 12.1168174793129]}, "type": "Feature", "properties": {"name": "Terminal 118", "popupContent": "This is where the Rockies play!"}}, {"geometry": {"type": "Point", "coordinates": [-86.1969481860026, 12.1167823472178]}, "type": "Feature", "properties": {"name": null, "popupContent": "This is where the Rockies play!"}}, {"geometry": {"type": "Point", "coordinates": [-86.199821806765, 12.1171489504016]}, "type": "Feature", "properties": {"name": "Farmacia Deygut", "popupContent": "This is where the Rockies play!"}}, {"geometry": {"type": "Point", "coordinates": [-86.1998360001465, 12.1170972184543]}, "type": "Feature", "properties": {"name": null, "popupContent": "This is where the Rockies play!"}}, {"geometry": {"type": "Point", "coordinates": [-86.2027062971423, 12.1180746782886]}, "type": "Feature", "properties": {"name": "Ixchen", "popupContent": "This is where the Rockies play!"}}, {"geometry": {"type": "Point", "coordinates": [-86.2027294736766, 12.1180539504508]}, "type": "Feature", "properties": {"name": null, "popupContent": "This is where the Rockies play!"}}, {"geometry": {"type": "Point", "coordinates": [-86.2058025204321, 12.1192015324739]}, "type": "Feature", "properties": {"name": "La Sabana", "popupContent": "This is where the Rockies play!"}}, {"geometry": {"type": "Point", "coordinates": [-86.2057799727184, 12.1191558611575]}, "type": "Feature", "properties": {"name": null, "popupContent": "This is where the Rockies play!"}}, {"geometry": {"type": "Point", "coordinates": [-86.2070706721187, 12.1193901900595]}, "type": "Feature", "properties": {"name": "Pulper\u00eda Meydar", "popupContent": "This is where the Rockies play!"}}, {"geometry": {"type": "Point", "coordinates": [-86.2070759721789, 12.119361908996]}, "type": "Feature", "properties": {"name": null, "popupContent": "This is where the Rockies play!"}}, {"geometry": {"type": "Point", "coordinates": [-86.2090662795223, 12.1205115932901]}, "type": "Feature", "properties": {"name": "La Chelita", "popupContent": "This is where the Rockies play!"}}, {"geometry": {"type": "Point", "coordinates": [-86.2091103868028, 12.1204951692636]}, "type": "Feature", "properties": {"name": null, "popupContent": "This is where the Rockies play!"}}, {"geometry": {"type": "Point", "coordinates": [-86.2105413132189, 12.1232233003713]}, "type": "Feature", "properties": {"name": "Farmacia Villa Venezuela", "popupContent": "This is where the Rockies play!"}}, {"geometry": {"type": "Point", "coordinates": [-86.21053843861, 12.1231677929918]}, "type": "Feature", "properties": {"name": null, "popupContent": "This is where the Rockies play!"}}, {"geometry": {"type": "Point", "coordinates": [-86.2136074429467, 12.1236958152547]}, "type": "Feature", "properties": {"name": "Colegio Villa Venezuela Sur", "popupContent": "This is where the Rockies play!"}}, {"geometry": {"type": "Point", "coordinates": [-86.213618043067, 12.1236520769233]}, "type": "Feature", "properties": {"name": null, "popupContent": "This is where the Rockies play!"}}, {"geometry": {"type": "Point", "coordinates": [-86.2155519362106, 12.1241828208895]}, "type": "Feature", "properties": {"name": null, "popupContent": "This is where the Rockies play!"}}, {"geometry": {"type": "Point", "coordinates": [-86.2155192375343, 12.124175706837]}, "type": "Feature", "properties": {"name": "Colegio Villa Venezuela Oeste", "popupContent": "This is where the Rockies play!"}}, {"geometry": {"type": "Point", "coordinates": [-86.2149654261616, 12.1276924847933]}, "type": "Feature", "properties": {"name": null, "popupContent": "This is where the Rockies play!"}}, {"geometry": {"type": "Point", "coordinates": [-86.2149100001086, 12.1276910795669]}, "type": "Feature", "properties": {"name": "Sem\u00e1foro Iv\u00e1n Montenegro", "popupContent": "This is where the Rockies play!"}}, {"geometry": {"type": "Point", "coordinates": [-86.2158966197852, 12.1283718230747]}, "type": "Feature", "properties": {"name": "Mercado Iv\u00e1n Montenegro Sur", "popupContent": "This is where the Rockies play!"}}, {"geometry": {"type": "Point", "coordinates": [-86.2159020995084, 12.128350481252]}, "type": "Feature", "properties": {"name": null, "popupContent": "This is where the Rockies play!"}}, {"geometry": {"type": "Point", "coordinates": [-86.2178122771285, 12.1245344831971]}, "type": "Feature", "properties": {"name": null, "popupContent": "This is where the Rockies play!"}}, {"geometry": {"type": "Point", "coordinates": [-86.2177519103414, 12.1245278961202]}, "type": "Feature", "properties": {"name": null, "popupContent": "This is where the Rockies play!"}}, {"geometry": {"type": "Point", "coordinates": [-86.2211263418747, 12.1242723174099]}, "type": "Feature", "properties": {"name": "Farmacia Mery", "popupContent": "This is where the Rockies play!"}}, {"geometry": {"type": "Point", "coordinates": [-86.2210679513813, 12.1242550153371]}, "type": "Feature", "properties": {"name": null, "popupContent": "This is where the Rockies play!"}}, {"geometry": {"type": "Point", "coordinates": [-86.2217690864605, 12.1207552308687]}, "type": "Feature", "properties": {"name": null, "popupContent": "This is where the Rockies play!"}}, {"geometry": {"type": "Point", "coordinates": [-86.2218004376639, 12.1207552308687]}, "type": "Feature", "properties": {"name": "Iglesia Madre del Divino Amor", "popupContent": "This is where the Rockies play!"}}, {"geometry": {"type": "Point", "coordinates": [-86.2285494803935, 12.1218925253317]}, "type": "Feature", "properties": {"name": "Centro Escolar Nuevo Amanecer", "popupContent": "This is where the Rockies play!"}}, {"geometry": {"type": "Point", "coordinates": [-86.2285560380951, 12.1218694264191]}, "type": "Feature", "properties": {"name": null, "popupContent": "This is where the Rockies play!"}}, {"geometry": {"type": "Point", "coordinates": [-86.2312722740197, 12.1210556056594]}, "type": "Feature", "properties": {"name": "Iglesia Inmaculada Concepci\u00f3n", "popupContent": "This is where the Rockies play!"}}, {"geometry": {"type": "Point", "coordinates": [-86.2312897013362, 12.1210368102877]}, "type": "Feature", "properties": {"name": null, "popupContent": "This is where the Rockies play!"}}, {"geometry": {"type": "Point", "coordinates": [-86.2316161491104, 12.1229050988918]}, "type": "Feature", "properties": {"name": null, "popupContent": "This is where the Rockies play!"}}, {"geometry": {"type": "Point", "coordinates": [-86.2315776113848, 12.1228949108172]}, "type": "Feature", "properties": {"name": "Pulper\u00eda", "popupContent": "This is where the Rockies play!"}}, {"geometry": {"type": "Point", "coordinates": [-86.2319865245021, 12.1251375952711]}, "type": "Feature", "properties": {"name": null, "popupContent": "This is where the Rockies play!"}}, {"geometry": {"type": "Point", "coordinates": [-86.2319801464635, 12.1251750097803]}, "type": "Feature", "properties": {"name": "Cafet\u00edn Nareli", "popupContent": "This is where the Rockies play!"}}, {"geometry": {"type": "Point", "coordinates": [-86.2333145938181, 12.1253655953445]}, "type": "Feature", "properties": {"name": "Black Power Gym", "popupContent": "This is where the Rockies play!"}}, {"geometry": {"type": "Point", "coordinates": [-86.233323576971, 12.1253278295523]}, "type": "Feature", "properties": {"name": null, "popupContent": "This is where the Rockies play!"}}, {"geometry": {"type": "Point", "coordinates": [-86.2448129396233, 12.1230539676964]}, "type": "Feature", "properties": {"name": "Huembes Noroeste", "popupContent": "This is where the Rockies play!"}}, {"geometry": {"type": "Point", "coordinates": [-86.2448561485885, 12.1230237548012]}, "type": "Feature", "properties": {"name": null, "popupContent": "This is where the Rockies play!"}}, {"geometry": {"type": "Point", "coordinates": [-86.2391039663297, 12.1263762235234]}, "type": "Feature", "properties": {"name": "Ferreter\u00eda Jenny", "popupContent": "This is where the Rockies play!"}}, {"geometry": {"type": "Point", "coordinates": [-86.2390599488808, 12.1263204533188]}, "type": "Feature", "properties": {"name": null, "popupContent": "This is where the Rockies play!"}}, {"geometry": {"type": "Point", "coordinates": [-86.234775074807, 12.1283266802872]}, "type": "Feature", "properties": {"name": "Sem\u00e1foros Nicarao", "popupContent": "This is where the Rockies play!"}}, {"geometry": {"type": "Point", "coordinates": [-86.2347334828094, 12.1282595808769]}, "type": "Feature", "properties": {"name": null, "popupContent": "This is where the Rockies play!"}}, {"geometry": {"type": "Point", "coordinates": [-86.2454952999131, 12.1259781030512]}, "type": "Feature", "properties": {"name": "Polic\u00eda de Tr\u00e1nsito", "popupContent": "This is where the Rockies play!"}}, {"geometry": {"type": "Point", "coordinates": [-86.245554948048, 12.1259835483385]}, "type": "Feature", "properties": {"name": null, "popupContent": "This is where the Rockies play!"}}, {"geometry": {"type": "Point", "coordinates": [-86.2447726052671, 12.1289845873545]}, "type": "Feature", "properties": {"name": "Escuela de Manejo", "popupContent": "This is where the Rockies play!"}}, {"geometry": {"type": "Point", "coordinates": [-86.2448151854115, 12.1289441872877]}, "type": "Feature", "properties": {"name": null, "popupContent": "This is where the Rockies play!"}}, {"geometry": {"type": "Point", "coordinates": [-86.2475254924552, 12.1310996101279]}, "type": "Feature", "properties": {"name": null, "popupContent": "This is where the Rockies play!"}}, {"geometry": {"type": "Point", "coordinates": [-86.2474815648379, 12.1311378142302]}, "type": "Feature", "properties": {"name": "Farmacia Susan", "popupContent": "This is where the Rockies play!"}}, {"geometry": {"type": "Point", "coordinates": [-86.2506433651434, 12.1362283081822]}, "type": "Feature", "properties": {"name": null, "popupContent": "This is where the Rockies play!"}}, {"geometry": {"type": "Point", "coordinates": [-86.2506082410158, 12.1362433260581]}, "type": "Feature", "properties": {"name": "El Dorado", "popupContent": "This is where the Rockies play!"}}, {"geometry": {"type": "Point", "coordinates": [-86.2536358330178, 12.1368176933109]}, "type": "Feature", "properties": {"name": null, "popupContent": "This is where the Rockies play!"}}, {"geometry": {"type": "Point", "coordinates": [-86.2535972054606, 12.1368154977197]}, "type": "Feature", "properties": {"name": "Ferreter\u00eda Universal", "popupContent": "This is where the Rockies play!"}}, {"geometry": {"type": "Point", "coordinates": [-86.2537682446907, 12.1385782880903]}, "type": "Feature", "properties": {"name": "Los Paisas", "popupContent": "This is where the Rockies play!"}}, {"geometry": {"type": "Point", "coordinates": [-86.2534919229093, 12.1375540935504]}, "type": "Feature", "properties": {"name": null, "popupContent": "This is where the Rockies play!"}}, {"geometry": {"type": "Point", "coordinates": [-86.253441886748, 12.1375481215591]}, "type": "Feature", "properties": {"name": "Comedor Apost\u00f3lico", "popupContent": "This is where the Rockies play!"}}, {"geometry": {"type": "Point", "coordinates": [-86.2538132502864, 12.1385424562778]}, "type": "Feature", "properties": {"name": null, "popupContent": "This is where the Rockies play!"}}, {"geometry": {"type": "Point", "coordinates": [-86.256633690784, 12.139094160268]}, "type": "Feature", "properties": {"name": "PMS Construcciones", "popupContent": "This is where the Rockies play!"}}, {"geometry": {"type": "Point", "coordinates": [-86.2566679165963, 12.1390639491908]}, "type": "Feature", "properties": {"name": null, "popupContent": "This is where the Rockies play!"}}, {"geometry": {"type": "Point", "coordinates": [-86.2605050703324, 12.1430729467531]}, "type": "Feature", "properties": {"name": "Taller de Mec\u00e1nica", "popupContent": "This is where the Rockies play!"}}, {"geometry": {"type": "Point", "coordinates": [-86.2605160297789, 12.1430198146908]}, "type": "Feature", "properties": {"name": null, "popupContent": "This is where the Rockies play!"}}, {"geometry": {"type": "Point", "coordinates": [-86.2633521907939, 12.1455354525197]}, "type": "Feature", "properties": {"name": "El Panal", "popupContent": "This is where the Rockies play!"}}, {"geometry": {"type": "Point", "coordinates": [-86.2633626112512, 12.1454997094641]}, "type": "Feature", "properties": {"name": null, "popupContent": "This is where the Rockies play!"}}, {"geometry": {"type": "Point", "coordinates": [-86.2281838660729, 12.1217882728092]}, "type": "Feature", "properties": {"name": null, "popupContent": "This is where the Rockies play!"}}, {"geometry": {"type": "Point", "coordinates": [-86.2281988679381, 12.1217403183918]}, "type": "Feature", "properties": {"name": "Miscel\u00e1nea La Principal", "popupContent": "This is where the Rockies play!"}}]}